{"businesses":[{"id":"44SY464xDHbvOcjDzRbKkQ","name":"Ippudo East Village","cuisine":"Japanese","address":"65 4th Ave","coordinates":{"latitude":40.730922,"longitude":-73.990167},"review_count":9290,"rating":4,"zip_code":"10003"},{"id":"-134ZvJ4lgiqx-sjRBWQ9g","name":"Totto Ramen","cuisine":"Japanese","address":"366 W 52nd St","coordinates":{"latitude":40.7643285462369,"longitude":-73.9876558773155},"review_count":4796,"rating":4,"zip_code":"10019"},{"id":"TN4RnyqHMSupRFot4Q-_EA","name":"Ippudo Westside","cuisine":"Japanese","address":"321 W 51st St","coordinates":{"latitude":40.76354,"longitude":-73.98653},"review_count":3085,"rating":4,"zip_code":"10019"},{"id":"t1w4qyqyfEdTPhoy-5t3FA","name":"Morimoto","cuisine":"Japanese","address":"88 10th Ave","coordinates":{"latitude":40.74312,"longitude":-74.007185},"review_count":2747,"rating":4,"zip_code":"10011"},{"id":"7EaiwMVaNdQibSs0yYkE5Q","name":"Sushi Yasuda","cuisine":"Japanese","address":"204 E 43rd St","coordinates":{"latitude":40.75113,"longitude":-73.97347},"review_count":1925,"rating":4,"zip_code":"10017"},{"id":"klAhw3xLQi9GF1tf_HnS7w","name":"Izakaya MEW","cuisine":"Japanese","address":"53 W 35th St","coordinates":{"latitude":40.7501853096499,"longitude":-73.9863203465939},"review_count":1696,"rating":4,"zip_code":"10001"},{"id":"7iY35991NhQ1AShJZCNZgA","name":"Sakagura","cuisine":"Japanese","address":"211 E 43rd St","coordinates":{"latitude":40.7516467024541,"longitude":-73.9729489318165},"review_count":1606,"rating":4,"zip_code":"10017"},{"id":"HZWHBfeuP4Fb6y8b8uqnbA","name":"Sushi Yasaka","cuisine":"Japanese","address":"251 W 72nd St","coordinates":{"latitude":40.779583,"longitude":-73.983482},"review_count":1482,"rating":4,"zip_code":"10023"},{"id":"zGAQqDu0Ak2khVYs9WdQxw","name":"Sushi Nakazawa","cuisine":"Japanese","address":"23 Commerce St","coordinates":{"latitude":40.7317465228689,"longitude":-74.0045493828034},"review_count":1086,"rating":4.5,"zip_code":"10014"},{"id":"5QgBCrAbXbM1ORiqZDrBPQ","name":"Cha-An","cuisine":"Japanese","address":"230 E 9th St","coordinates":{"latitude":40.72947,"longitude":-73.98813},"review_count":1504,"rating":4,"zip_code":"10003"},{"id":"HfJhenvKDi-ds8SUJFwrLg","name":"Momofuku Noodle Bar","cuisine":"Japanese","address":"171 1st Ave","coordinates":{"latitude":40.7292063820076,"longitude":-73.9844848239426},"review_count":3834,"rating":3.5,"zip_code":"10003"},{"id":"bB8dHfAEJrF5tNcHr0yJjA","name":"Gyu-Kaku Japanese BBQ","cuisine":"Japanese","address":"34 Cooper Sq","coordinates":{"latitude":40.72822,"longitude":-73.99142},"review_count":1464,"rating":4,"zip_code":"10003"},{"id":"Lbs8QBRN1U7IYBo5Mcv-RQ","name":"88 Lan Zhou Handmade Noodles & Dumplings","cuisine":"Japanese","address":"40 Bowery St","coordinates":{"latitude":40.7156552,"longitude":-73.9969012},"review_count":1377,"rating":4,"zip_code":"10013"},{"id":"OLSSJIp8pu5UlugTF7tuHA","name":"Ootoya Chelsea","cuisine":"Japanese","address":"8 W 18th St","coordinates":{"latitude":40.738767,"longitude":-73.992778},"review_count":1156,"rating":4,"zip_code":"10011"},{"id":"eRtceh_W_yniAfCqJni5Bg","name":"Go! Go! Curry!","cuisine":"Japanese","address":"273 W 38th St","coordinates":{"latitude":40.75463,"longitude":-73.99115},"review_count":1300,"rating":4,"zip_code":"10018"},{"id":"8fr5FYU1ip0phERt1mrekg","name":"Bohemian Restaurant","cuisine":"Japanese","address":"57 Great Jones St","coordinates":{"latitude":40.72639,"longitude":-73.99236},"review_count":640,"rating":4.5,"zip_code":"10012"},{"id":"FlZ1zdVEKWv7dwqm8Uw8-w","name":"Raku","cuisine":"Japanese","address":"342 E 6th St","coordinates":{"latitude":40.7264988089246,"longitude":-73.9866526052356},"review_count":639,"rating":4.5,"zip_code":"10003"},{"id":"6lUsFj0KCao678o9L7QwUw","name":"Hatsuhana Sushi Restaurant","cuisine":"Japanese","address":"17 E 48th St","coordinates":{"latitude":40.75703,"longitude":-73.97692},"review_count":1045,"rating":4,"zip_code":"10017"},{"id":"oTkzgr7hzOAdlP99Auj3GQ","name":"Momosan Ramen & Sake","cuisine":"Japanese","address":"342 Lexington Ave","coordinates":{"latitude":40.74993,"longitude":-73.97746},"review_count":1179,"rating":4,"zip_code":"10016"},{"id":"6qzNc9Z9DHYYleKqrW_K3g","name":"Takashi","cuisine":"Japanese","address":"456 Hudson St","coordinates":{"latitude":40.7313524,"longitude":-74.0065048},"review_count":875,"rating":4,"zip_code":"10014"},{"id":"YC-wGlO0oOkEIaCEDZv-ag","name":"Yakitori Totto","cuisine":"Japanese","address":"251 W 55th St","coordinates":{"latitude":40.765375,"longitude":-73.983114},"review_count":1159,"rating":4,"zip_code":"10019"},{"id":"JhJLPp6KuBcD3CHCkEKJ_A","name":"Cocoron","cuisine":"Japanese","address":"16 Delancey St","coordinates":{"latitude":40.72031,"longitude":-73.99305},"review_count":888,"rating":4,"zip_code":"10002"},{"id":"raelHbSJ_gTo701c-KyXWg","name":"Minca","cuisine":"Japanese","address":"536 E 5th St","coordinates":{"latitude":40.72412,"longitude":-73.98288},"review_count":1539,"rating":4,"zip_code":"10009"},{"id":"J9UA6rzI5WW_cDGjwDnF5g","name":"Tsurutontan Udon Noodle Brasserie","cuisine":"Japanese","address":"21 E 16th St","coordinates":{"latitude":40.73678,"longitude":-73.9910699},"review_count":1137,"rating":4,"zip_code":"10003"},{"id":"bJgl6cDIBIMlgrntQbxt1g","name":"Café Zaiya","cuisine":"Japanese","address":"18 E 41st St","coordinates":{"latitude":40.7523,"longitude":-73.98043},"review_count":1034,"rating":4,"zip_code":"10017"},{"id":"SxKvgnkMMZdhBJcxxKQnww","name":"Nobu 57","cuisine":"Japanese","address":"40 W 57th St","coordinates":{"latitude":40.7636210840864,"longitude":-73.9765048613641},"review_count":989,"rating":4,"zip_code":"10019"},{"id":"TBp9gdS6xEbSQqffVZ7iag","name":"KazuNori  | The Original Hand Roll Bar","cuisine":"Japanese","address":"15 W 28th St","coordinates":{"latitude":40.74519,"longitude":-73.98824},"review_count":428,"rating":4.5,"zip_code":"10001"},{"id":"nEkVibaTuIFEcTNtltFgJg","name":"Kura","cuisine":"Japanese","address":"130 St Marks Pl","coordinates":{"latitude":40.7266868,"longitude":-73.9835794},"review_count":373,"rating":4.5,"zip_code":"10009"},{"id":"QR1YIRzFjd2bi5iBzT9zXg","name":"Blue Ribbon Sushi","cuisine":"Japanese","address":"119 Sullivan St","coordinates":{"latitude":40.72612,"longitude":-74.0025299},"review_count":965,"rating":4,"zip_code":"10012"},{"id":"diCW3Pj1PTVRSyol_d7cZw","name":"Chef's Table at Brooklyn Fare","cuisine":"Japanese","address":"431 W 37th St","coordinates":{"latitude":40.7561930774282,"longitude":-73.9966090932068},"review_count":430,"rating":4.5,"zip_code":"10018"},{"id":"dtk1Cstz5MHr-B1AOM_nXA","name":"Gyu-Kaku Japanese BBQ","cuisine":"Japanese","address":"805 3rd Ave","coordinates":{"latitude":40.75537,"longitude":-73.97054},"review_count":972,"rating":4,"zip_code":"10022"},{"id":"i8ejDDR4COtukAAA1Ls5fw","name":"Soba-ya","cuisine":"Japanese","address":"229 E 9th St","coordinates":{"latitude":40.7296485900879,"longitude":-73.9878845214844},"review_count":1278,"rating":4,"zip_code":"10003"},{"id":"wjIyCBEpCG_HRp8veiI0YQ","name":"Ootoya Times Square","cuisine":"Japanese","address":"141 W 41st St","coordinates":{"latitude":40.7548699,"longitude":-73.98599},"review_count":676,"rating":4,"zip_code":"10036"},{"id":"-J8VuX3wGrYSOBu2G0hMsw","name":"Katsu-Hama","cuisine":"Japanese","address":"11 E 47th St","coordinates":{"latitude":40.75638,"longitude":-73.97759},"review_count":1078,"rating":4,"zip_code":"10017"},{"id":"Ad3dUoLatOdNtB4LxfmmWg","name":"Yakitori Taisho","cuisine":"Japanese","address":"5 St Marks Pl","coordinates":{"latitude":40.729535,"longitude":-73.9892642},"review_count":1487,"rating":3.5,"zip_code":"10003"},{"id":"ONQRhDuWv0e9R5xOiI7YAA","name":"Gyu-Kaku Japanese BBQ","cuisine":"Japanese","address":"321 W 44th St","coordinates":{"latitude":40.75908,"longitude":-73.98989},"review_count":993,"rating":4,"zip_code":"10036"},{"id":"wSGZA3DOFSUvALZRKCM_Sw","name":"Tanoshi Sushi Sake Bar","cuisine":"Japanese","address":"1372 York Ave","coordinates":{"latitude":40.767568,"longitude":-73.952815},"review_count":499,"rating":4.5,"zip_code":"10021"},{"id":"P_UREWCQxEYVbBa-KW_Wew","name":"EN Japanese Brasserie","cuisine":"Japanese","address":"435 Hudson St","coordinates":{"latitude":40.7306,"longitude":-74.00698},"review_count":1146,"rating":4,"zip_code":"10014"},{"id":"ZfuZ2byArGq-5j8zX8Afeg","name":"Zest Sushi","cuisine":"Japanese","address":"249 Broome St","coordinates":{"latitude":40.7178344726563,"longitude":-73.9899597167969},"review_count":703,"rating":4,"zip_code":"10002"},{"id":"9jRwUN3z7k0seLOzWERVeg","name":"Ramen-Ya","cuisine":"Japanese","address":"181 W 4th St","coordinates":{"latitude":40.732536,"longitude":-74.001681},"review_count":827,"rating":4,"zip_code":"10014"},{"id":"GlPJPpKvPR4d8dmcSEYpdA","name":"Takahachi Bakery","cuisine":"Japanese","address":"25 Murray St","coordinates":{"latitude":40.71373,"longitude":-74.00843},"review_count":723,"rating":4,"zip_code":"10007"},{"id":"BPZfuPvSxCfoppU4lPFm0Q","name":"DOMODOMO","cuisine":"Japanese","address":"138 W Houston St","coordinates":{"latitude":40.72808,"longitude":-74.00157},"review_count":560,"rating":4,"zip_code":"10012"},{"id":"KfaG5PoTEPpbODHBta9irw","name":"Hakata Tonton","cuisine":"Japanese","address":"61 Grove St","coordinates":{"latitude":40.73333,"longitude":-74.00331},"review_count":883,"rating":4,"zip_code":"10014"},{"id":"ytABgZNWnFXQUjOYjh460A","name":"Kyo Ya","cuisine":"Japanese","address":"94 E 7th St","coordinates":{"latitude":40.7267,"longitude":-73.9853399},"review_count":424,"rating":4.5,"zip_code":"10009"},{"id":"m6sYBuozGY1JhnHlBf1Bzg","name":"BondSt","cuisine":"Japanese","address":"6 Bond St","coordinates":{"latitude":40.726934,"longitude":-73.994404},"review_count":847,"rating":4,"zip_code":"10012"},{"id":"DPDznXYX5DBLBASKfxQ-DQ","name":"Totto Ramen Hell's Kitchen","cuisine":"Japanese","address":"464 W 51st St","coordinates":{"latitude":40.765055,"longitude":-73.991001},"review_count":883,"rating":4,"zip_code":"10019"},{"id":"9xRIcn0jTyvWNH9aBO3oAA","name":"Kenka","cuisine":"Japanese","address":"25 St Marks Pl","coordinates":{"latitude":40.72913,"longitude":-73.988465},"review_count":1401,"rating":3.5,"zip_code":"10003"},{"id":"wWmVAc4NnB3q0onYRM-RkA","name":"Zundo-Ya","cuisine":"Japanese","address":"84 E 10th St","coordinates":{"latitude":40.7308616638184,"longitude":-73.9899444580078},"review_count":592,"rating":4,"zip_code":"10003"},{"id":"i9W3EVA6FjB6lWWSEmhndA","name":"Sake Bar Decibel","cuisine":"Japanese","address":"240 E 9th St","coordinates":{"latitude":40.729263,"longitude":-73.987792},"review_count":860,"rating":4,"zip_code":"10003"},{"id":"_FhKGcCbiYgtkXcCiwTAiA","name":"Aburiya Kinnosuke","cuisine":"Japanese","address":"213 E 45th St","coordinates":{"latitude":40.7525199,"longitude":-73.97235},"review_count":647,"rating":4,"zip_code":"10017"},{"id":"qiw9Kgsu5YVGrQL_OeDmcQ","name":"Hide-Chan Ramen","cuisine":"Japanese","address":"248 E 52nd St","coordinates":{"latitude":40.75613,"longitude":-73.9682},"review_count":1255,"rating":3.5,"zip_code":"10022"},{"id":"Ms1p17KsYteDlkvHnllC2g","name":"Soba Totto","cuisine":"Japanese","address":"211 E 43rd St","coordinates":{"latitude":40.75122,"longitude":-73.97317},"review_count":731,"rating":4,"zip_code":"10017"},{"id":"bHGETjP_InKy0sIVHFgHyw","name":"Sushi Of Gari","cuisine":"Japanese","address":"402 E 78th St","coordinates":{"latitude":40.771255,"longitude":-73.952947},"review_count":547,"rating":4,"zip_code":"10075"},{"id":"pqebqpVTT8bR_s9iEu8dOA","name":"Curry-Ya","cuisine":"Japanese","address":"214 E 10th St","coordinates":{"latitude":40.72922,"longitude":-73.98604},"review_count":658,"rating":4,"zip_code":"10003"},{"id":"Pfjb9Rn5Th7R-pLXVARwlA","name":"Jin Ramen - West Harlem","cuisine":"Japanese","address":"3183 Broadway","coordinates":{"latitude":40.8154774,"longitude":-73.9587672},"review_count":943,"rating":4,"zip_code":"10027"},{"id":"Brs_MJhAXe60iMnlpeqkKA","name":"Yakiniku West","cuisine":"Japanese","address":"218 E 9th St","coordinates":{"latitude":40.72955,"longitude":-73.98858},"review_count":690,"rating":4,"zip_code":"10003"},{"id":"xrnk8mgoV7up6fauVmugpw","name":"Jun-Men Ramen Bar","cuisine":"Japanese","address":"249 9th Ave","coordinates":{"latitude":40.7479218427298,"longitude":-74.0003547856351},"review_count":493,"rating":4,"zip_code":"10001"},{"id":"MvmuCDXPliFUYJ7B7Y02AA","name":"Menkui-Tei","cuisine":"Japanese","address":"58 W 56th St","coordinates":{"latitude":40.76326,"longitude":-73.97706},"review_count":981,"rating":3.5,"zip_code":"10019"},{"id":"ev6e12vhY_0y4qE1cRhv0A","name":"Udon West","cuisine":"Japanese","address":"150 E 46th St","coordinates":{"latitude":40.7534980773926,"longitude":-73.9736022949219},"review_count":821,"rating":4,"zip_code":"10017"},{"id":"wcwftlB-61XG4ymGTR61aw","name":"SakaMai","cuisine":"Japanese","address":"157 Ludlow St","coordinates":{"latitude":40.7209536656701,"longitude":-73.9881407239426},"review_count":517,"rating":4,"zip_code":"10002"},{"id":"RjeW_l8OF99rn5df5-Rj4g","name":"Totto Ramen - Midtown East","cuisine":"Japanese","address":"248 E 52nd St","coordinates":{"latitude":40.7562184833974,"longitude":-73.9679722894107},"review_count":877,"rating":4,"zip_code":"10022"},{"id":"fePu8xy0ir_ikZcS_vVSBA","name":"Asuka Sushi","cuisine":"Japanese","address":"300 W 23rd St","coordinates":{"latitude":40.74529,"longitude":-73.99888},"review_count":743,"rating":4,"zip_code":"10011"},{"id":"7rxg-tWPc1jK7Cikn5R86g","name":"Hi-Collar","cuisine":"Japanese","address":"214 E 10th St","coordinates":{"latitude":40.7293077268171,"longitude":-73.9859368048935},"review_count":396,"rating":4,"zip_code":"10003"},{"id":"GBWMJJ4_rDWqiXJ7AvHAOg","name":"15 East Restaurant","cuisine":"Japanese","address":"15 E 15th St","coordinates":{"latitude":40.7363799,"longitude":-73.99213},"review_count":582,"rating":4,"zip_code":"10003"},{"id":"00mykkev3tKCjTsKV60yOA","name":"Sushi of Gari 46","cuisine":"Japanese","address":"347 W 46th St","coordinates":{"latitude":40.76072,"longitude":-73.98957},"review_count":594,"rating":4,"zip_code":"10036"},{"id":"AjlmpAQV8W4--y0EksO-9g","name":"Simple NYC","cuisine":"Japanese","address":"109 Eldridge St","coordinates":{"latitude":40.71821,"longitude":-73.99223},"review_count":278,"rating":4.5,"zip_code":"10002"},{"id":"9bAyxRD6RsGEUQw424ovQA","name":"Nishida Sho-ten","cuisine":"Japanese","address":"302 E 49th St","coordinates":{"latitude":40.753969,"longitude":-73.968722},"review_count":581,"rating":4,"zip_code":"10017"},{"id":"oJZq1JmKalXXjqWRKfIjwA","name":"Sushi Azabu","cuisine":"Japanese","address":"428 Greenwich St","coordinates":{"latitude":40.7222930324682,"longitude":-74.0098838048935},"review_count":388,"rating":4,"zip_code":"10013"},{"id":"abNHO9-xlCsv31gghCUuxw","name":"Zutto Japanese American Pub","cuisine":"Japanese","address":"77 Hudson St","coordinates":{"latitude":40.718489,"longitude":-74.009003},"review_count":806,"rating":4,"zip_code":"10013"},{"id":"MmXZLVwWcYugi_TXSHmjeQ","name":"Sushi by Bou","cuisine":"Japanese","address":"132 W 47th St","coordinates":{"latitude":40.75851,"longitude":-73.98322},"review_count":156,"rating":5,"zip_code":"10036"},{"id":"CqQ2Og9kf-LhlUWtODalCQ","name":"Blue Ribbon Sushi Bar & Grill - New York","cuisine":"Japanese","address":"308 W 58th St","coordinates":{"latitude":40.7674948014194,"longitude":-73.9831978922043},"review_count":653,"rating":4,"zip_code":"10019"},{"id":"nrxSzq-VxLqD7aFkE4SH3Q","name":"Cocoron","cuisine":"Japanese","address":"37 Kenmare St","coordinates":{"latitude":40.7207236,"longitude":-73.9953191},"review_count":542,"rating":4,"zip_code":"10012"},{"id":"b7Eg41LKjL2BtOXEqVCoeQ","name":"Ramen Misoya","cuisine":"Japanese","address":"129 2nd Ave","coordinates":{"latitude":40.728512,"longitude":-73.988144},"review_count":809,"rating":4,"zip_code":"10003"},{"id":"mESab-FqL5QqSVsnX72asQ","name":"Zen Ramen & Sushi","cuisine":"Japanese","address":"150 W 36 street","coordinates":{"latitude":40.751743,"longitude":-73.98899},"review_count":540,"rating":4.5,"zip_code":"10018"},{"id":"8NVN6Nldm7AGoGaABBZMRw","name":"Izakaya NoMad","cuisine":"Japanese","address":"13 W 26th St","coordinates":{"latitude":40.74409,"longitude":-73.98945},"review_count":535,"rating":4,"zip_code":"10010"},{"id":"kr_Wu5m0P-AEghraNqXeTA","name":"Ikinari Steak East Village","cuisine":"Japanese","address":"90 E 10th St","coordinates":{"latitude":40.73078,"longitude":-73.98975},"review_count":574,"rating":4,"zip_code":"10003"},{"id":"axqp3pGJXnTLgq2QrPyDyQ","name":"Benemon","cuisine":"Japanese","address":"108 E 4th St","coordinates":{"latitude":40.7255058288574,"longitude":-73.9883804321289},"review_count":360,"rating":4.5,"zip_code":"10003"},{"id":"P8YbK6_2TnXHojrs0ycisg","name":"Ninja New York","cuisine":"Japanese","address":"25 Hudson St","coordinates":{"latitude":40.71673,"longitude":-74.0093},"review_count":1505,"rating":3.5,"zip_code":"10013"},{"id":"-x81DhQ4eHrknZUcFg5g7w","name":"Puff Cha Ramen","cuisine":"Japanese","address":"457 W 50th St","coordinates":{"latitude":40.7647,"longitude":-73.991215},"review_count":461,"rating":4,"zip_code":"10019"},{"id":"0vg2Z-HPwkyVVX613j2ysg","name":"Peng's Noodle Folk","cuisine":"Japanese","address":"1659 1st Ave","coordinates":{"latitude":40.77726,"longitude":-73.94932},"review_count":262,"rating":4.5,"zip_code":"10028"},{"id":"pNe8ZCkGTe4cXfKdOF7kYQ","name":"Ise Restaurant","cuisine":"Japanese","address":"63 Cooper Sq","coordinates":{"latitude":40.7291024,"longitude":-73.9900618},"review_count":226,"rating":4.5,"zip_code":"10003"},{"id":"EvAJBgBdgOt1jx1EufRN7w","name":"Jin Ramen","cuisine":"Japanese","address":"462 Amsterdam Ave","coordinates":{"latitude":40.7854,"longitude":-73.97709},"review_count":621,"rating":4,"zip_code":"10024"},{"id":"EzuRT_4vOrvWdHqZzEFf0w","name":"Oh Taisho","cuisine":"Japanese","address":"9 Saint Marks Pl","coordinates":{"latitude":40.729463,"longitude":-73.989096},"review_count":907,"rating":3.5,"zip_code":"10003"},{"id":"oyyubJoK0VZ2V3a5sVJULg","name":"Natsumi","cuisine":"Japanese","address":"226 W 50th St","coordinates":{"latitude":40.76174,"longitude":-73.98503},"review_count":666,"rating":4,"zip_code":"10019"},{"id":"vec8jeVbbSGzVlStl0Xp_Q","name":"Chikarashi","cuisine":"Japanese","address":"227 Canal St","coordinates":{"latitude":40.71787,"longitude":-73.99948},"review_count":428,"rating":4,"zip_code":"10013"},{"id":"8iSU_z2JkjjUEjm-Ur470w","name":"Nippori","cuisine":"Japanese","address":"245 W 51st St","coordinates":{"latitude":40.7628542,"longitude":-73.984939},"review_count":647,"rating":4,"zip_code":"10019"},{"id":"OFfZUS-nu6NDnsWe1B2bUQ","name":"TONCHIN NEW YORK","cuisine":"Japanese","address":"13 W 36th St","coordinates":{"latitude":40.7502727,"longitude":-73.9844951},"review_count":295,"rating":4.5,"zip_code":"10018"},{"id":"2f0EWTvp3YDtGNKEEXKKhA","name":"Naruto Ramen","cuisine":"Japanese","address":"1596 3rd Ave","coordinates":{"latitude":40.78117,"longitude":-73.9525},"review_count":805,"rating":3.5,"zip_code":"10128"},{"id":"gZqwq8kE-Z3-DdZGOEjOkQ","name":"Village Yokocho","cuisine":"Japanese","address":"8 Stuyvesant St","coordinates":{"latitude":40.7298,"longitude":-73.9891899},"review_count":702,"rating":3.5,"zip_code":"10003"},{"id":"itH4GH2Mw2D5n5kkQAtMog","name":"Abiko Curry","cuisine":"Japanese","address":"2 W 32nd St","coordinates":{"latitude":40.7474259684723,"longitude":-73.9862179359732},"review_count":382,"rating":4,"zip_code":"10001"},{"id":"VVlHJ6_sJbRAodV5lCzBnA","name":"Kanoyama","cuisine":"Japanese","address":"175 2nd Ave","coordinates":{"latitude":40.730545186039,"longitude":-73.986544028849},"review_count":570,"rating":4,"zip_code":"10003"},{"id":"NRJq2BNcbjqAyxUB_bw7gw","name":"Momoya","cuisine":"Japanese","address":"185 7th Ave","coordinates":{"latitude":40.7426255196333,"longitude":-73.9966481924057},"review_count":485,"rating":4,"zip_code":"10011"},{"id":"W5RSIwNKBa7k0jeAs5KDYg","name":"Mei Jin Ramen","cuisine":"Japanese","address":"1574 2nd Ave","coordinates":{"latitude":40.775028,"longitude":-73.953491},"review_count":530,"rating":4,"zip_code":"10028"},{"id":"uaFHoq-a5XqxF-bsOK9_Qg","name":"Kung Fu Little Steamed Buns Ramen","cuisine":"Japanese","address":"811 8th Ave","coordinates":{"latitude":40.7616286634162,"longitude":-73.9868181646996},"review_count":764,"rating":3.5,"zip_code":"10019"},{"id":"WHXgDm3kcU-aONfjR8tX0A","name":"O Ya","cuisine":"Japanese","address":"120 E 28th St","coordinates":{"latitude":40.74283,"longitude":-73.98319},"review_count":184,"rating":4.5,"zip_code":"10016"},{"id":"6xPlSpyxE3PLJVeRvt2BwQ","name":"Yaya Tea Garden","cuisine":"Japanese","address":"51 Chrystie St","coordinates":{"latitude":40.7162999,"longitude":-73.99496},"review_count":422,"rating":4,"zip_code":"10002"},{"id":"y_ylOQzCP-9D_4DcUIJ3jA","name":"Shabu-Tatsu East Village","cuisine":"Japanese","address":"216 E 10th St","coordinates":{"latitude":40.72927,"longitude":-73.98585},"review_count":550,"rating":4,"zip_code":"10003"},{"id":"0vSAR3Ym2fuehBvHSZyqIQ","name":"Koi Restaurant","cuisine":"Japanese","address":"40 W 40th St","coordinates":{"latitude":40.752987,"longitude":-73.983824},"review_count":667,"rating":3.5,"zip_code":"10018"},{"id":"tznio-FInuk87Y15Dgq5iw","name":"Udon West","cuisine":"Japanese","address":"11 St Marks Pl","coordinates":{"latitude":40.729424,"longitude":-73.989004},"review_count":733,"rating":3.5,"zip_code":"10003"},{"id":"l_RAv09V67j-Hm9dyZxWhw","name":"Tomi Jazz","cuisine":"Japanese","address":"239 E 53rd St","coordinates":{"latitude":40.75725,"longitude":-73.96774},"review_count":277,"rating":4,"zip_code":"10022"},{"id":"HFn1sPqKSzvxaMk2n2ZtJw","name":"Kotobuki Manhattan","cuisine":"Japanese","address":"56 3rd Ave","coordinates":{"latitude":40.731107,"longitude":-73.98912},"review_count":487,"rating":4,"zip_code":"10003"},{"id":"wqYHhMnpdfUVGL5JI3Wi_A","name":"Ivan Ramen","cuisine":"Japanese","address":"25 Clinton St","coordinates":{"latitude":40.72064,"longitude":-73.984444},"review_count":929,"rating":3.5,"zip_code":"10002"},{"id":"AtUxlW7ltZb73ZXMwpkY_g","name":"Sashimi Express","cuisine":"Japanese","address":"354 E 78th St","coordinates":{"latitude":40.771683,"longitude":-73.953835},"review_count":215,"rating":4.5,"zip_code":"10075"},{"id":"6FZf17rNThWKoF4EU18wnw","name":"Yakiniku Futago","cuisine":"Japanese","address":"37 W 17th St","coordinates":{"latitude":40.738851870947,"longitude":-73.9941236398979},"review_count":219,"rating":4,"zip_code":"10011"},{"id":"OLY3Ppf7PHFeT0j_O6ptVg","name":"Zen 6","cuisine":"Japanese","address":"328 E 6th St","coordinates":{"latitude":40.7266999721355,"longitude":-73.9872980466536},"review_count":508,"rating":4,"zip_code":"10003"},{"id":"diz6_4TVSP6EdWEZCZ0Acg","name":"Kaoru","cuisine":"Japanese","address":"306 E 46th St","coordinates":{"latitude":40.75202,"longitude":-73.96977},"review_count":159,"rating":4.5,"zip_code":"10017"},{"id":"itblJyiTY2h2ACidLk66oA","name":"Takahachi","cuisine":"Japanese","address":"85 Ave A","coordinates":{"latitude":40.725315,"longitude":-73.984436},"review_count":491,"rating":4,"zip_code":"10009"},{"id":"zuiEL6WWZ0OXGS5whWfqGA","name":"Sushi Seki","cuisine":"Japanese","address":"1143 1st Ave","coordinates":{"latitude":40.761982,"longitude":-73.960617},"review_count":400,"rating":4,"zip_code":"10021"},{"id":"je92kXXWjANmiN-dfwNapg","name":"Sushi Dojo NYC","cuisine":"Japanese","address":"110 1st Ave","coordinates":{"latitude":40.7266273498535,"longitude":-73.9856719970703},"review_count":347,"rating":4,"zip_code":"10009"},{"id":"af_i3fBov6BCMSfp5rrAdg","name":"Ramen Lab","cuisine":"Japanese","address":"70 Kenmare St","coordinates":{"latitude":40.7209918,"longitude":-73.9963582},"review_count":278,"rating":4,"zip_code":"10012"},{"id":"wQU3LMmOPNzxL-ptOi_F5w","name":"Kobeyaki","cuisine":"Japanese","address":"293 7th Ave","coordinates":{"latitude":40.7462138,"longitude":-73.99388},"review_count":486,"rating":4,"zip_code":"10001"},{"id":"TeBthQZ2xpxyvXheS08ovw","name":"Blue Ribbon Sushi Izakaya","cuisine":"Japanese","address":"187 Orchard St","coordinates":{"latitude":40.7220839812692,"longitude":-73.9882245327093},"review_count":435,"rating":4,"zip_code":"10002"},{"id":"HVwZqjXB39xb2wJeQBX8Gw","name":"Yuba","cuisine":"Japanese","address":"105 E 9th St","coordinates":{"latitude":40.7305450439453,"longitude":-73.9900436401367},"review_count":334,"rating":4,"zip_code":"10003"},{"id":"juoHZs-uMmqW4gQ1iISvxA","name":"Jewel Bako","cuisine":"Japanese","address":"239 E 5th St","coordinates":{"latitude":40.72699,"longitude":-73.98922},"review_count":474,"rating":4,"zip_code":"10003"},{"id":"8lYK0L12S3EPeJ0ZW2x9xA","name":"New Ichiro Restaurant","cuisine":"Japanese","address":"1694 2nd Ave","coordinates":{"latitude":40.7788709,"longitude":-73.9508071},"review_count":402,"rating":4,"zip_code":"10128"},{"id":"VaL9GaBR_GR-q9d1VzJF3g","name":"Suteishi","cuisine":"Japanese","address":"24 Peck Slip","coordinates":{"latitude":40.70788,"longitude":-74.00194},"review_count":387,"rating":4,"zip_code":"10038"},{"id":"ynIx549QFj29o84y1RSGyw","name":"Bao Bao Cafe","cuisine":"Japanese","address":"61 Lexington Ave","coordinates":{"latitude":40.740829,"longitude":-73.983474},"review_count":352,"rating":4,"zip_code":"10010"},{"id":"0FOE_TW-91b9wN661lZMyQ","name":"mokbar","cuisine":"Japanese","address":"75 9th Ave","coordinates":{"latitude":40.74222,"longitude":-74.00466},"review_count":469,"rating":3.5,"zip_code":"10011"},{"id":"YfpFRkOx6rFcWsuvQpyMHA","name":"Sapporo","cuisine":"Japanese","address":"358 W 46th St","coordinates":{"latitude":40.7601992779479,"longitude":-73.9833615441803},"review_count":890,"rating":3.5,"zip_code":"10019"},{"id":"3Jr_9I2ouYHDNk8XWKdZ3w","name":"Sasabune","cuisine":"Japanese","address":"401 E 73rd St","coordinates":{"latitude":40.76846,"longitude":-73.95515},"review_count":366,"rating":4,"zip_code":"10021"},{"id":"sLxHi6kOAEV6iqr45jzb_Q","name":"B Flat","cuisine":"Japanese","address":"277 Church St","coordinates":{"latitude":40.7185644131449,"longitude":-74.0048434404755},"review_count":328,"rating":4,"zip_code":"10013"},{"id":"Fv6ueSQwc_ITpXEhybHvtA","name":"Haru Sushi","cuisine":"Japanese","address":"229 W 43rd St","coordinates":{"latitude":40.7574225387188,"longitude":-73.9874100349182},"review_count":591,"rating":3.5,"zip_code":"10036"},{"id":"FPuOTMD-dmXTFz3rUsEkMg","name":"IchiUmi","cuisine":"Japanese","address":"6 E 32nd St","coordinates":{"latitude":40.7465376026852,"longitude":-73.9849521865082},"review_count":1248,"rating":3,"zip_code":"10016"},{"id":"8NDTQb7JLHd4r0yDmpzjUA","name":"Neta","cuisine":"Japanese","address":"61 W 8th St","coordinates":{"latitude":40.7335,"longitude":-73.99907},"review_count":327,"rating":4,"zip_code":"10011"},{"id":"auqBQYuADVdWaTO-RNBeoA","name":"Inakaya","cuisine":"Japanese","address":"231 W 40th St","coordinates":{"latitude":40.7560432774284,"longitude":-73.9894882380981},"review_count":470,"rating":3.5,"zip_code":"10018"},{"id":"EBIjeMlkgU12CyCcUDj-kg","name":"Shuko","cuisine":"Japanese","address":"47 E 12th St","coordinates":{"latitude":40.7334269431242,"longitude":-73.9914635674129},"review_count":218,"rating":4,"zip_code":"10003"},{"id":"x593rd-PSjGje4Uks1FKEg","name":"Rai Rai Ken","cuisine":"Japanese","address":"218 E 10th St","coordinates":{"latitude":40.72924,"longitude":-73.9858},"review_count":788,"rating":3.5,"zip_code":"10003"},{"id":"d6r6Bx-FgNuPrY6-EpeoVQ","name":"Sunrise Mart","cuisine":"Japanese","address":"12 E 41st St","coordinates":{"latitude":40.7524647,"longitude":-73.980584},"review_count":328,"rating":4,"zip_code":"10017"},{"id":"JUPxlDVMxuRSsqMcH6RCVg","name":"Mitsuwa Marketplace","cuisine":"Japanese","address":"595 River Rd","coordinates":{"latitude":40.8158107608922,"longitude":-73.9801246070119},"review_count":1386,"rating":4.5,"zip_code":"07020"},{"id":"kN3rkbjvqkY62CDRYUVz4g","name":"Yopparai","cuisine":"Japanese","address":"151 Rivington St","coordinates":{"latitude":40.71914,"longitude":-73.98574},"review_count":179,"rating":4.5,"zip_code":"10002"},{"id":"Je2MuObgrne2wSKhD5MZ0w","name":"TongKatsu","cuisine":"Japanese","address":"137 Rivington St","coordinates":{"latitude":40.71929,"longitude":-73.98647},"review_count":90,"rating":5,"zip_code":"10002"},{"id":"od-5v2v1HdGisEDAXotqeg","name":"Poke","cuisine":"Japanese","address":"343 E 85th St","coordinates":{"latitude":40.7766,"longitude":-73.95057},"review_count":417,"rating":4,"zip_code":"10028"},{"id":"iHwhkW0LLlu81ZCir-lFQA","name":"Gari Columbus","cuisine":"Japanese","address":"370 Columbus Ave","coordinates":{"latitude":40.78112,"longitude":-73.97632},"review_count":307,"rating":4,"zip_code":"10024"},{"id":"T1bgtJcjtc-6xykWqBRfUw","name":"Mentoku","cuisine":"Japanese","address":"744 9th Ave","coordinates":{"latitude":40.76352,"longitude":-73.98852},"review_count":310,"rating":4,"zip_code":"10019"},{"id":"t7BIiUN0tFg33kySuuQ0aQ","name":"Masa","cuisine":"Japanese","address":"10 Columbus Cir","coordinates":{"latitude":40.7686063643871,"longitude":-73.9832784748688},"review_count":265,"rating":4,"zip_code":"10019"},{"id":"_IkMfWpOkQXRZtJAYJUJIw","name":"Hama Japanese Cuisine","cuisine":"Japanese","address":"11 W 51st St","coordinates":{"latitude":40.7597846984863,"longitude":-73.9776382446289},"review_count":268,"rating":4,"zip_code":"10019"},{"id":"IkQGg0Tihg6cxUZcq9dtnQ","name":"Brushstroke","cuisine":"Japanese","address":"30 Hudson St","coordinates":{"latitude":40.7167651,"longitude":-74.0089696},"review_count":350,"rating":4,"zip_code":"10013"},{"id":"ULDVJYTT-47RqbLtlR_FUA","name":"Ootoya Greenwich Village","cuisine":"Japanese","address":"41 E 11th St","coordinates":{"latitude":40.73316,"longitude":-73.99273},"review_count":211,"rating":4,"zip_code":"10003"},{"id":"Mw3Se7wmcQzrxUQ-C3x54Q","name":"Kambi Ramen House","cuisine":"Japanese","address":"351 E 14th St","coordinates":{"latitude":40.73189,"longitude":-73.982797},"review_count":604,"rating":3.5,"zip_code":"10003"},{"id":"o5EIqc4LekAoeLHiYjzLqQ","name":"Bar Goto","cuisine":"Japanese","address":"245 Eldridge St","coordinates":{"latitude":40.72277,"longitude":-73.98989},"review_count":159,"rating":4.5,"zip_code":"10002"},{"id":"i8F0fnempD5fTb2CxbwKDw","name":"Izakaya","cuisine":"Japanese","address":"326 E 6th St","coordinates":{"latitude":40.72667,"longitude":-73.98738},"review_count":208,"rating":4,"zip_code":"10003"},{"id":"xFp3xSQ43J-i7nmJfNBsZA","name":"Norikoh","cuisine":"Japanese","address":"10 E 39th St","coordinates":{"latitude":40.75116,"longitude":-73.98153},"review_count":365,"rating":4,"zip_code":"10016"},{"id":"vAxm4dekBCfaRNoBYbx6OQ","name":"Katsu-Hama","cuisine":"Japanese","address":"45 W 55th St","coordinates":{"latitude":40.76264,"longitude":-73.97666},"review_count":442,"rating":4,"zip_code":"10019"},{"id":"pTMnHb_W3sKqS8oCzjHdVA","name":"SenYa","cuisine":"Japanese","address":"109 1st Ave","coordinates":{"latitude":40.7269015463545,"longitude":-73.986101118587},"review_count":193,"rating":4,"zip_code":"10003"},{"id":"r6r-XK_wL02FQdAgaauTxg","name":"Kame Ramen","cuisine":"Japanese","address":"435 Park Ave S","coordinates":{"latitude":40.7443554460048,"longitude":-73.9830331769058},"review_count":192,"rating":4,"zip_code":"10016"},{"id":"Fb8vIbK7jc_6cTDJ4tOKTA","name":"Ichiba Ramen","cuisine":"Japanese","address":"125 University Pl","coordinates":{"latitude":40.73473,"longitude":-73.9919199},"review_count":381,"rating":4,"zip_code":"10003"},{"id":"RElijPqDOAPTHT3J4n_FEA","name":"Mu Ramen","cuisine":"Japanese","address":"12-09 Jackson Ave","coordinates":{"latitude":40.743797,"longitude":-73.950631},"review_count":928,"rating":4,"zip_code":"11101"},{"id":"1rjxNwYpg0orCcZi0ku9Nw","name":"Hasaki","cuisine":"Japanese","address":"210 E 9th St","coordinates":{"latitude":40.729682,"longitude":-73.988868},"review_count":329,"rating":4,"zip_code":"10003"},{"id":"PTYUAAJbEmvIv4EsyRrcnA","name":"Momoya","cuisine":"Japanese","address":"427 Amsterdam Ave","coordinates":{"latitude":40.784043,"longitude":-73.977391},"review_count":370,"rating":4,"zip_code":"10024"},{"id":"03-WCL7HaShHkS5kAk6lVg","name":"Otafuku","cuisine":"Japanese","address":"220 E 9th St","coordinates":{"latitude":40.7295101,"longitude":-73.9882538},"review_count":447,"rating":3.5,"zip_code":"10003"},{"id":"IYlO-XRwjZlUl0yoKY87cA","name":"Cagen Japan Restaurant","cuisine":"Japanese","address":"414 E 9th St","coordinates":{"latitude":40.72779,"longitude":-73.98417},"review_count":150,"rating":4,"zip_code":"10009"},{"id":"a7rM-AOM7_xi8AlWX-Thkg","name":"Oita Sushi","cuisine":"Japanese","address":"1317A 2nd Ave 69th St","coordinates":{"latitude":40.7670495724278,"longitude":-73.9598718359171},"review_count":188,"rating":4.5,"zip_code":"10021"},{"id":"HvgrpROomwRg-pATqaV8oQ","name":"Ajisai Japanese Restaurant","cuisine":"Japanese","address":"615 9th Ave","coordinates":{"latitude":40.7594744,"longitude":-73.9920708},"review_count":413,"rating":3.5,"zip_code":"10036"},{"id":"K54qUgd274Fj_LvHCjeSFw","name":"Okinii","cuisine":"Japanese","address":"216 Thompson St","coordinates":{"latitude":40.72894,"longitude":-73.99911},"review_count":226,"rating":4,"zip_code":"10012"},{"id":"xUD5j3fq3CExLfyV-GhHPA","name":"Tabata","cuisine":"Japanese","address":"540 9th Ave","coordinates":{"latitude":40.756877,"longitude":-73.993382},"review_count":509,"rating":3.5,"zip_code":"10018"},{"id":"MwtXOkRUndPU-ivbtLD-bQ","name":"Amura Japanese","cuisine":"Japanese","address":"1567 2nd Ave","coordinates":{"latitude":40.775001,"longitude":-73.9542},"review_count":248,"rating":4,"zip_code":"10028"},{"id":"YjDOSFuRWNp2d1znivWyIA","name":"Sunrise Mart","cuisine":"Japanese","address":"494 Broome St","coordinates":{"latitude":40.7232311,"longitude":-74.0025149},"review_count":247,"rating":4,"zip_code":"10012"},{"id":"_lo33Y5H84CY0-TLuIwlVg","name":"Bassanova Ramen","cuisine":"Japanese","address":"76 Mott St","coordinates":{"latitude":40.716330371823,"longitude":-73.9980477279514},"review_count":694,"rating":3.5,"zip_code":"10013"},{"id":"DpZ7Xaub8Lhpg7VJdHaPpg","name":"Zenkichi","cuisine":"Japanese","address":"77 N 6th St","coordinates":{"latitude":40.7189722,"longitude":-73.9608301},"review_count":886,"rating":4,"zip_code":"11249"},{"id":"KJTTqIxuB0BEsYxLaYyAZw","name":"Tonkatsu Matsunoya","cuisine":"Japanese","address":"131 E 45th St","coordinates":{"latitude":40.7533493041992,"longitude":-73.9741592407227},"review_count":219,"rating":4,"zip_code":"10017"},{"id":"zm-PPnv9eAkWYFGpVg9kMg","name":"Shimizu","cuisine":"Japanese","address":"318 W 51st St","coordinates":{"latitude":40.763198,"longitude":-73.986892},"review_count":275,"rating":4,"zip_code":"10019"},{"id":"-pab00ajP_NS1KGfILveYA","name":"Marumi","cuisine":"Japanese","address":"546 Laguardia Pl","coordinates":{"latitude":40.7289699,"longitude":-73.99837},"review_count":365,"rating":4,"zip_code":"10012"},{"id":"hvrQQ0YWqgw0__OnofqXag","name":"Kuu Ramen","cuisine":"Japanese","address":"20 John St","coordinates":{"latitude":40.709682,"longitude":-74.008972},"review_count":464,"rating":3.5,"zip_code":"10038"},{"id":"HXLDYJ6Fznjn48VbE_8cow","name":"Jack's Sliders & Sushi","cuisine":"Japanese","address":"171 3rd Ave","coordinates":{"latitude":40.734705,"longitude":-73.985819},"review_count":284,"rating":4,"zip_code":"10003"},{"id":"NlgC8TjNuf8sy6qg2xpqsQ","name":"Yuka Japanese Restaurant","cuisine":"Japanese","address":"1557 2nd Ave","coordinates":{"latitude":40.77463,"longitude":-73.95447},"review_count":512,"rating":3.5,"zip_code":"10028"},{"id":"GfC7pvsvhZX4-QAeZ3z_Vg","name":"Kuruma Zushi","cuisine":"Japanese","address":"7 E 47th St","coordinates":{"latitude":40.75653,"longitude":-73.97768},"review_count":213,"rating":4,"zip_code":"10017"},{"id":"qU3ejLMndurKQTkM01gutg","name":"Zuma","cuisine":"Japanese","address":"261 Madison Ave","coordinates":{"latitude":40.7505268941072,"longitude":-73.980782390213},"review_count":472,"rating":3.5,"zip_code":"10016"},{"id":"alFl7eiu6Go-YxZAdp88Fw","name":"Go! Go! Curry!","cuisine":"Japanese","address":"12 John St","coordinates":{"latitude":40.7098966,"longitude":-74.0090997},"review_count":295,"rating":4,"zip_code":"10038"},{"id":"i-s1bcKdqQdm6JiVN0JRMA","name":"Yokoya","cuisine":"Japanese","address":"201 Allen St","coordinates":{"latitude":40.72254,"longitude":-73.98917},"review_count":132,"rating":4.5,"zip_code":"10002"},{"id":"rn6SmSqAYx2kLFIAxytMMQ","name":"Kajitsu","cuisine":"Japanese","address":"125 E 39th St","coordinates":{"latitude":40.7498614,"longitude":-73.9777215},"review_count":183,"rating":4,"zip_code":"10016"},{"id":"1-7C5Kv8B8PiIbfL3_uHlw","name":"Restaurant Riki","cuisine":"Japanese","address":"141 E 45th St","coordinates":{"latitude":40.7532844543457,"longitude":-73.9738540649414},"review_count":319,"rating":3.5,"zip_code":"10017"},{"id":"-8IxLBoKZj_ZdBUxXgS3UQ","name":"Ramen Setagaya","cuisine":"Japanese","address":"34 1/2 St Marks Pl","coordinates":{"latitude":40.728708374845,"longitude":-73.9882649390785},"review_count":595,"rating":3.5,"zip_code":"10003"},{"id":"0lZeHrKy9DLfBxek_oR3Kg","name":"Yama","cuisine":"Japanese","address":"122 E 17th St","coordinates":{"latitude":40.73589,"longitude":-73.98766},"review_count":381,"rating":3.5,"zip_code":"10003"},{"id":"Clumryf360iOnwpZ2ML8aw","name":"Sushi You","cuisine":"Japanese","address":"246 E 51st St","coordinates":{"latitude":40.75554,"longitude":-73.96874},"review_count":233,"rating":4,"zip_code":"10022"},{"id":"7MzisfVMYsZYTFJv9Unpzw","name":"Mr. Taka Ramen","cuisine":"Japanese","address":"170 Allen St","coordinates":{"latitude":40.72128,"longitude":-73.98903},"review_count":294,"rating":4,"zip_code":"10002"},{"id":"vX0_qcuVXoeeH1_24I8lSA","name":"Sushi Kaito","cuisine":"Japanese","address":"244 W 72nd St","coordinates":{"latitude":40.77916,"longitude":-73.98367},"review_count":93,"rating":4.5,"zip_code":"10023"},{"id":"XfHgiIsoo1Pr_v04bx9ptg","name":"Sushumai Asian Fusion","cuisine":"Japanese","address":"112 Stanton St","coordinates":{"latitude":40.7211610690848,"longitude":-73.9872866123915},"review_count":73,"rating":4.5,"zip_code":"10002"},{"id":"aK2ipD9K8-usBw_gkvvJuw","name":"Nare Sushi","cuisine":"Japanese","address":"115 E 57th St","coordinates":{"latitude":40.76143,"longitude":-73.96992},"review_count":249,"rating":4,"zip_code":"10022"},{"id":"2TWVQBY6WvzvaU1taRXHCw","name":"Kodama Sushi","cuisine":"Japanese","address":"301 W 45th St","coordinates":{"latitude":40.75937,"longitude":-73.98863},"review_count":395,"rating":3.5,"zip_code":"10036"},{"id":"7j6CGUCw93gEsYqSetCstw","name":"Nomado 33","cuisine":"Japanese","address":"165 E 33rd St","coordinates":{"latitude":40.7454228440467,"longitude":-73.9791435317613},"review_count":302,"rating":4,"zip_code":"10016"},{"id":"oKtDrJA7uaRvbrgBhF4Q5Q","name":"Terakawa Ramen","cuisine":"Japanese","address":"885C 9th Ave","coordinates":{"latitude":40.76831,"longitude":-73.98565},"review_count":330,"rating":3.5,"zip_code":"10019"},{"id":"n1xpGOPa7XRq4or7QLjzHw","name":"DokoDemo","cuisine":"Japanese","address":"89 E 4th St","coordinates":{"latitude":40.72638,"longitude":-73.98964},"review_count":105,"rating":4.5,"zip_code":"10003"},{"id":"2YkqGzOldh-gcSSFkvP44Q","name":"MIGHTY Bowl","cuisine":"Japanese","address":"120 Macdougal St","coordinates":{"latitude":40.72979,"longitude":-74.00035},"review_count":194,"rating":4,"zip_code":"10012"},{"id":"njmOPpVZxIseG262NPfspA","name":"Miyabi Sushi & Asian Cusine","cuisine":"Japanese","address":"118 W 3rd St","coordinates":{"latitude":40.73046,"longitude":-74.00037},"review_count":316,"rating":4,"zip_code":"10012"},{"id":"ynR4-QgEOsE7VhNfIWo73w","name":"Secchu Yokota","cuisine":"Japanese","address":"199 E 3rd St","coordinates":{"latitude":40.72283,"longitude":-73.98311},"review_count":56,"rating":5,"zip_code":"10009"},{"id":"PuiSQqVdC38FhwXtWOPJzw","name":"251 Ginza Sushi","cuisine":"Japanese","address":"251 E 35th St","coordinates":{"latitude":40.745938977155,"longitude":-73.975854889858},"review_count":194,"rating":4,"zip_code":"10016"},{"id":"Uu1wc7CrweSIB4B7FLdbwg","name":"Fukurou","cuisine":"Japanese","address":"87 MacDougal St","coordinates":{"latitude":40.72905,"longitude":-74.00143},"review_count":260,"rating":4,"zip_code":"10012"},{"id":"c6R_hvUwsqXX2MUXWtO94Q","name":"Nakamura","cuisine":"Japanese","address":"172 Delancey St","coordinates":{"latitude":40.717975,"longitude":-73.985115},"review_count":222,"rating":4,"zip_code":"10002"},{"id":"53y6b_-YaptXhlm2-STzeA","name":"XO Kitchen","cuisine":"Japanese","address":"148 Hester St","coordinates":{"latitude":40.717449983677,"longitude":-73.9960411841547},"review_count":451,"rating":3.5,"zip_code":"10013"},{"id":"oEZgjH40y-3SVYSD9tnUkQ","name":"Tabata Ramen","cuisine":"Japanese","address":"557 8th Ave","coordinates":{"latitude":40.75475,"longitude":-73.992},"review_count":264,"rating":3.5,"zip_code":"10018"},{"id":"RH0oa1kJHJezBRHFFsfomg","name":"Dinnertable","cuisine":"Japanese","address":"206 Ave A","coordinates":{"latitude":40.72945,"longitude":-73.9807},"review_count":108,"rating":4,"zip_code":"10009"},{"id":"ZOpnIsm7ihoO1gq2YmGdzw","name":"Zurutto Ramen & Gyoza Bar","cuisine":"Japanese","address":"142 W 72nd St","coordinates":{"latitude":40.77791,"longitude":-73.98041},"review_count":243,"rating":4,"zip_code":"10023"},{"id":"_2V0as8DZDwVxAi3ZJ0JkA","name":"Raku - It's Japanese II","cuisine":"Japanese","address":"57 W 76th St","coordinates":{"latitude":40.779997,"longitude":-73.976516},"review_count":239,"rating":4,"zip_code":"10023"},{"id":"_pJXD4g4Fr0uWZvSKuG_cQ","name":"Yama 49","cuisine":"Japanese","address":"308 E 49th St","coordinates":{"latitude":40.753865,"longitude":-73.968477},"review_count":223,"rating":4,"zip_code":"10017"},{"id":"ZO7oni3s8jNG6NUztCQRWQ","name":"Poké Inn","cuisine":"Japanese","address":"357 W 49th St","coordinates":{"latitude":40.7625895782826,"longitude":-73.9886334432602},"review_count":80,"rating":4.5,"zip_code":"10019"},{"id":"VR7vl4qSerSyEMpHc0Bp9w","name":"Go!Go!Curry","cuisine":"Japanese","address":"231 Thompson St","coordinates":{"latitude":40.7295,"longitude":-73.999026},"review_count":215,"rating":4,"zip_code":"10012"},{"id":"dSTqi-b2mXb-cZhUHPezUg","name":"Dojo Restaurant","cuisine":"Japanese","address":"14 W 4th St","coordinates":{"latitude":40.72831,"longitude":-73.99493},"review_count":547,"rating":3.5,"zip_code":"10012"},{"id":"FCoRGys6wgE7fSQ_YAUBeg","name":"Donguri Restaurant","cuisine":"Japanese","address":"309 E 83rd St","coordinates":{"latitude":40.775724,"longitude":-73.952431},"review_count":125,"rating":4,"zip_code":"10028"},{"id":"R-dUNNbtE0gJtK5iYjARJA","name":"Ramen Thukpa","cuisine":"Japanese","address":"70 7th Ave S","coordinates":{"latitude":40.73197,"longitude":-74.00398},"review_count":180,"rating":4,"zip_code":"10014"},{"id":"9dikwBwukRl26W6Jqo09nQ","name":"Oramen","cuisine":"Japanese","address":"579 6th Ave","coordinates":{"latitude":40.7390256,"longitude":-73.9960282},"review_count":176,"rating":4,"zip_code":"10011"},{"id":"kQa2W0D84lwO31QgUPoOLA","name":"Ushiwakamaru","cuisine":"Japanese","address":"362 W 23rd St","coordinates":{"latitude":40.7461547329618,"longitude":-74.0009234316419},"review_count":135,"rating":4,"zip_code":"10011"},{"id":"flHcoaHEWxACgc-Vk9MsOQ","name":"Jukai","cuisine":"Japanese","address":"237 E 53rd St","coordinates":{"latitude":40.7572093705873,"longitude":-73.9678837692742},"review_count":127,"rating":4,"zip_code":"10022"},{"id":"IU7J-biFGBwrl6qKBPGStQ","name":"Sushi Tsushima","cuisine":"Japanese","address":"210 E 44th St","coordinates":{"latitude":40.7516558,"longitude":-73.9727916},"review_count":212,"rating":3.5,"zip_code":"10017"},{"id":"u0qfikB-ppp6UwoNKqxlRw","name":"Flame","cuisine":"Japanese","address":"100 W 82nd St","coordinates":{"latitude":40.78396,"longitude":-73.97444},"review_count":238,"rating":4,"zip_code":"10024"},{"id":"GpCZORguVJZGpd5GoL9Arg","name":"House of Small Wonder","cuisine":"Japanese","address":"77 N 6th St","coordinates":{"latitude":40.7188839655893,"longitude":-73.9606090848567},"review_count":609,"rating":4,"zip_code":"11211"},{"id":"Q23LvHPuC9ajSbMEt8xoUw","name":"Lucky Cat","cuisine":"Japanese","address":"232 E 53rd St","coordinates":{"latitude":40.7570162692229,"longitude":-73.9681779883895},"review_count":248,"rating":3.5,"zip_code":"10022"},{"id":"f0CAuvkgAByWo4ceT3u9uw","name":"Kobeyaki","cuisine":"Japanese","address":"110 W 40th St","coordinates":{"latitude":40.753673,"longitude":-73.985623},"review_count":267,"rating":3.5,"zip_code":"10018"},{"id":"4Jp0wdJXLpmgCwWv6o6YEQ","name":"Torishin","cuisine":"Japanese","address":"362 W 53rd St","coordinates":{"latitude":40.76496,"longitude":-73.98721},"review_count":179,"rating":4,"zip_code":"10019"},{"id":"TiBeYTtuJfTv616H1ZGpjQ","name":"Sushi Para 88","cuisine":"Japanese","address":"212 W 14th St","coordinates":{"latitude":40.738666,"longitude":-74.000785},"review_count":289,"rating":3.5,"zip_code":"10011"},{"id":"8nmMip_O4vcPDcujTEa_TA","name":"Kobeyaki","cuisine":"Japanese","address":"215 E 86th St","coordinates":{"latitude":40.77861,"longitude":-73.9530599},"review_count":167,"rating":4,"zip_code":"10028"},{"id":"fDeC90b2ZqPQClL62jOUmw","name":"Omakase Room by Tatsu","cuisine":"Japanese","address":"14 Christopher St","coordinates":{"latitude":40.73382,"longitude":-74.00042},"review_count":56,"rating":4.5,"zip_code":"10014"},{"id":"u8seGm3CnP6RGEiimftUIQ","name":"Tenzan","cuisine":"Japanese","address":"285 Columbus Ave","coordinates":{"latitude":40.7783079154181,"longitude":-73.9779206995186},"review_count":394,"rating":3.5,"zip_code":"10023"},{"id":"g8i7ZoTri1fUGkaIM6fP9A","name":"Souen","cuisine":"Japanese","address":"326 E 6th St","coordinates":{"latitude":40.7266693115234,"longitude":-73.9873733520508},"review_count":286,"rating":3.5,"zip_code":"10003"},{"id":"jsJdz6pvyYZjtut9vkUwBw","name":"Yaya Tea Garden","cuisine":"Japanese","address":"206 Grand St","coordinates":{"latitude":40.7192268371582,"longitude":-73.9962768554688},"review_count":148,"rating":4,"zip_code":"10013"},{"id":"6t5xWjPLWAjJV3YFMX_oaw","name":"Hirohisa","cuisine":"Japanese","address":"73 Thompson St","coordinates":{"latitude":40.724597,"longitude":-74.003174},"review_count":113,"rating":4.5,"zip_code":"10012"},{"id":"Gb79W0yuQfJvu0V0SDC0Ag","name":"Aya Sushi","cuisine":"Japanese","address":"314 W 39th St","coordinates":{"latitude":40.755493,"longitude":-73.992149},"review_count":226,"rating":4,"zip_code":"10018"},{"id":"fL8LOuVbCzop2I9cGVvEUw","name":"212 Hisae's","cuisine":"Japanese","address":"212 E 9th St","coordinates":{"latitude":40.7296175,"longitude":-73.9887888},"review_count":194,"rating":4,"zip_code":"10003"},{"id":"cZAh6BzEeMI5fofWeDvuhw","name":"Sake Bar Satsko","cuisine":"Japanese","address":"202 E 7th St","coordinates":{"latitude":40.72445,"longitude":-73.9802799},"review_count":139,"rating":4,"zip_code":"10009"},{"id":"YUupWsGbZx-bGea9fdmW4w","name":"Ko Sushi","cuisine":"Japanese","address":"1329 2nd Ave","coordinates":{"latitude":40.767795,"longitude":-73.959442},"review_count":279,"rating":3.5,"zip_code":"10021"},{"id":"Mzt7J53rOihwxIt41SH7vg","name":"E.A.K. Ramen","cuisine":"Japanese","address":"469 Avenue Of The Americas","coordinates":{"latitude":40.73568,"longitude":-73.99837},"review_count":165,"rating":4,"zip_code":"10011"},{"id":"GknCLz8E_mC211psEX8lYg","name":"Sushi Zo","cuisine":"Japanese","address":"88 W 3rd St","coordinates":{"latitude":40.7297821044922,"longitude":-73.9992218017578},"review_count":60,"rating":4.5,"zip_code":"10012"},{"id":"DNSFvZtdsqkaidmFSpm-Jw","name":"SOBA AZUMA","cuisine":"Japanese","address":"251 W 55th St","coordinates":{"latitude":40.76526,"longitude":-73.9832},"review_count":140,"rating":4,"zip_code":"10019"},{"id":"zrjxk9o02-fs-hMcrAyaRQ","name":"Glaze Teriyaki","cuisine":"Japanese","address":"139 4th Ave","coordinates":{"latitude":40.7337264,"longitude":-73.9897411},"review_count":254,"rating":3.5,"zip_code":"10003"},{"id":"M8FNsKsudKbBcYMyH5bjlw","name":"Mira Sushi - Flatiron","cuisine":"Japanese","address":"46 W 22nd St","coordinates":{"latitude":40.7418109,"longitude":-73.9924289},"review_count":272,"rating":3.5,"zip_code":"10010"},{"id":"5eXrMPB5GUM-sapL8T-znQ","name":"Sushi Inoue","cuisine":"Japanese","address":"381 Lenox Ave","coordinates":{"latitude":40.8104436,"longitude":-73.943642},"review_count":93,"rating":4.5,"zip_code":"10027"},{"id":"73ORfmj4Et2DVWtroer50g","name":"Hane Sushi","cuisine":"Japanese","address":"346 1st Ave","coordinates":{"latitude":40.734726770853,"longitude":-73.9797846661456},"review_count":256,"rating":3.5,"zip_code":"10009"},{"id":"ieXKc6S3WlEiVkyxgaF9Ig","name":"Tempura Matsui","cuisine":"Japanese","address":"222 E 39th St","coordinates":{"latitude":40.74819,"longitude":-73.97467},"review_count":74,"rating":4.5,"zip_code":"10016"},{"id":"icZcEK39HXuL2q08i4EkkQ","name":"Bessou","cuisine":"Japanese","address":"5 Bleecker St","coordinates":{"latitude":40.725502,"longitude":-73.992675},"review_count":128,"rating":4,"zip_code":"10012"},{"id":"mlJpfJMCS_bFnR5cWX6DTg","name":"Natsumi Tapas","cuisine":"Japanese","address":"323 3rd Ave","coordinates":{"latitude":40.7395565,"longitude":-73.9824123},"review_count":197,"rating":4,"zip_code":"10010"},{"id":"VzstANC68PM1BbyOcDXEtw","name":"Donburiya","cuisine":"Japanese","address":"253 W 55th St","coordinates":{"latitude":40.7654,"longitude":-73.98318},"review_count":169,"rating":4,"zip_code":"10019"},{"id":"nNAzEGkZnecQF0yZdYfMIg","name":"Edo Sushi Japanese Restaurant","cuisine":"Japanese","address":"9 E 17th St","coordinates":{"latitude":40.73774,"longitude":-73.99127},"review_count":246,"rating":3.5,"zip_code":"10003"},{"id":"kesYSgOJW5krU6L8n9qQ4Q","name":"Ichibantei","cuisine":"Japanese","address":"401 E 13th St","coordinates":{"latitude":40.73063,"longitude":-73.98275},"review_count":166,"rating":4,"zip_code":"10009"},{"id":"aq0SXPyy_dpFjcfvTDRxBA","name":"Wasabi Sushi & Bento","cuisine":"Japanese","address":"561 7th Ave","coordinates":{"latitude":40.754823,"longitude":-73.987475},"review_count":410,"rating":3.5,"zip_code":"10018"},{"id":"O9WmKufAUqDM0j2HpgLVlw","name":"Tamashii Ramen","cuisine":"Japanese","address":"2905 Broadway","coordinates":{"latitude":40.7628026,"longitude":-73.926578},"review_count":580,"rating":4,"zip_code":"11106"},{"id":"yj4culC4vfNKWXdj5ZxJ4Q","name":"Kosaka","cuisine":"Japanese","address":"220 W 13th St","coordinates":{"latitude":40.7381972955808,"longitude":-74.0014449879527},"review_count":101,"rating":4.5,"zip_code":"10011"},{"id":"15R8rx9SHKNVYBwgAuTyGA","name":"Sushi Ginza Onodera","cuisine":"Japanese","address":"461 5th Ave","coordinates":{"latitude":40.7523399,"longitude":-73.98151},"review_count":94,"rating":4,"zip_code":"10017"},{"id":"lxQ-tzFmL1tmUqZUN-CSRQ","name":"Bozu","cuisine":"Japanese","address":"296 Grand St","coordinates":{"latitude":40.712797,"longitude":-73.957555},"review_count":742,"rating":4,"zip_code":"11211"},{"id":"wcs0Qm2PshPz0ifTsJK3YA","name":"dainobu","cuisine":"Japanese","address":"129 E 47th St","coordinates":{"latitude":40.7546157836914,"longitude":-73.9731292724609},"review_count":189,"rating":3.5,"zip_code":"10017"},{"id":"dspLTxhT3Po_lgpUOnYLHg","name":"Matsu Sushi","cuisine":"Japanese","address":"411 E 70th St","coordinates":{"latitude":40.766304,"longitude":-73.955909},"review_count":229,"rating":3.5,"zip_code":"10021"},{"id":"SUinDfVWO2FSoSlKntDgiw","name":"ramen-ya Samurai Edition","cuisine":"Japanese","address":"133 W 3rd St","coordinates":{"latitude":40.73097,"longitude":-74.00072},"review_count":230,"rating":3.5,"zip_code":"10012"},{"id":"TBPoZ9bESX0YnIZ0uKjX_w","name":"Ennju","cuisine":"Japanese","address":"20 E 17th St","coordinates":{"latitude":40.73727,"longitude":-73.99124},"review_count":210,"rating":3.5,"zip_code":"10003"},{"id":"L3reOLLPez7lnOhyfCpvkg","name":"Shinka Ramen & Sake Bar","cuisine":"Japanese","address":"93 Bowery St","coordinates":{"latitude":40.7170795322745,"longitude":-73.9952574670315},"review_count":82,"rating":4.5,"zip_code":"10002"},{"id":"k9SHpkjwlYnXZkSLVtl11w","name":"Tenzan","cuisine":"Japanese","address":"988 2nd Ave","coordinates":{"latitude":40.756202,"longitude":-73.967201},"review_count":244,"rating":3.5,"zip_code":"10022"},{"id":"Hkg4b2x8LlYbq2molIFdhw","name":"Kikoo Sushi","cuisine":"Japanese","address":"141 1st Ave","coordinates":{"latitude":40.7280544300949,"longitude":-73.9852588030411},"review_count":495,"rating":3.5,"zip_code":"10009"},{"id":"k2p78r6NOhYYb_5QOORGcA","name":"Kome Waza","cuisine":"Japanese","address":"40 Water St","coordinates":{"latitude":40.70351,"longitude":-74.010246},"review_count":128,"rating":4,"zip_code":"10004"},{"id":"Zjdtcex73QIz2_MvEvDrFQ","name":"MakiMaki","cuisine":"Japanese","address":"1369 6th Ave","coordinates":{"latitude":40.7633913312621,"longitude":-73.9780393019703},"review_count":78,"rating":4.5,"zip_code":"10019"},{"id":"2SMaAUcbNjW7vSwdg38P2Q","name":"Ajisen Ramen","cuisine":"Japanese","address":"136 W 28th St","coordinates":{"latitude":40.7466099,"longitude":-73.9920999},"review_count":329,"rating":3.5,"zip_code":"10001"},{"id":"8bnQ06S07cxZNIW1ljBURA","name":"Ivan Ramen Slurp Shop","cuisine":"Japanese","address":"600 11th Ave","coordinates":{"latitude":40.7625346738425,"longitude":-73.9970355547241},"review_count":611,"rating":3,"zip_code":"10036"},{"id":"ymb0SvFrlcWm6k_Gx5SYcQ","name":"Yuzu","cuisine":"Japanese","address":"350 Lenox Ave","coordinates":{"latitude":40.80937,"longitude":-73.94399},"review_count":156,"rating":4,"zip_code":"10027"},{"id":"dz88dkY9JaoXe2sF8MSjVQ","name":"Benihana","cuisine":"Japanese","address":"47 W 56th St","coordinates":{"latitude":40.7633238925373,"longitude":-73.9766874748688},"review_count":821,"rating":2.5,"zip_code":"10019"}]}
