{"businesses":[{"id":"lkvBfepF7d02lLDA7Jr75g","name":"Ikinari Steak Broadway","cuisine":"Japanese","address":"243 W 54th St","coordinates":{"latitude":40.76449,"longitude":-73.9833},"review_count":3,"rating":5,"zip_code":"10019"},{"id":"dmAQ6J40AR-v08MxpvQT0Q","name":"Izumi Haru Sushi","cuisine":"Japanese","address":"857 9th Ave","coordinates":{"latitude":40.76714,"longitude":-73.98669},"review_count":7,"rating":2.5,"zip_code":"10019"},{"id":"cHgg1xqEpabBYF8D9DMZxQ","name":"Jade Asian Express","cuisine":"Japanese","address":"1641 Woodbine St","coordinates":{"latitude":40.7001686096191,"longitude":-73.9092025756836},"review_count":30,"rating":3.5,"zip_code":"11385"},{"id":"Zqiv3I5HxXACn1937AUVfg","name":"Iwasaki","cuisine":"Japanese","address":"103 5th Ave","coordinates":{"latitude":40.738124,"longitude":-73.991722},"review_count":5,"rating":2.5,"zip_code":"10003"},{"id":"gPn_MadQRUNClx67z-tQ5g","name":"Kuro-Obi at UrbanSpace 570 Lex","cuisine":"Japanese","address":"570 Lexington Ave","coordinates":{"latitude":40.75686,"longitude":-73.97228},"review_count":2,"rating":5,"zip_code":"10022"},{"id":"vlZ9k3e_1N_h_ybhrl278g","name":"Japanese Teppanyaki","cuisine":"Japanese","address":"Times Square","coordinates":{"latitude":40.7586084813478,"longitude":-73.9890305207363},"review_count":1,"rating":5,"zip_code":"10036"},{"id":"AQaW1dsOhh2aD0qEX8RYZA","name":"RESOBOX Chelsea","cuisine":"Japanese","address":"203 W 20th St","coordinates":{"latitude":40.74246,"longitude":-73.99729},"review_count":2,"rating":5,"zip_code":"10011"},{"id":"1mO-W01Xu65nergOsjd-yQ","name":"Fuji Sushi","cuisine":"Japanese","address":"316 W 36th St","coordinates":{"latitude":40.7536354064941,"longitude":-73.9934997558594},"review_count":11,"rating":2,"zip_code":"10018"},{"id":"hHzngEBZs7iLE42Zv3MHXg","name":"Resobox  East Village","cuisine":"Japanese","address":"91 E 3rd St","coordinates":{"latitude":40.72482,"longitude":-73.98779},"review_count":4,"rating":5,"zip_code":"10003"},{"id":"60f6JzTRhOyOggsjCfvh5Q","name":"Hana Sushi","cuisine":"Japanese","address":"3141 Broadway","coordinates":{"latitude":40.81403,"longitude":-73.95983},"review_count":15,"rating":1.5,"zip_code":"10027"},{"id":"o5ERD8dqk0yEMvWvW6a9cA","name":"Takoyaki","cuisine":"Japanese","address":"5 Doyers St","coordinates":{"latitude":40.7143333337742,"longitude":-73.9978495006039},"review_count":4,"rating":3.5,"zip_code":"10013"},{"id":"M6XwmGAtSDG5lhllxyjFdw","name":"Raku Raku","cuisine":"Japanese","address":"300 E 89th St","coordinates":{"latitude":40.7796,"longitude":-73.95008},"review_count":2,"rating":3,"zip_code":"10128"},{"id":"eOLXjfA_AET5850_ragkcg","name":"Aquamarine 38","cuisine":"Japanese","address":"713 2nd Ave","coordinates":{"latitude":40.7476316463904,"longitude":-73.9740022222896},"review_count":5,"rating":2,"zip_code":"10016"},{"id":"U43DZ75Bct85HzSK2gvr5w","name":"New Yoshi Japanese Restaurant","cuisine":"Japanese","address":"416 W 46th St","coordinates":{"latitude":40.76121,"longitude":-73.9919},"review_count":5,"rating":3,"zip_code":"10036"},{"id":"ZF-pkWLcWEK3K3DXssFj8g","name":"Beijing Chinese & Japanese Food","cuisine":"Japanese","address":"551 Woodward Ave","coordinates":{"latitude":40.7071113586426,"longitude":-73.9090576171875},"review_count":19,"rating":3,"zip_code":"11385"},{"id":"C83_0TlJdnKSKwkaH62DKA","name":"Japan Express","cuisine":"Japanese","address":"E 71st St","coordinates":{"latitude":40.7663619452732,"longitude":-73.9541569042934},"review_count":3,"rating":4,"zip_code":"10021"},{"id":"Xv_mKY4T3aQgfrkiCyh1Wg","name":"Doozo Japanese Restaurant","cuisine":"Japanese","address":"216 Thompson St","coordinates":{"latitude":40.728874,"longitude":-73.998985},"review_count":13,"rating":1.5,"zip_code":"10012"},{"id":"9hyc0Xf04WCPP0fGDH_PAQ","name":"Poke Time","cuisine":"Japanese","address":"844 2nd Ave","coordinates":{"latitude":40.7515735,"longitude":-73.970671},"review_count":3,"rating":2.5,"zip_code":"10017"},{"id":"c2WVPQXP7NGvZVfUV9p9vA","name":"Little Tokyo","cuisine":"Japanese","address":"89 South St","coordinates":{"latitude":40.70634,"longitude":-74.0038299},"review_count":4,"rating":2.5,"zip_code":"10038"},{"id":"7HoD87hAJRuCh2d5Tw-t2w","name":"Wasabi Sushi & Bento","cuisine":"Japanese","address":"1018 6th Ave","coordinates":{"latitude":40.75213,"longitude":-73.98582},"review_count":6,"rating":3,"zip_code":"10018"},{"id":"wLO-wHA3mmPuhrpbDj2mYQ","name":"Food Sunsun","cuisine":"Japanese","address":"144 W 37th St","coordinates":{"latitude":40.75243,"longitude":-73.988724},"review_count":4,"rating":2.5,"zip_code":"10018"},{"id":"R6OddzYA6BF1J_LWp6Ac6w","name":"Kobeyaki","cuisine":"Japanese","address":"525 Washington Blvd","coordinates":{"latitude":40.7272567071122,"longitude":-74.0351514635882},"review_count":12,"rating":3.5,"zip_code":"07310"},{"id":"frjMUU8VpT6Ou0y7TWEgYw","name":"Hana","cuisine":"Japanese","address":"10-12 W 51st St","coordinates":{"latitude":40.7595357525026,"longitude":-73.9776032938552},"review_count":2,"rating":4,"zip_code":"10111"},{"id":"8mTPjmfFcwcHxr2Ml0SQLQ","name":"Menya Jiro- Midtown","cuisine":"Japanese","address":"156 E 45th St","coordinates":{"latitude":40.7527204,"longitude":-73.9734828},"review_count":3,"rating":3.5,"zip_code":"10017"},{"id":"xs5YPIHh6PMGeKuEwhhYnQ","name":"Izakaya Oni","cuisine":"Japanese","address":"141 1st Ave","coordinates":{"latitude":40.72806,"longitude":-73.9852},"review_count":5,"rating":2,"zip_code":"10003"},{"id":"4VCXnljCrvEMgXEDUToQdg","name":"Kiosku","cuisine":"Japanese","address":"211 E 43rd St","coordinates":{"latitude":40.75122,"longitude":-73.97317},"review_count":2,"rating":2.5,"zip_code":"10017"},{"id":"aEbPuispldJ-3jMahFlGEQ","name":"Bar Otsumami","cuisine":"Japanese","address":"71 Clinton St","coordinates":{"latitude":40.7191968194382,"longitude":-73.9850556850433},"review_count":2,"rating":3,"zip_code":"10002"},{"id":"9yTwuznxkJo9JZl7KBZ0zw","name":"Hibachi Express","cuisine":"Japanese","address":"536 E 14th St","coordinates":{"latitude":40.729499,"longitude":-73.978765},"review_count":7,"rating":3.5,"zip_code":"10009"},{"id":"G9kWfSnkxSQKruH2oBK89w","name":"AKO Japanese Restaurant","cuisine":"Japanese","address":"155 E 52nd St","coordinates":{"latitude":40.7572912,"longitude":-73.970394},"review_count":3,"rating":2.5,"zip_code":"10022"},{"id":"f9b1I3y3E2QaBkAuhXMqWQ","name":"Ume Japanese Restaurant","cuisine":"Japanese","address":"157 E 52nd St","coordinates":{"latitude":40.7575493305922,"longitude":-73.970849364996},"review_count":3,"rating":2.5,"zip_code":"10022"},{"id":"MpQfgom8BltdTLZi7FHP-Q","name":"Aji Asian Cuisine","cuisine":"Japanese","address":"141 Front St","coordinates":{"latitude":40.7906506,"longitude":-74.0586091},"review_count":29,"rating":2.5,"zip_code":"07094"},{"id":"CYz0z7l7DndLcl8mtiIT5g","name":"Masa's","cuisine":"Japanese","address":"15 Vanderbilt Ave","coordinates":{"latitude":40.752758,"longitude":-73.977914},"review_count":2,"rating":2.5,"zip_code":"10017"},{"id":"OrMGhduP_X_EiF3Wpy4RHw","name":"Izu","cuisine":"Japanese","address":"9 E 13th St","coordinates":{"latitude":40.73508,"longitude":-73.9933},"review_count":2,"rating":2.5,"zip_code":"10003"},{"id":"-fi63cWx840m2-bYDHWLxA","name":"Ramen Railroad","cuisine":"Japanese","address":"114 Greenpoint Ave","coordinates":{"latitude":40.729773,"longitude":-73.956191},"review_count":4,"rating":5,"zip_code":"11222"},{"id":"tEuJn5CaAXeQL7JUkNk7jQ","name":"Mataso","cuisine":"Japanese","address":"Grand Central Terminal","coordinates":{"latitude":40.7520905,"longitude":-73.9776077},"review_count":1,"rating":3,"zip_code":"10017"},{"id":"XW3hRkVoOqNu2xRBienBNw","name":"A Win Xin Kitchen","cuisine":"Japanese","address":"615 Wilson Ave","coordinates":{"latitude":40.69018,"longitude":-73.90679},"review_count":18,"rating":2.5,"zip_code":"11207"},{"id":"XeryaXOFIn6gSXgi2WSV2Q","name":"Hibachi King Express","cuisine":"Japanese","address":"150 Lawrence St","coordinates":{"latitude":40.691625,"longitude":-73.986577},"review_count":13,"rating":3,"zip_code":"11201"},{"id":"4jSMh01UBZljjLEWWllnKQ","name":"Wonton Specialist","cuisine":"Japanese","address":"158 Lafayette St","coordinates":{"latitude":40.71982,"longitude":-73.99944},"review_count":1,"rating":3,"zip_code":"10013"},{"id":"IT8X2pHUih-pBMzMN9n7Rw","name":"Master Grill","cuisine":"Japanese","address":"262 Cypress Ave","coordinates":{"latitude":40.805913,"longitude":-73.913984},"review_count":11,"rating":3,"zip_code":"10454"},{"id":"aRnqeB3ANO_HKETtyL7rlA","name":"Yakitori Tatsu","cuisine":"Japanese","address":"90 Kent Ave","coordinates":{"latitude":40.7205331761803,"longitude":-73.9618723466992},"review_count":1,"rating":5,"zip_code":"11249"},{"id":"VW0Ehm8vTXFYOICtln6tSA","name":"Aji18 Sushi","cuisine":"Japanese","address":"208 3rd Ave","coordinates":{"latitude":40.7359756529331,"longitude":-73.9852950721979},"review_count":3,"rating":1,"zip_code":"10003"},{"id":"wOxpzgzQCF2o6a2S0GmScQ","name":"New Haru","cuisine":"Japanese","address":"500 W 43rd St","coordinates":{"latitude":40.7602081,"longitude":-73.9954681},"review_count":1,"rating":2,"zip_code":"10036"},{"id":"MkALxWX82TYuO3GxxGGrdw","name":"Ashiya Sushi","cuisine":"Japanese","address":"11 W 36th St","coordinates":{"latitude":40.7502937316895,"longitude":-73.9843902587891},"review_count":3,"rating":1.5,"zip_code":"10018"},{"id":"NaSN8ZDmTK5NfRU9XkGbIg","name":"Ace Asian Fusion & Japanese Cusine","cuisine":"Japanese","address":"216 3rd Ave","coordinates":{"latitude":40.73625,"longitude":-73.98535},"review_count":1,"rating":2,"zip_code":"10003"},{"id":"BSypnfDkRq700C6s8p22dg","name":"UCC Cafessa","cuisine":"Japanese","address":"595 River Rd","coordinates":{"latitude":40.81627,"longitude":-73.97983},"review_count":3,"rating":3.5,"zip_code":"07020"},{"id":"P2_kIvFNkGEqKQ8K34g2pA","name":"Ramen Tatsuno-ya","cuisine":"Japanese","address":"595 River Rd","coordinates":{"latitude":40.816238,"longitude":-73.979897},"review_count":1,"rating":5,"zip_code":"07020"},{"id":"P6TijqkiMNbgUXnb1NLcqw","name":"Azuki Japanese Restaurant","cuisine":"Japanese","address":"1068 1st Ave","coordinates":{"latitude":40.7591291517019,"longitude":-73.9622555673122},"review_count":2,"rating":1,"zip_code":"10022"},{"id":"IdnkN6m6QERMcPv7_gd6dg","name":"Agi Japanese Restaurant","cuisine":"Japanese","address":"63 Reade St","coordinates":{"latitude":40.7148315,"longitude":-74.0065651},"review_count":1,"rating":2,"zip_code":"10007"},{"id":"iPE3nbYTMeQUILrCZBY4mw","name":"Rice & Miso Everyday","cuisine":"Japanese","address":"Dumbo Under The Archway","coordinates":{"latitude":40.70291,"longitude":-73.98778},"review_count":2,"rating":4,"zip_code":"11201"},{"id":"VxVcva5YiUrwq2j4eJCFAQ","name":"Menya Jiro- Brooklyn","cuisine":"Japanese","address":"306 Gold St","coordinates":{"latitude":40.69505,"longitude":-73.98357},"review_count":14,"rating":4.5,"zip_code":"11201"},{"id":"t08ar0NCRS1HaqAZkvh_Gg","name":"Boil Boil Ramen","cuisine":"Japanese","address":"Harborside Financial Center Platform","coordinates":{"latitude":40.7191228578591,"longitude":-74.033465129622},"review_count":6,"rating":2.5,"zip_code":"07302"},{"id":"J6YCQvybP8aJlHiy00Y6dw","name":"Nagoya Japanese Restaurant","cuisine":"Japanese","address":"49 Fulton St","coordinates":{"latitude":40.70827,"longitude":-74.00412},"review_count":2,"rating":1,"zip_code":"10038"},{"id":"JXTQTVH6ItQek5vmiDYYIA","name":"Teriyaki One","cuisine":"Japanese","address":"5805 Bergenline Ave","coordinates":{"latitude":40.7879313731364,"longitude":-74.0174406766891},"review_count":6,"rating":3.5,"zip_code":"07093"},{"id":"UwOPkhqaHMR1JAECFFEA5Q","name":"Anai Sushi","cuisine":"Japanese","address":"253 W 26th St","coordinates":{"latitude":40.7467394,"longitude":-73.9956662},"review_count":1,"rating":1,"zip_code":"10001"},{"id":"xcJPCQeG3OgXWkgjB8avfQ","name":"Amazed Palace","cuisine":"Japanese","address":"689 9th Ave Unit B","coordinates":{"latitude":40.762,"longitude":-73.99041},"review_count":1,"rating":1,"zip_code":"10036"},{"id":"Yem2ErFfNgiD-63aM_yt4Q","name":"Hamachi Japanese Restaurant","cuisine":"Japanese","address":"346 E 59th St","coordinates":{"latitude":40.7598114,"longitude":-73.9627991},"review_count":1,"rating":1,"zip_code":"10022"},{"id":"b5RhctSPMRGyKYn-B1zgkw","name":"Toro","cuisine":"Japanese","address":"1 Front St","coordinates":{"latitude":40.70259,"longitude":-73.99317},"review_count":5,"rating":3,"zip_code":"11201"},{"id":"34JGbXWuPuFJ6ibR869p-A","name":"Spring Sushi and Miyako","cuisine":"Japanese","address":"549 2nd Ave","coordinates":{"latitude":40.74262,"longitude":-73.97782},"review_count":1,"rating":1,"zip_code":"10016"},{"id":"_czorMkcaoS73IkZyAo5zA","name":"Sawa Sushi","cuisine":"Japanese","address":"152 7th Ave","coordinates":{"latitude":40.741863,"longitude":-73.99765},"review_count":3,"rating":2.5,"zip_code":"10011"},{"id":"TgUv8hOhaV4wsRGrkhyCsA","name":"TaHan Sushi","cuisine":"Japanese","address":"2060 7AVE","coordinates":{"latitude":40.811,"longitude":-73.94896},"review_count":1,"rating":1,"zip_code":"10027"},{"id":"s_DIwes25b1jRx1ZN5BF_Q","name":"Yaki Taco","cuisine":"Japanese","address":"Governors Island","coordinates":{"latitude":40.6882069659,"longitude":-74.0177131541},"review_count":3,"rating":3.5,"zip_code":"10004"},{"id":"tYt5p4ZlobieeEm-PODqew","name":"Wing Shing Restaurant","cuisine":"Japanese","address":"4806 Broadway","coordinates":{"latitude":40.75567,"longitude":-73.91249},"review_count":2,"rating":3,"zip_code":"11103"},{"id":"JJcscOGj0AARFoFK1rc96g","name":"Daikichi Sushi","cuisine":"Japanese","address":"595 River Rd","coordinates":{"latitude":40.8162536621094,"longitude":-73.9798965454102},"review_count":1,"rating":4,"zip_code":"07020"},{"id":"ckQo_h2SQn7GpqNSio6XFg","name":"Torishin Kitchen","cuisine":"Japanese","address":"362 W 53rd St","coordinates":{"latitude":40.76496,"longitude":-73.98721},"review_count":2,"rating":5,"zip_code":"10019"},{"id":"UCX2VdAZ9Y7TGZXShTwGsw","name":"Kuro-Obi","cuisine":"Japanese","address":"570 Lexington Ave","coordinates":{"latitude":40.75686,"longitude":-73.97228},"review_count":1,"rating":4,"zip_code":"10022"},{"id":"-Q8MYIWoE4EsGQtudIOY0w","name":"Bua Thai Ramen & Robata Grill","cuisine":"Japanese","address":"1611 2nd Ave","coordinates":{"latitude":40.7764,"longitude":-73.95321},"review_count":9,"rating":4,"zip_code":"10028"},{"id":"HDoJIH-qW9FqJ5WB-bKTqA","name":"MIGHTY Bowl","cuisine":"Japanese","address":"1109 Lexington Ave","coordinates":{"latitude":40.7738,"longitude":-73.95945},"review_count":2,"rating":5,"zip_code":"10075"},{"id":"L87p5eAKGjvkS2YZYjZcrg","name":"Yamada Chikara","cuisine":"Japanese","address":"249 E 49th St","coordinates":{"latitude":40.75465,"longitude":-73.96934},"review_count":1,"rating":5,"zip_code":"10017"},{"id":"W8klIp0hw6lbrqpIar5AKg","name":"The Bari","cuisine":"Japanese","address":"417 Lafayette St","coordinates":{"latitude":40.72862,"longitude":-73.99227},"review_count":2,"rating":5,"zip_code":"10003"},{"id":"RYKGs45OjF-vlb2Ds2Jb_g","name":"Izakaya Juraku","cuisine":"Japanese","address":"121 Ludlow St","coordinates":{"latitude":40.71971,"longitude":-73.98881},"review_count":2,"rating":5,"zip_code":"10002"},{"id":"YZmUCd_rkL_tOjXd7zrtVA","name":"Genji Sushi, Gyoza, & Ramen Bar","cuisine":"Japanese","address":"905 River Rd","coordinates":{"latitude":40.82506,"longitude":-73.97391},"review_count":1,"rating":3,"zip_code":"07020"},{"id":"w-DCY_BIe1LVr4wirloz7g","name":"Momiji Japanese Restaurant","cuisine":"Japanese","address":"3704 Ditmars Blvd","coordinates":{"latitude":40.7737096,"longitude":-73.9075253},"review_count":1,"rating":1,"zip_code":"11105"},{"id":"QBGsRj48wEZ7n4giEbVJlw","name":"I Love Sushi","cuisine":"Japanese","address":"32-06 Broadway","coordinates":{"latitude":40.76147608459,"longitude":-73.9244364202023},"review_count":1,"rating":5,"zip_code":"11106"},{"id":"P8OFIUF2K6PiIk_s1OWfzQ","name":"Hibachi Station","cuisine":"Japanese","address":"8312 37th Ave","coordinates":{"latitude":40.7497241,"longitude":-73.8831137},"review_count":2,"rating":1,"zip_code":"11372"},{"id":"I66F8wR77s4v4pX4OUHXEw","name":"Jungo Sushi","cuisine":"Japanese","address":"48-11 43AVE","coordinates":{"latitude":40.74481,"longitude":-73.91585},"review_count":1,"rating":5,"zip_code":"11104"},{"id":"PvYV6GOblMJlc-BurVwbsw","name":"Sushi Kin","cuisine":"Japanese","address":"37-04 Ditmars Blvd","coordinates":{"latitude":40.7736996,"longitude":-73.9075103},"review_count":1,"rating":5,"zip_code":"11105"},{"id":"OI3-lGbruW6WgdIlW2MYbQ","name":"Nishimoto Trading","cuisine":"Japanese","address":"602 Washington Ave","coordinates":{"latitude":40.82516,"longitude":-74.05824},"review_count":1,"rating":5,"zip_code":"07072"}]}
