{"businesses":[{"id":"ATrDmKiZ-YrAcG3hR7LLgg","name":"Tadka Fine Indian Cuisine","cuisine":"Indian","address":"1297 Paterson Plank Rd","coordinates":{"latitude":40.79015,"longitude":-74.05819},"review_count":85,"rating":3.5,"zip_code":"07094"},{"id":"NDxfIV_QMyXaj4Oa4azXTg","name":"New York Pulao Kabab","cuisine":"Indian","address":"36-02 Steinway St","coordinates":{"latitude":40.7535952,"longitude":-73.9237152},"review_count":12,"rating":4.5,"zip_code":"11101"},{"id":"V4C5SzWmNkgPMjiCfEZ41g","name":"Kinara II Indian Restaurant","cuisine":"Indian","address":"368 Myrtle Ave","coordinates":{"latitude":40.6930084228516,"longitude":-73.971435546875},"review_count":86,"rating":3.5,"zip_code":"11205"},{"id":"uVRau5cd-OpqWIA-qsCiJA","name":"All About Indian Food","cuisine":"Indian","address":"443 Bushwick Ave","coordinates":{"latitude":40.702309,"longitude":-73.936897},"review_count":60,"rating":4,"zip_code":"11206"},{"id":"9x95RpLEIDRWG2Y9w4qz4Q","name":"INDAY","cuisine":"Indian","address":"708 3rd Ave","coordinates":{"latitude":40.75233,"longitude":-73.97353},"review_count":15,"rating":4,"zip_code":"10017"},{"id":"AtPhAHLLdmro_p6FP61qtw","name":"Kustory Kabab","cuisine":"Indian","address":"126 Lexington Ave","coordinates":{"latitude":40.742961,"longitude":-73.9824728},"review_count":16,"rating":3,"zip_code":"10016"},{"id":"8xIoNFPmYPz94xBioimvQQ","name":"My Biryani","cuisine":"Indian","address":"6 Manhattan Ave","coordinates":{"latitude":40.7560884850023,"longitude":-73.9831016626925},"review_count":5,"rating":5,"zip_code":"11206"},{"id":"BXoW0AUDE7WZJcY-Vhqlbg","name":"Indian Table","cuisine":"Indian","address":"234 Court St","coordinates":{"latitude":40.6859591,"longitude":-73.9941661},"review_count":56,"rating":4,"zip_code":"11201"},{"id":"gMgnrr8dJzJJLVH1IbFUZw","name":"Prime Food Market","cuisine":"Indian","address":"180 10th St","coordinates":{"latitude":40.7289087868878,"longitude":-74.0412905350652},"review_count":24,"rating":4,"zip_code":"07302"},{"id":"CPBVjdezPyeBTxW1q6R1Zg","name":"Moharani Indian Takeaway Restaurant","cuisine":"Indian","address":"185 Norman Ave","coordinates":{"latitude":40.727267,"longitude":-73.946939},"review_count":36,"rating":3.5,"zip_code":"11222"},{"id":"QHZxlt8nFqycBrxxizwKmA","name":"Taj Masala","cuisine":"Indian","address":"256 Malcolm X Blvd","coordinates":{"latitude":40.684399,"longitude":-73.929653},"review_count":69,"rating":4,"zip_code":"11233"},{"id":"iAW1UTfP8jL_vpwRh93VcA","name":"Bombay Xpress","cuisine":"Indian","address":"964 Dekalb Ave","coordinates":{"latitude":40.69295,"longitude":-73.93671},"review_count":55,"rating":4,"zip_code":"11221"},{"id":"MAjVFhRwxbOsMHLkObzh4Q","name":"Canteen Desi Dhaba","cuisine":"Indian","address":"117 Tonnele Ave","coordinates":{"latitude":40.7350791713541,"longitude":-74.0670965988642},"review_count":81,"rating":3,"zip_code":"07306"},{"id":"sEShqxRbZuWqjXEVCGMK9g","name":"Talk of the Town","cuisine":"Indian","address":"37-21 72nd St","coordinates":{"latitude":40.74807,"longitude":-73.89348},"review_count":75,"rating":3,"zip_code":"11372"},{"id":"WdaLydR9O57rWbTnQQQ1OQ","name":"Ruma's Kitchen","cuisine":"Indian","address":"37-01 61st St","coordinates":{"latitude":40.7493792,"longitude":-73.9016969},"review_count":24,"rating":4.5,"zip_code":"11377"},{"id":"fu5f6biOPsvgKYEfPfSZEQ","name":"Agra Heights","cuisine":"Indian","address":"226 Wilson Ave","coordinates":{"latitude":40.698017,"longitude":-73.921467},"review_count":109,"rating":3.5,"zip_code":"11237"},{"id":"-PCQyh7uZPBamQYfpI8RBw","name":"Dosa Hut","cuisine":"Indian","address":"777 Newark Ave","coordinates":{"latitude":40.7352599,"longitude":-74.06407},"review_count":99,"rating":3,"zip_code":"07306"},{"id":"z5z6_y69b_ufy73GZUt7Tg","name":"Dosa Spot","cuisine":"Indian","address":"10 Exchange Pl","coordinates":{"latitude":40.7166653,"longitude":-74.0333272},"review_count":20,"rating":4.5,"zip_code":"07302"},{"id":"FZQ-l92qE1NqpI5lbmAM_g","name":"Hyderabad Goat Kacchi Biryani","cuisine":"Indian","address":"6TH -7th Ave N 50th St","coordinates":{"latitude":40.7604963615585,"longitude":-73.9819329231977},"review_count":9,"rating":4,"zip_code":""},{"id":"PwK_4LPh7yQ2VcIGKNKLNw","name":"44th Street Curry House","cuisine":"Indian","address":"160 E 44th St","coordinates":{"latitude":40.75214,"longitude":-73.97394},"review_count":12,"rating":3,"zip_code":"10017"},{"id":"u_j2PopX_tFfQvrlerjmmA","name":"Golconda Chimney","cuisine":"Indian","address":"806 Newark Ave","coordinates":{"latitude":40.73585,"longitude":-74.06517},"review_count":93,"rating":3,"zip_code":"07306"},{"id":"Rta-_ALLo7g9xTUi23pmRw","name":"Curry On","cuisine":"Indian","address":"765 Newark Ave","coordinates":{"latitude":40.7351913452148,"longitude":-74.0635375976563},"review_count":90,"rating":3,"zip_code":"07306"},{"id":"2KCyOxOM5J9glFSpmLqb9Q","name":"Biryani Pot","cuisine":"Indian","address":"824 Newark Ave","coordinates":{"latitude":40.7357829,"longitude":-74.0659607},"review_count":135,"rating":3,"zip_code":"07306"},{"id":"pf_84vrm2-Ir0mVwzK8VNw","name":"Sri Annapoorna Bhavan","cuisine":"Indian","address":"105 Greene St","coordinates":{"latitude":40.71649,"longitude":-74.03617},"review_count":66,"rating":3.5,"zip_code":"07302"},{"id":"WbCZW0OBcakQ9oxsLsw8vg","name":"Honest Restaurant","cuisine":"Indian","address":"811 Newark Ave","coordinates":{"latitude":40.7356169074774,"longitude":-74.0654951334},"review_count":99,"rating":3,"zip_code":"07306"},{"id":"Yf4SjE9tfd1ASaT3xtwYzQ","name":"Bombay Biryany Cart","cuisine":"Indian","address":"Broadway & Liberty St","coordinates":{"latitude":40.7090803971022,"longitude":-74.0105903148651},"review_count":5,"rating":4.5,"zip_code":"10005"},{"id":"iPfHMcyE49cxJhoPL9KRzg","name":"Achar","cuisine":"Indian","address":"1365 1st Ave","coordinates":{"latitude":40.7688446044922,"longitude":-73.9554901123047},"review_count":8,"rating":3.5,"zip_code":"10021"},{"id":"S3dtt6qNyYfdF-I4rZTbXw","name":"Graffitti Earth","cuisine":"Indian","address":"190 Church St","coordinates":{"latitude":40.7159379,"longitude":-74.0071884},"review_count":11,"rating":3.5,"zip_code":"10013"},{"id":"7_NCS8bQ8UA_nEANIWm-hQ","name":"The Kati Roll Company","cuisine":"Indian","address":"685 Third Ave","coordinates":{"latitude":40.75158,"longitude":-73.97333},"review_count":24,"rating":2.5,"zip_code":"10017"},{"id":"SxpRklyvo-VHZwzO2IrpXQ","name":"Persis Biryani Indian Grill","cuisine":"Indian","address":"789 Newark Ave","coordinates":{"latitude":40.7353,"longitude":-74.06465},"review_count":34,"rating":3.5,"zip_code":"07306"},{"id":"XNJgKHavBZm47RpudtAn3A","name":"Taste Of Lahore","cuisine":"Indian","address":"73-10 Northern Blvd","coordinates":{"latitude":40.7545891,"longitude":-73.8931961},"review_count":68,"rating":3,"zip_code":"11372"},{"id":"iU0McmYWdsnD-NKRUZXhQQ","name":"Sapphire Indian Restaurant","cuisine":"Indian","address":"435 Dekalb Ave","coordinates":{"latitude":40.6906127929688,"longitude":-73.9599838256836},"review_count":31,"rating":3.5,"zip_code":"11205"},{"id":"MVNhVKCIqWXUyhwqWMOnYg","name":"Kharian Deli","cuisine":"Indian","address":"184 7th Ave","coordinates":{"latitude":40.74283,"longitude":-73.99692},"review_count":10,"rating":3,"zip_code":"10011"},{"id":"Fj5RosdsJV24ZT8S6X-nNQ","name":"Om Wok","cuisine":"Indian","address":"89-17 Northern Blvd","coordinates":{"latitude":40.7565331,"longitude":-73.8782364},"review_count":31,"rating":3.5,"zip_code":"11372"},{"id":"fNxI--522GxiStC-J3SnTw","name":"Starlight Grill Restaurant & Sweet","cuisine":"Indian","address":"8002 Astoria Blvd","coordinates":{"latitude":40.76496,"longitude":-73.88882},"review_count":19,"rating":4,"zip_code":"11370"},{"id":"VvIzNbkl4PDPzutZdxWCJw","name":"Ittadi Garden & Grill","cuisine":"Indian","address":"7307 37th Rd","coordinates":{"latitude":40.7472744,"longitude":-73.8922265},"review_count":18,"rating":4,"zip_code":"11372"},{"id":"EXFJUuKdtnf4eV1IF1drWQ","name":"Shah Taj","cuisine":"Indian","address":"287 Grove St","coordinates":{"latitude":40.71813,"longitude":-74.04407},"review_count":47,"rating":3.5,"zip_code":"07302"},{"id":"K9t9xqhbLIePem5Okb3J9Q","name":"Indian Express","cuisine":"Indian","address":"301 W 154th St","coordinates":{"latitude":40.82871,"longitude":-73.93802},"review_count":18,"rating":4,"zip_code":"10039"},{"id":"Xzc4Ex6Vx4T-RBc3N9fW5g","name":"Modhu Mita Indian Restaurant","cuisine":"Indian","address":"2546 7th Ave","coordinates":{"latitude":40.8233607931338,"longitude":-73.9381812037132},"review_count":48,"rating":3.5,"zip_code":"10039"},{"id":"3RuiiqUg8C3HZ-RuvlqtBg","name":"Tawa Wok","cuisine":"Indian","address":"608 Grove St","coordinates":{"latitude":40.7322445520707,"longitude":-74.0408217887441},"review_count":66,"rating":2.5,"zip_code":"07310"},{"id":"4zvurFltnSNVGTDFxjNyjw","name":"Dilli Junction","cuisine":"Indian","address":"514 Washington St","coordinates":{"latitude":40.7427599,"longitude":-74.0296},"review_count":102,"rating":4,"zip_code":"07030"},{"id":"KtYEMI-_zy5hoZTBd3i3Tw","name":"Indian Curry Heights","cuisine":"Indian","address":"125 Ralph Ave","coordinates":{"latitude":40.685816,"longitude":-73.923047},"review_count":42,"rating":3.5,"zip_code":"11221"},{"id":"9tjTiVC2HepvHwEPdc677g","name":"Bawarchi Biryani Corner","cuisine":"Indian","address":"839 Newak Ave","coordinates":{"latitude":40.73562,"longitude":-74.0665},"review_count":108,"rating":2.5,"zip_code":"07306"},{"id":"fmH4YbvpYdcpaaYOL1g7wg","name":"Bombay Heights","cuisine":"Indian","address":"1070 Bedford Ave","coordinates":{"latitude":40.688221,"longitude":-73.955137},"review_count":36,"rating":3.5,"zip_code":"11216"},{"id":"KeVQTRyG41doVE3YVsV7Pw","name":"Rajbhog Sweets","cuisine":"Indian","address":"812 Newark Ave","coordinates":{"latitude":40.73588,"longitude":-74.06544},"review_count":75,"rating":3,"zip_code":"07306"},{"id":"ujKLiI39ie5K_iB-TLaFMg","name":"Chennai Dosa Express","cuisine":"Indian","address":"2986 John F Kennedy Blvd","coordinates":{"latitude":40.73506,"longitude":-74.06278},"review_count":32,"rating":3.5,"zip_code":"07306"},{"id":"vksCRTDJO6ZrM_JFRxnG9w","name":"Desi Junction","cuisine":"Indian","address":"688 10th Ave","coordinates":{"latitude":40.763465,"longitude":-73.992317},"review_count":4,"rating":3.5,"zip_code":"10019"},{"id":"PF9sOfpRWjQGviligM-lww","name":"City Spice Cafe","cuisine":"Indian","address":"203 E 26th St","coordinates":{"latitude":40.74068,"longitude":-73.98135},"review_count":5,"rating":4,"zip_code":"10010"},{"id":"PZLdVjlGHc9XlvFDdxHcIw","name":"Jassi's World Famous Deli","cuisine":"Indian","address":"4344 21st St","coordinates":{"latitude":40.74978,"longitude":-73.94674},"review_count":17,"rating":3,"zip_code":"11101"},{"id":"__XmiV4VwrbVDVHrRzn3oQ","name":"Vatan","cuisine":"Indian","address":"839 Newark Ave","coordinates":{"latitude":40.7356,"longitude":-74.06661},"review_count":81,"rating":2.5,"zip_code":"07306"},{"id":"yqKzYJHASzNlytsMUmyAsw","name":"Chennai Flavors","cuisine":"Indian","address":"523 Newark Ave","coordinates":{"latitude":40.73069,"longitude":-74.0561},"review_count":28,"rating":3.5,"zip_code":"07306"},{"id":"32nkcoqPk0c1BYuka2enqw","name":"Qasim Restaurant","cuisine":"Indian","address":"338 9th Ave","coordinates":{"latitude":40.75043,"longitude":-73.99825},"review_count":3,"rating":4.5,"zip_code":"10001"},{"id":"_lixxjh89aMAcEhyvQDIiQ","name":"Paradise Biryani Pointe","cuisine":"Indian","address":"835 Newark Ave","coordinates":{"latitude":40.735577,"longitude":-74.06649},"review_count":107,"rating":2.5,"zip_code":"07306"},{"id":"3_pn5nxp9NuGv7tJ61Mslw","name":"Dhaka Garden","cuisine":"Indian","address":"7223 37th Ave","coordinates":{"latitude":40.749065,"longitude":-73.892934},"review_count":38,"rating":3,"zip_code":"11372"},{"id":"oWmHgBlcY9yNgjUo7mNX4Q","name":"Seven Rivers of India","cuisine":"Indian","address":"203 E Houston St","coordinates":{"latitude":40.72236,"longitude":-73.98743},"review_count":4,"rating":3.5,"zip_code":"10002"},{"id":"eVZGBIWAmQxiTwVYA0pjWA","name":"Little Gujrat Deli","cuisine":"Indian","address":"946 Columbus Ave","coordinates":{"latitude":40.799697,"longitude":-73.962936},"review_count":5,"rating":3,"zip_code":"10025"},{"id":"yndzCcgUIkGhvTyF4va-Eg","name":"Sunshine Restaurant and Sweets","cuisine":"Indian","address":"6915 Northern Blvd","coordinates":{"latitude":40.7543280562698,"longitude":-73.8973474502563},"review_count":28,"rating":3,"zip_code":"11377"},{"id":"XcurvEBQwi0g8Tm72uABlw","name":"DiwaneKhaas","cuisine":"Indian","address":"26-28 Cedar St","coordinates":{"latitude":40.7066171,"longitude":-74.0077713},"review_count":19,"rating":2,"zip_code":"10005"},{"id":"_oB3M47mlg3dJGKKIYkRIA","name":"Jewel of India","cuisine":"Indian","address":"324 E 6th St","coordinates":{"latitude":40.7266884,"longitude":-73.9874496},"review_count":13,"rating":2.5,"zip_code":"10003"},{"id":"LaBJkwwC1lrYtooJQkvh-A","name":"Al Nour","cuisine":"Indian","address":"39-04 64th St","coordinates":{"latitude":40.7461139,"longitude":-73.9001368},"review_count":15,"rating":4,"zip_code":"11377"},{"id":"kNzjRlXzL5XJInDqNwfMgA","name":"Mysttik Masaala","cuisine":"Indian","address":"3203 Steinway St","coordinates":{"latitude":40.7587012503475,"longitude":-73.9190845624267},"review_count":5,"rating":5,"zip_code":"11103"},{"id":"8wYaKJvVrRUaOwqVrVw-jQ","name":"The Makhani Shop","cuisine":"Indian","address":"102 Lexington Ave","coordinates":{"latitude":40.74227,"longitude":-73.98305},"review_count":2,"rating":3,"zip_code":"10016"},{"id":"M1VHR29gMNs3EavDXdE_PA","name":"Momos & Buns","cuisine":"Indian","address":"120 Lexington Ave","coordinates":{"latitude":40.742844,"longitude":-73.982628},"review_count":3,"rating":3.5,"zip_code":"10016"},{"id":"-D-ye8DU5KndJ7mqBpKU1g","name":"Araf Biriyani & Halal Food","cuisine":"Indian","address":"","coordinates":{"latitude":40.7258,"longitude":-73.99793},"review_count":1,"rating":5,"zip_code":"10012"},{"id":"K7u5sEQW1LcIJxjpUS1STg","name":"Chicken Tikka Masala","cuisine":"Indian","address":"134 E 27th St","coordinates":{"latitude":40.7419917609026,"longitude":-73.9828405156732},"review_count":1,"rating":5,"zip_code":"10016"},{"id":"UFRW4RurzgXnn3eeZXLjJQ","name":"Punjab Palace","cuisine":"Indian","address":"11 W 30th St","coordinates":{"latitude":40.7465057373047,"longitude":-73.9872055053711},"review_count":3,"rating":3.5,"zip_code":"10001"},{"id":"oiiQ_2cIUTZG-8qTlcwiuA","name":"Mausam Curry N Bites","cuisine":"Indian","address":"1150 Paterson Plank Rd","coordinates":{"latitude":40.7871754079697,"longitude":-74.0530533716083},"review_count":19,"rating":3.5,"zip_code":"10022"},{"id":"5W2j5LFdJoWDOj2efIljUA","name":"Dosa Royale","cuisine":"Indian","address":"348 Bowey","coordinates":{"latitude":40.72664,"longitude":-73.99202},"review_count":1,"rating":5,"zip_code":"10012"},{"id":"EVaeiIE_p0m2LkeG6rhh2g","name":"Joy of India","cuisine":"Indian","address":"127 E 28th St Frnt","coordinates":{"latitude":40.74298,"longitude":-73.98274},"review_count":1,"rating":5,"zip_code":"10016"},{"id":"CxvXmplrCyvnHIGDrNKRyg","name":"Restaurant Joy","cuisine":"Indian","address":"127 E 28th St Frnt","coordinates":{"latitude":40.74298,"longitude":-73.98274},"review_count":1,"rating":5,"zip_code":"10016"},{"id":"52tGj_mESixieiWsp4_pOw","name":"Mejbaan Restaurant","cuisine":"Indian","address":"7424 37th Ave","coordinates":{"latitude":40.7488401,"longitude":-73.8914334},"review_count":22,"rating":3,"zip_code":"11372"},{"id":"QEudjEGzNalNUN2V2dZVJA","name":"Indian House Biryani","cuisine":"Indian","address":"274 Greenwich St","coordinates":{"latitude":40.715419203043,"longitude":-74.0112166106701},"review_count":1,"rating":5,"zip_code":"10007"},{"id":"-DT3bduqJca_u3DGDarUkw","name":"Laziz International Inc","cuisine":"Indian","address":"134 E 27th St","coordinates":{"latitude":40.7419241219759,"longitude":-73.9827805012465},"review_count":9,"rating":2.5,"zip_code":"10016"},{"id":"DgFso8KK5MYTIYVmOmaYRA","name":"Indian Curry House","cuisine":"Indian","address":"123 Allen St","coordinates":{"latitude":40.71987,"longitude":-73.99047},"review_count":11,"rating":5,"zip_code":"10002"},{"id":"8YEW9Skc7m_Fl-7crFzPyQ","name":"Premium Sweets & Restaurant","cuisine":"Indian","address":"3714 73rd St","coordinates":{"latitude":40.74839,"longitude":-73.89301},"review_count":30,"rating":2.5,"zip_code":"11372"},{"id":"phEamT8HRnu-RFFoCbJ5Bg","name":"Ujala Kabab","cuisine":"Indian","address":"3403 Kennedy Blvd","coordinates":{"latitude":40.71748,"longitude":-74.04385},"review_count":5,"rating":5,"zip_code":"07087"},{"id":"RFiR-vXB46apdqHYr4S57w","name":"K2 Delight Cafe - Bombay Chat","cuisine":"Indian","address":"73-19 37th Rd","coordinates":{"latitude":40.74732,"longitude":-73.8918},"review_count":10,"rating":3.5,"zip_code":"11372"},{"id":"BYIfW55zHJNKzTvMv6hAZA","name":"Baul Dada Jhal Muri Shop","cuisine":"Indian","address":"37-07 73rd St","coordinates":{"latitude":40.7480594645192,"longitude":-73.8924932725525},"review_count":7,"rating":4,"zip_code":"11372"},{"id":"CpsnurlPqkUBWwqO69xS7A","name":"Punjab On Third","cuisine":"Indian","address":"220 3rd Ave","coordinates":{"latitude":40.73633,"longitude":-73.98519},"review_count":3,"rating":2.5,"zip_code":"10003"},{"id":"hfO1-9BjdSLjqErFT265ug","name":"Tabla's Frankie Cart","cuisine":"Indian","address":"11 Madison Ave","coordinates":{"latitude":40.741512,"longitude":-73.98648},"review_count":2,"rating":3.5,"zip_code":"10010"},{"id":"0eRir9RUGAnfKov68kvKVA","name":"Larosh","cuisine":"Indian","address":"37 E 29th St","coordinates":{"latitude":40.744457244873,"longitude":-73.9842758178711},"review_count":8,"rating":2.5,"zip_code":"10016"},{"id":"XwJwqa89PK-xPSiEXAs_6g","name":"Mughal Indian Restaurant","cuisine":"Indian","address":"75TH And Columbus Ave","coordinates":{"latitude":40.7795372331698,"longitude":-73.9775128214034},"review_count":11,"rating":1.5,"zip_code":"10023"},{"id":"oyRcOkU1wvznOfQ_Wp3IzQ","name":"Mamtaj Mahal","cuisine":"Indian","address":"135B N 5th St","coordinates":{"latitude":40.717082,"longitude":-73.959037},"review_count":20,"rating":2.5,"zip_code":"11211"},{"id":"GbBmq42FMVX5dOteBm9mvw","name":"Hot Breads","cuisine":"Indian","address":"134 Lexington Ave","coordinates":{"latitude":40.7431564331055,"longitude":-73.9824066162109},"review_count":1,"rating":4,"zip_code":"10016"},{"id":"AJjQwst3ppWZ9BCfk-tQPA","name":"Bhojon","cuisine":"Indian","address":"15 E 30th St","coordinates":{"latitude":40.7455041728767,"longitude":-73.9850751015234},"review_count":1,"rating":4,"zip_code":"10016"},{"id":"2FFkYc6LbRanDbOwKumLEw","name":"Cinamon","cuisine":"Indian","address":"Lexington Ave 104","coordinates":{"latitude":40.7422601,"longitude":-73.9828516},"review_count":1,"rating":4,"zip_code":"10016"},{"id":"WBJLoLeRSSzRDrzOv5IRng","name":"Sonali Indian Restaurant","cuisine":"Indian","address":"326 E 6th St","coordinates":{"latitude":40.7266693115234,"longitude":-73.9873733520508},"review_count":3,"rating":2.5,"zip_code":"10003"},{"id":"clRkIWrwyNVpcZdhrYVB5g","name":"Khaabar Baari Restaurant","cuisine":"Indian","address":"3722 73rd St","coordinates":{"latitude":40.7482398874526,"longitude":-73.8927657623513},"review_count":17,"rating":2.5,"zip_code":"11372"},{"id":"LpQIn07liSugCw3IIQNyvA","name":"Mela on the Sixth","cuisine":"Indian","address":"320 E 6th St","coordinates":{"latitude":40.72677,"longitude":-73.98761},"review_count":4,"rating":2,"zip_code":"10003"},{"id":"F3mRjSCTKlA1qj7OiRikiQ","name":"Choten Nawab","cuisine":"Indian","address":"150-154 Lexington Ave","coordinates":{"latitude":40.7424964904785,"longitude":-73.9823989868164},"review_count":2,"rating":2.5,"zip_code":"10016"},{"id":"8mNN98-kejLAJLR9p7_mvQ","name":"Taj Mahal Indian Restaurant","cuisine":"Indian","address":"135 N 5th St","coordinates":{"latitude":40.717082,"longitude":-73.959037},"review_count":18,"rating":2,"zip_code":"11211"},{"id":"shNn0uGXQBD7wEIhbtzeIg","name":"Malika Exclusive Indian Restaurant","cuisine":"Indian","address":"210 E 43rd St","coordinates":{"latitude":40.7511443,"longitude":-73.9736139},"review_count":2,"rating":2.5,"zip_code":"10017"},{"id":"nNBYKojg6wD3Ov52Et6Omw","name":"Urban Thadka","cuisine":"Indian","address":"48th & 10 Ave","coordinates":{"latitude":40.7634315,"longitude":-73.9926987},"review_count":1,"rating":3,"zip_code":"10019"},{"id":"sUVRmTS3gwZtdDbjA5TPpA","name":"Kebab & Curry In A Hurry","cuisine":"Indian","address":"2409 2nd Ave","coordinates":{"latitude":40.8019218,"longitude":-73.9345703},"review_count":8,"rating":2.5,"zip_code":"10035"},{"id":"KU8N7dW6vgOA_-HdVL8o8Q","name":"Delhi Masala Express","cuisine":"Indian","address":"3789 Broadway","coordinates":{"latitude":40.834448545992,"longitude":-73.9449341967702},"review_count":10,"rating":4,"zip_code":"10032"},{"id":"0dQ0z5qAqg9CmMmbEDs7rg","name":"Desi Wok","cuisine":"Indian","address":"769 Newark Ave","coordinates":{"latitude":40.73521,"longitude":-74.06371},"review_count":15,"rating":2.5,"zip_code":"07306"},{"id":"cOnQnP9GwyvhQjCJbSz5Fg","name":"Mahboob-e-Elahi","cuisine":"Indian","address":"580 Montgomery St","coordinates":{"latitude":40.723083,"longitude":-74.060844},"review_count":7,"rating":3.5,"zip_code":"07302"},{"id":"RIl9kkzPz530mPoo-_PIgg","name":"Desi Galaxy","cuisine":"Indian","address":"769 Newark Ave","coordinates":{"latitude":40.73521,"longitude":-74.06371},"review_count":16,"rating":3.5,"zip_code":"07306"},{"id":"lZRs_xl354EQuL-DqsOM4w","name":"Diwane khaas","cuisine":"Indian","address":"53 Nasau St","coordinates":{"latitude":40.7093192472484,"longitude":-74.0078423752484},"review_count":1,"rating":3,"zip_code":"10038"},{"id":"pzVUUB9bXZMK8KvRLOoUWg","name":"Kiran Continental Indian Cuisine","cuisine":"Indian","address":"94 Chambers St","coordinates":{"latitude":40.71463,"longitude":-74.00752},"review_count":1,"rating":3,"zip_code":"10007"},{"id":"L02D3DmTwrkap-BaAfIg8g","name":"Lucky Sweets & Restaurant","cuisine":"Indian","address":"3310 36th Ave","coordinates":{"latitude":40.755595,"longitude":-73.9279987},"review_count":4,"rating":3,"zip_code":"11106"},{"id":"ndyZ-kElszC2oxiGHAorCQ","name":"Sundarban Restaurant & Sweets","cuisine":"Indian","address":"33-10 36th Ave","coordinates":{"latitude":40.7555962,"longitude":-73.9280014},"review_count":5,"rating":2.5,"zip_code":"11106"},{"id":"p0aDcwnhhjnAfn67tEFesg","name":"Asha Indian Food","cuisine":"Indian","address":"151 E 103rd St","coordinates":{"latitude":40.7902707,"longitude":-73.9473015},"review_count":5,"rating":1.5,"zip_code":"10029"},{"id":"dgz6m-9WZhahheWVguwfBw","name":"Bawarchi Indian Cuisine","cuisine":"Indian","address":"1149 W 53rd St","coordinates":{"latitude":40.6346512,"longitude":-73.9972916},"review_count":1,"rating":2,"zip_code":"10065"},{"id":"85123ck6ZQF5-4rTQbDHjA","name":"Hurry & Tasty Curry","cuisine":"Indian","address":"133 E 45th St","coordinates":{"latitude":40.7532799,"longitude":-73.97418},"review_count":2,"rating":1,"zip_code":"10017"},{"id":"WI5kC9Ba8QClXq_mslg07A","name":"Cafe Utsav","cuisine":"Indian","address":"769 Newark Ave","coordinates":{"latitude":40.735214,"longitude":-74.063713},"review_count":4,"rating":3,"zip_code":"07306"},{"id":"HDmk_Rhk8iZM5ULL70QsPA","name":"Prince Kabab & Chinese Restaurant","cuisine":"Indian","address":"37-56 74th St","coordinates":{"latitude":40.7474201,"longitude":-73.8919181},"review_count":7,"rating":3,"zip_code":"11372"},{"id":"3Y-beEWD9prfpSZXrQjMPg","name":"Tandoori Palace","cuisine":"Indian","address":"7414 37th Ave","coordinates":{"latitude":40.7488341,"longitude":-73.8914834},"review_count":3,"rating":4,"zip_code":"11372"},{"id":"L1gBXF7Ux5mUmDQ0qpOMkw","name":"New Aladdin Sweets and Cafe","cuisine":"Indian","address":"3766 74th St","coordinates":{"latitude":40.747114,"longitude":-73.89176},"review_count":4,"rating":3,"zip_code":"11372"},{"id":"UQV4XEaZwIRfi5SLs48sDA","name":"Alauddin Sweet Meat USA","cuisine":"Indian","address":"3714 73rd St","coordinates":{"latitude":40.74839,"longitude":-73.89301},"review_count":3,"rating":3.5,"zip_code":"11372"},{"id":"R1hRLBVYITw5aIkLa58xFQ","name":"Tropix: A Taste of Guyana","cuisine":"Indian","address":"733 A W Side Ave","coordinates":{"latitude":40.7255858817225,"longitude":-74.0776069834828},"review_count":8,"rating":3,"zip_code":"07306"},{"id":"C6AAKuzSw-HrP7G47y47TQ","name":"Namaste Nepal","cuisine":"Indian","address":"43-16 Queens Blvd","coordinates":{"latitude":40.7431256,"longitude":-73.9209581},"review_count":1,"rating":4,"zip_code":"11104"},{"id":"JFGHmvKmzW_TP6NjdvoWow","name":"Lotus Progressive Indian Cuisine","cuisine":"Indian","address":"131 Erie St","coordinates":{"latitude":40.7266075564457,"longitude":-74.0437098965049},"review_count":26,"rating":3,"zip_code":"07302"},{"id":"i9EgpwRQVS8kEcgbyEzOeQ","name":"Red Chili","cuisine":"Indian","address":"3094 Steinway St","coordinates":{"latitude":40.7616882,"longitude":-73.9170837},"review_count":4,"rating":2,"zip_code":"11103"},{"id":"ItocvsIyniVxMARBkHZaoA","name":"indikitch","cuisine":"Indian","address":"601 8th Ave","coordinates":{"latitude":40.7556,"longitude":-73.99122},"review_count":3,"rating":4,"zip_code":"10018"},{"id":"HN8BQ7DpnLTrEkEPIap3DA","name":"Funjabi","cuisine":"Indian","address":"608 Grove St","coordinates":{"latitude":40.73225,"longitude":-74.04071},"review_count":2,"rating":2.5,"zip_code":"07310"},{"id":"trkn76h8vQeB8kCUgHJyuw","name":"Inday Go Go","cuisine":"Indian","address":"570 Lexington Ave","coordinates":{"latitude":40.75686,"longitude":-73.97228},"review_count":1,"rating":4,"zip_code":"10022"},{"id":"hgoT9kFq-6YtQ1C1z6FK0A","name":"Asian Halal Food Restaurant","cuisine":"Indian","address":"39-44 21st St","coordinates":{"latitude":40.7559487223625,"longitude":-73.940649703145},"review_count":4,"rating":2,"zip_code":"11101"},{"id":"TB9jN3Fe-JHjyjYWmIQ_EA","name":"Kabab & Curry Cafe","cuisine":"Indian","address":"37-49 74th St","coordinates":{"latitude":40.7477283924279,"longitude":-73.8914734125137},"review_count":1,"rating":4,"zip_code":"11372"},{"id":"I8rG7zAwNbBOji-R8MYwcQ","name":"Namaste","cuisine":"Indian","address":"1448 1st Ave","coordinates":{"latitude":40.76985,"longitude":-73.95412},"review_count":1,"rating":2,"zip_code":"10021"},{"id":"jJYQJGygWjIX6_0MiIoJRQ","name":"Ashoka on 2nd Avenue","cuisine":"Indian","address":"1718 2nd Ave","coordinates":{"latitude":40.7798555,"longitude":-73.9500904},"review_count":2,"rating":4.5,"zip_code":"10128"},{"id":"y5Moq5nwvght0B9gAdqyQQ","name":"The Chinese Club NYC - Desiwala Chinese","cuisine":"Indian","address":"102 Lexington Ave","coordinates":{"latitude":40.74227,"longitude":-73.98305},"review_count":3,"rating":4.5,"zip_code":"10016"},{"id":"Q4lFkP8mC4PLnPErm3ibjw","name":"Chilli's","cuisine":"Indian","address":"37-56 A 37th Rd","coordinates":{"latitude":40.7473729,"longitude":-73.8917546023256},"review_count":6,"rating":1.5,"zip_code":"11372"},{"id":"w2-VGvlBCMYo9ko8Y_PzAw","name":"Masala King","cuisine":"Indian","address":"","coordinates":{"latitude":40.7472101768156,"longitude":-73.9819365834324},"review_count":10,"rating":5,"zip_code":"10016"},{"id":"oL3NzwNMn-e02cxGwvsPcw","name":"New Shri Sai","cuisine":"Indian","address":"133 E 45th St","coordinates":{"latitude":40.7529258728027,"longitude":-73.9742202758789},"review_count":1,"rating":4,"zip_code":"10017"},{"id":"4SK9aWKC-Qwk-cqS2dWbfw","name":"KebabNgrill","cuisine":"Indian","address":"775 Bergen Ave","coordinates":{"latitude":40.7259164,"longitude":-74.0678749},"review_count":5,"rating":5,"zip_code":"07306"},{"id":"QzPaA7e4O7iabpwr99pmiQ","name":"Tawa Tandor","cuisine":"Indian","address":"49 74th St","coordinates":{"latitude":40.7475662231445,"longitude":-73.8915100097656},"review_count":4,"rating":2,"zip_code":"11372"},{"id":"GYik7iRs1Esz7jkvj4iUZg","name":"Mughal Dinner","cuisine":"Indian","address":"2512 Broadway","coordinates":{"latitude":40.7631275,"longitude":-73.9281706},"review_count":1,"rating":2,"zip_code":"11106"},{"id":"isvWkHXd6AqpZ_q-Z_iR-g","name":"Meera's Indian Kitchen","cuisine":"Indian","address":"339 Johnston Ave","coordinates":{"latitude":40.7133390435062,"longitude":-74.0582499516981},"review_count":1,"rating":4,"zip_code":"07304"},{"id":"5YFgQpN3AnlLFG4m5fCvzA","name":"Gulshan Terrace","cuisine":"Indian","address":"5915 37th Ave","coordinates":{"latitude":40.7498753,"longitude":-73.9027518},"review_count":1,"rating":3,"zip_code":"11377"},{"id":"oUfTF9uBy6MyKiONbgkilw","name":"Karahi Restaurant and Grill","cuisine":"Indian","address":"72-08 Broadway","coordinates":{"latitude":40.74739,"longitude":-73.89353},"review_count":2,"rating":2.5,"zip_code":"11372"},{"id":"EJPqwdHlr6smIgI5SFP6vg","name":"Khan Baba Restaurant","cuisine":"Indian","address":"7415 Roosevelt Ave","coordinates":{"latitude":40.7470142,"longitude":-73.8911845},"review_count":2,"rating":2.5,"zip_code":"11372"},{"id":"GsUOi6XcuMRZ4UT_zfuixQ","name":"Taste of Mother India","cuisine":"Indian","address":"117 Tonnele Ave","coordinates":{"latitude":40.7350472794594,"longitude":-74.0672495372616},"review_count":1,"rating":3,"zip_code":"07306"},{"id":"Q3q5ODGrzCGjTUKaFEWJkw","name":"New Green Leaf","cuisine":"Indian","address":"651 Manhattan Ave","coordinates":{"latitude":40.7242889,"longitude":-73.9514008},"review_count":5,"rating":1.5,"zip_code":"11222"},{"id":"UTsBON3O7wIKWupchuhRug","name":"Bukhari Grill","cuisine":"Indian","address":"98 Willow Ave","coordinates":{"latitude":40.7379251,"longitude":-74.0347118},"review_count":1,"rating":1,"zip_code":"07030"},{"id":"GgVSxkEzFRyAorxuODA1tQ","name":"Masala Indian Cuisine","cuisine":"Indian","address":"789 Newark Ave","coordinates":{"latitude":40.7353,"longitude":-74.06465},"review_count":2,"rating":1,"zip_code":"07306"},{"id":"vHHVrNOhGDCbqzpYgKcUYw","name":"Minar","cuisine":"Indian","address":"46th & Broadway","coordinates":{"latitude":40.7567254,"longitude":-73.9142197},"review_count":2,"rating":2,"zip_code":"11103"},{"id":"MeyBDyi-wxPm9ytY9Npalw","name":"Desi Dhaba","cuisine":"Indian","address":"4A Columbus Dr","coordinates":{"latitude":40.717364419652,"longitude":-74.0352404016294},"review_count":1,"rating":4,"zip_code":"07302"},{"id":"3vpqJK9Oz515AZR-bFW5Ig","name":"Dosas's Uthappam","cuisine":"Indian","address":"1-15 Liberty Ave","coordinates":{"latitude":40.7357445,"longitude":-74.0651245},"review_count":1,"rating":4,"zip_code":"07306"},{"id":"-tI3uIKZVLc2YXWUdYWgjQ","name":"Indian Curry King","cuisine":"Indian","address":"980 Morris Ave","coordinates":{"latitude":40.8284991234541,"longitude":-73.9167854189873},"review_count":1,"rating":1,"zip_code":"10456"}]}
