{"businesses":[{"id":"3iLPrhNb02n81GdxP_jqgQ","name":"North Square","cuisine":"American","address":"103 Waverly Pl","coordinates":{"latitude":40.73251,"longitude":-73.99866},"review_count":270,"rating":4,"zip_code":"10011"},{"id":"zzVeJukpmXchLTQQhxzQjQ","name":"Blondies Sports","cuisine":"American","address":"212 W 79th St","coordinates":{"latitude":40.78321,"longitude":-73.97919},"review_count":397,"rating":3.5,"zip_code":"10024"},{"id":"Y3d3m6ut-7oTQ4lFfnPvXA","name":"Blake Lane","cuisine":"American","address":"1429 Third Ave","coordinates":{"latitude":40.77532,"longitude":-73.95621},"review_count":241,"rating":4,"zip_code":"10028"},{"id":"XVqXXolr-RS_ZarEAJjQ7A","name":"Dig Inn","cuisine":"American","address":"16 E 23rd St","coordinates":{"latitude":40.7406997680664,"longitude":-73.9883117675781},"review_count":192,"rating":4,"zip_code":"10010"},{"id":"gvWzAiMrFm9AgfSN2I8Miw","name":"Ivy","cuisine":"American","address":"944 8th Ave","coordinates":{"latitude":40.765751,"longitude":-73.983167},"review_count":299,"rating":4,"zip_code":"10019"},{"id":"2_kvHYO8YDZoepinusLpqw","name":"The House","cuisine":"American","address":"121 E 17th St","coordinates":{"latitude":40.73613,"longitude":-73.98773},"review_count":349,"rating":3.5,"zip_code":"10003"},{"id":"l2b6HJGarUxoeLnM9syTmg","name":"Compagnie des Vins Surnaturels","cuisine":"American","address":"249 Ctr St","coordinates":{"latitude":40.7205157,"longitude":-73.9981652},"review_count":90,"rating":4.5,"zip_code":"10013"},{"id":"H4EbLs2Gne5-EAaKMrVBEA","name":"AG Kitchen","cuisine":"American","address":"269 Columbus Ave","coordinates":{"latitude":40.7777081429958,"longitude":-73.978505730629},"review_count":519,"rating":3.5,"zip_code":"10023"},{"id":"CCuRcMro9fxUARlWMVtFPA","name":"Vinus and Marc","cuisine":"American","address":"1825 2nd Ave","coordinates":{"latitude":40.7834125,"longitude":-73.9479571},"review_count":217,"rating":4,"zip_code":"10128"},{"id":"ZGUe-3-jApDJjebQPr_Qwg","name":"Seamstress","cuisine":"American","address":"339 E 75th St","coordinates":{"latitude":40.77015,"longitude":-73.95496},"review_count":263,"rating":4,"zip_code":"10021"},{"id":"f-sL-VgQzte0StcqI3KkJw","name":"West Bank Cafe","cuisine":"American","address":"407 W 42nd St","coordinates":{"latitude":40.7586255669594,"longitude":-73.992970213294},"review_count":215,"rating":4,"zip_code":"10036"},{"id":"6wLRkcuam2J_xSZ403YwLA","name":"The Lambs Club","cuisine":"American","address":"132 W 44th St","coordinates":{"latitude":40.7565103875392,"longitude":-73.9845907254059},"review_count":489,"rating":3,"zip_code":"10036"},{"id":"RKAK9AuzKR7K36ABcXPjTA","name":"CC's Cafe","cuisine":"American","address":"41 Monroe St","coordinates":{"latitude":40.71166,"longitude":-73.99452},"review_count":110,"rating":4.5,"zip_code":"10002"},{"id":"6hKJePanmG9AxK4dfwgyyg","name":"The Horny Ram","cuisine":"American","address":"951 2nd Ave","coordinates":{"latitude":40.755275,"longitude":-73.968574},"review_count":202,"rating":4,"zip_code":"10022"},{"id":"IiIzeFqe4tJiHaAWyw7ddg","name":"West End Bar & Grill","cuisine":"American","address":"813 8th Ave","coordinates":{"latitude":40.7616749263638,"longitude":-73.9867399828033},"review_count":285,"rating":4,"zip_code":"10019"},{"id":"-Fv6St_t9ScaH2088owNRQ","name":"Kings' Carriage House","cuisine":"American","address":"251 E 82nd St","coordinates":{"latitude":40.7754843,"longitude":-73.9537374},"review_count":172,"rating":4,"zip_code":"10028"},{"id":"YL50wX8_PyeQE6NylT8YVQ","name":"Tonic Bar & Restaurant","cuisine":"American","address":"727 7th Ave","coordinates":{"latitude":40.75999,"longitude":-73.98366},"review_count":466,"rating":3.5,"zip_code":"10019"},{"id":"bQrrVsa6PLLQEYDDaw0uSw","name":"The Waverly Inn","cuisine":"American","address":"16 Bank St","coordinates":{"latitude":40.73696,"longitude":-74.00223},"review_count":387,"rating":3.5,"zip_code":"10014"},{"id":"FJepPR5CYRggxRwAjlqg6A","name":"Bowery Road","cuisine":"American","address":"132 4th Ave","coordinates":{"latitude":40.7333427,"longitude":-73.9901924},"review_count":89,"rating":4.5,"zip_code":"10003"},{"id":"aqQw-FS1EWS5Fx3URh8iqQ","name":"Spring Natural Kitchen","cuisine":"American","address":"474 Columbus Ave","coordinates":{"latitude":40.78451,"longitude":-73.97402},"review_count":382,"rating":3.5,"zip_code":"10024"},{"id":"tuP7STBjszTvKcQLeFMnkw","name":"The Great Burrito","cuisine":"American","address":"405 Amsterdam Ave","coordinates":{"latitude":40.78333,"longitude":-73.97796},"review_count":248,"rating":4,"zip_code":"10024"},{"id":"Uv13OfDr0fm5Jk2Dk4uFvQ","name":"Hank's Juicy Beef","cuisine":"American","address":"84 Chambers St","coordinates":{"latitude":40.7143487,"longitude":-74.0072147},"review_count":146,"rating":4.5,"zip_code":"10007"},{"id":"qQyknbv7ndx0HslLZd7xyg","name":"a.cafe","cuisine":"American","address":"42 W 58th St","coordinates":{"latitude":40.7644006446201,"longitude":-73.9756905214958},"review_count":186,"rating":4,"zip_code":"10019"},{"id":"0yg9DS4RDceQ6HgH3Jx80Q","name":"Sean's Bar & Kitchen","cuisine":"American","address":"42 West 48th St","coordinates":{"latitude":40.75801,"longitude":-73.98008},"review_count":158,"rating":4,"zip_code":"10036"},{"id":"2dow8yoP1KJocKOiMuWOkg","name":"BurgerFi","cuisine":"American","address":"1571 2nd Ave","coordinates":{"latitude":40.775087552127,"longitude":-73.9540691080666},"review_count":325,"rating":3.5,"zip_code":"10028"},{"id":"Tt9Mkrgd5Zj_ZJEeU0L7Gg","name":"Bocado Cafe","cuisine":"American","address":"1293 Lexington Ave","coordinates":{"latitude":40.7802514169278,"longitude":-73.9549089244757},"review_count":379,"rating":3.5,"zip_code":"10128"},{"id":"WqmqQ8c9NivfIRn3sO2KiA","name":"The Ribbon","cuisine":"American","address":"20 W 72nd St","coordinates":{"latitude":40.7765198,"longitude":-73.9774628},"review_count":288,"rating":3.5,"zip_code":"10023"},{"id":"v8_MaF5d2u5qZ6evINBsig","name":"Coarse NY","cuisine":"American","address":"306 W 13th St","coordinates":{"latitude":40.73913,"longitude":-74.00363},"review_count":132,"rating":4.5,"zip_code":"10014"},{"id":"kLyS_dfIwCPdkVODMlkkeg","name":"Bruno Pizza","cuisine":"American","address":"204 E 13th St","coordinates":{"latitude":40.73226,"longitude":-73.98736},"review_count":185,"rating":4,"zip_code":"10003"},{"id":"Xk3BVvlX-KXh6kJhbClMKw","name":"Fine & Rare","cuisine":"American","address":"9 E 37th St","coordinates":{"latitude":40.7501754760742,"longitude":-73.9821929931641},"review_count":135,"rating":4,"zip_code":"10016"},{"id":"M7Bl6U2EjxI-n0ksoYtZ8w","name":"Vero","cuisine":"American","address":"1483 2nd Ave","coordinates":{"latitude":40.77225,"longitude":-73.95607},"review_count":272,"rating":3.5,"zip_code":"10075"},{"id":"c1kKAH9XMPNeaBhvnIP0FQ","name":"Trinity Place","cuisine":"American","address":"115 Broadway","coordinates":{"latitude":40.708865,"longitude":-74.01117},"review_count":289,"rating":4,"zip_code":"10006"},{"id":"vU1_-GPs21FfCTWr80y0uw","name":"Mercury Bar","cuisine":"American","address":"659 9th Ave","coordinates":{"latitude":40.7608736,"longitude":-73.9911787},"review_count":345,"rating":3.5,"zip_code":"10036"},{"id":"WAt6K4BdvVA7X-YisqIXbw","name":"The Wayfarer","cuisine":"American","address":"101 W 57th St","coordinates":{"latitude":40.7646683,"longitude":-73.9774493},"review_count":297,"rating":3.5,"zip_code":"10019"},{"id":"FST41XVNfiBgJHkutII-3w","name":"American Retro","cuisine":"American","address":"714 11th Ave","coordinates":{"latitude":40.76618,"longitude":-73.99409},"review_count":187,"rating":4,"zip_code":"10019"},{"id":"ZgyvDF_hOWas3SXe0Hj7hA","name":"Schilling","cuisine":"American","address":"109 Washington St","coordinates":{"latitude":40.70857,"longitude":-74.014},"review_count":105,"rating":4.5,"zip_code":"10006"},{"id":"ggZczl_F-L4FvZk3jpNR3Q","name":"Five Mile Stone","cuisine":"American","address":"1640 2nd Ave","coordinates":{"latitude":40.7772804,"longitude":-73.9519665},"review_count":313,"rating":3.5,"zip_code":"10028"},{"id":"yoPMDATGXh_8NR7I0SW1gw","name":"Manhattan Proper","cuisine":"American","address":"6 Murray St","coordinates":{"latitude":40.713341940631,"longitude":-74.0080507346},"review_count":239,"rating":4,"zip_code":"10007"},{"id":"FhnwsPy1Lw_RKeA--gjUQQ","name":"Left Bank","cuisine":"American","address":"117 Perry St","coordinates":{"latitude":40.7351368757157,"longitude":-74.0068169793164},"review_count":247,"rating":4,"zip_code":"10014"},{"id":"k66YEH3vXH_sNOQ7-vT1UQ","name":"Swing 46","cuisine":"American","address":"349 W 46th St","coordinates":{"latitude":40.76067,"longitude":-73.98974},"review_count":227,"rating":3.5,"zip_code":"10036"},{"id":"9o4y3IqpFDaj8FddJ6oi2A","name":"Clement","cuisine":"American","address":"700 5th Ave","coordinates":{"latitude":40.7616602403771,"longitude":-73.9752098617798},"review_count":111,"rating":4,"zip_code":"10019"},{"id":"Vc7JEi0Hj6XYfSMFEUMKGg","name":"Caviar Russe","cuisine":"American","address":"538 Madison Ave","coordinates":{"latitude":40.76075,"longitude":-73.97379},"review_count":109,"rating":4,"zip_code":"10022"},{"id":"xTWpl9DgIkkr5B8h8_xUpA","name":"Lokal 83 Mediterranean Kitchen","cuisine":"American","address":"473 Columbus Ave","coordinates":{"latitude":40.7842696,"longitude":-73.9734941},"review_count":140,"rating":4.5,"zip_code":"10024"},{"id":"VBKCeFh76btxKlL827HTqA","name":"The Liberty","cuisine":"American","address":"29 W 35th St","coordinates":{"latitude":40.74984,"longitude":-73.98556},"review_count":316,"rating":3.5,"zip_code":"10001"},{"id":"ckb_w10XmSsW3riotGqXQA","name":"Lumpia Shack Snackbar","cuisine":"American","address":"50 Greenwich Ave","coordinates":{"latitude":40.73571,"longitude":-74.00044},"review_count":174,"rating":4,"zip_code":"10011"},{"id":"npsH4UuhvnfE8wzXJdgUPA","name":"Trestle On Tenth","cuisine":"American","address":"242 10th Ave","coordinates":{"latitude":40.74833,"longitude":-74.00334},"review_count":307,"rating":3.5,"zip_code":"10001"},{"id":"GXoH3tTacVcIkSNSlsllQw","name":"Dig Inn","cuisine":"American","address":"17 E 17th St","coordinates":{"latitude":40.7375438,"longitude":-73.9911181},"review_count":309,"rating":3.5,"zip_code":"10003"},{"id":"2Ugmqz5WYg_kACr8pKPrYA","name":"Günter Seeger NY","cuisine":"American","address":"641 Hudson","coordinates":{"latitude":40.73903,"longitude":-74.00581},"review_count":77,"rating":4.5,"zip_code":"10014"},{"id":"GoHiAkblJb7mqFEiD8T62g","name":"Dig Inn","cuisine":"American","address":"2884 Broadway","coordinates":{"latitude":40.8055649,"longitude":-73.9653549},"review_count":241,"rating":4,"zip_code":"10025"},{"id":"1Gtr-hWHBFf1Sdw0j_kvcQ","name":"Mile End Delicatessen Manhattan","cuisine":"American","address":"53 Bond St","coordinates":{"latitude":40.72571,"longitude":-73.99272},"review_count":305,"rating":3.5,"zip_code":"10012"},{"id":"LJaLQby_H8E9eHvcIW0xnw","name":"Spoon Table & Bar","cuisine":"American","address":"40 East 33rd St","coordinates":{"latitude":40.7469069957733,"longitude":-73.9831063896418},"review_count":215,"rating":4,"zip_code":"10016"},{"id":"SiNW4jtpGsVNdu_9aSdqHg","name":"The Brazen Fox Kitchen & Craft Beer","cuisine":"American","address":"106 3rd Ave","coordinates":{"latitude":40.732769350531,"longitude":-73.9879221018525},"review_count":314,"rating":3.5,"zip_code":"10003"},{"id":"hUYAAlGz2VsOKa0zXQr2dA","name":"Hyacinth's Haven","cuisine":"American","address":"2374 Adam Clayton Powell Jr Blvd","coordinates":{"latitude":40.8177749639411,"longitude":-73.9420940726995},"review_count":114,"rating":4,"zip_code":"10030"},{"id":"sHzkRr-86LIzIWy5vTZfzA","name":"Souths Bar & Restaurant","cuisine":"American","address":"273 Church St","coordinates":{"latitude":40.7184229,"longitude":-74.0048596},"review_count":192,"rating":4,"zip_code":"10013"},{"id":"yNC4kI9Md0Csd6zqr3oeFw","name":"The Mark Restaurant","cuisine":"American","address":"25 E 77th St","coordinates":{"latitude":40.7752785362952,"longitude":-73.9633958441275},"review_count":209,"rating":3.5,"zip_code":"10075"},{"id":"3V20VbC45XL4TBYTL9DrOg","name":"David's Cafe","cuisine":"American","address":"110 St Marks Pl","coordinates":{"latitude":40.7269310030458,"longitude":-73.9843428879976},"review_count":144,"rating":4,"zip_code":"10009"},{"id":"DZ7oBcBdfe_1KxRxvFbsPQ","name":"Glass House Tavern","cuisine":"American","address":"252 W 47th St","coordinates":{"latitude":40.759833,"longitude":-73.986698},"review_count":272,"rating":3.5,"zip_code":"10036"},{"id":"WoAvunLY0_L0ix8Vgit8gQ","name":"The Tuck Room","cuisine":"American","address":"11 Fulton St","coordinates":{"latitude":40.70654,"longitude":-74.00325},"review_count":152,"rating":4,"zip_code":"10038"},{"id":"GLcrOZhVkSKevVIn-KeD1g","name":"Rainbow Room","cuisine":"American","address":"30 Rockefeller Plz","coordinates":{"latitude":40.7589632,"longitude":-73.9793374},"review_count":217,"rating":3.5,"zip_code":"10112"},{"id":"k7DdoOr_vkFhaGtSOmHwFg","name":"The Palm Court","cuisine":"American","address":"768 5th Ave","coordinates":{"latitude":40.7642275766904,"longitude":-73.9742152251312},"review_count":297,"rating":3.5,"zip_code":"10019"},{"id":"ayOj0JXAsuGqVG8reuqpxQ","name":"DiWine","cuisine":"American","address":"41-15 31st Ave","coordinates":{"latitude":40.76087,"longitude":-73.91557},"review_count":707,"rating":4,"zip_code":"11103"},{"id":"wKxir9c-sdzfWsMYxrRAJA","name":"Legends New York City","cuisine":"American","address":"6 W 33rd St","coordinates":{"latitude":40.7479973137379,"longitude":-73.9857148379087},"review_count":325,"rating":3.5,"zip_code":"10001"},{"id":"uTS2GevPXqsFKMgdpp5Txw","name":"Friedman's","cuisine":"American","address":"1187 Amsterdam Ave","coordinates":{"latitude":40.8084415644407,"longitude":-73.9598026871681},"review_count":252,"rating":3.5,"zip_code":"10027"},{"id":"OKO2WCseGqEBwj_obKETHA","name":"Slate","cuisine":"American","address":"54 W 21st St","coordinates":{"latitude":40.7412174911201,"longitude":-73.9933061599731},"review_count":724,"rating":3,"zip_code":"10010"},{"id":"D3UNlDZDjdJtWR3j_b4JXw","name":"Brooklyn Diner Times Square","cuisine":"American","address":"155 W 43rd St","coordinates":{"latitude":40.7563785463572,"longitude":-73.9855632930994},"review_count":466,"rating":3,"zip_code":"10036"},{"id":"jvx3UEV66_Q2x5GnNHGmBQ","name":"Dig Inn","cuisine":"American","address":"856 8th Ave","coordinates":{"latitude":40.7631299,"longitude":-73.98527},"review_count":102,"rating":4.5,"zip_code":"10019"},{"id":"hR7_M9S7nSfv_z0R1BWOCw","name":"Delmonico NYC","cuisine":"American","address":"375 Lexington Ave","coordinates":{"latitude":40.7510732,"longitude":-73.9760569},"review_count":179,"rating":4,"zip_code":"10017"},{"id":"92m23CB9r9XrPFK7_7-SmQ","name":"Flip'n Toss","cuisine":"American","address":"82 Christopher St","coordinates":{"latitude":40.73334,"longitude":-74.00362},"review_count":71,"rating":4.5,"zip_code":"10014"},{"id":"dt9KnWf5l3-1YAzVSE5dUQ","name":"California Pizza Kitchen at Park Ave. South","cuisine":"American","address":"440 Park Ave S","coordinates":{"latitude":40.744542,"longitude":-73.983458},"review_count":283,"rating":3.5,"zip_code":"10016"},{"id":"bP7FrQ6n8PCx7h6fVgGJHA","name":"The National Bar and Dining Rooms","cuisine":"American","address":"557 Lexington Ave","coordinates":{"latitude":40.75664,"longitude":-73.97209},"review_count":577,"rating":3,"zip_code":"10022"},{"id":"8Y5Ytn30Wup9sNf2n99s1A","name":"NOMO Kitchen","cuisine":"American","address":"9 Crosby St","coordinates":{"latitude":40.7198301,"longitude":-74.0000708},"review_count":305,"rating":3.5,"zip_code":"10013"},{"id":"RKfsthB00W-NGoM_abs-Lg","name":"Bell Book & Candle","cuisine":"American","address":"141 W 10th St","coordinates":{"latitude":40.73465,"longitude":-74.00086},"review_count":210,"rating":3.5,"zip_code":"10014"},{"id":"4XX-zF8h5Lvrr22_tqU6-Q","name":"The River Café","cuisine":"American","address":"1 Water St","coordinates":{"latitude":40.70318,"longitude":-73.9946499},"review_count":889,"rating":4,"zip_code":"11201"},{"id":"GftgnTjnt_68eykwwmRLHg","name":"Point Break","cuisine":"American","address":"12 W 45th St","coordinates":{"latitude":40.755575,"longitude":-73.980479},"review_count":205,"rating":3.5,"zip_code":"10036"},{"id":"hxGhxBnerDaaRhrgoIi5rg","name":"Don't Tell Mama","cuisine":"American","address":"343 W 46th St","coordinates":{"latitude":40.76058,"longitude":-73.98952},"review_count":312,"rating":3.5,"zip_code":"10036"},{"id":"TDyu1-6XF7r1jc13j7nDNA","name":"TØRST","cuisine":"American","address":"615 Manhattan Ave","coordinates":{"latitude":40.7233949,"longitude":-73.950856},"review_count":345,"rating":4.5,"zip_code":"11222"},{"id":"VAkdznBlCPQ7KFvm-Kma0g","name":"Toast","cuisine":"American","address":"3157 Broadway","coordinates":{"latitude":40.81486,"longitude":-73.9594},"review_count":264,"rating":3.5,"zip_code":"10027"},{"id":"7qtIemPU3LlNix8CVWdhwA","name":"Clancey","cuisine":"American","address":"79 Clinton St","coordinates":{"latitude":40.7190299,"longitude":-73.98521},"review_count":95,"rating":4.5,"zip_code":"10002"},{"id":"-DevGRBabmLEXgremnzemQ","name":"Kingston Hall","cuisine":"American","address":"149 2nd Ave","coordinates":{"latitude":40.7295339729817,"longitude":-73.9873425313964},"review_count":210,"rating":3.5,"zip_code":"10003"},{"id":"bk_V-OzTqPMB1jMjiF_fXA","name":"Rouge Tomate Chelsea","cuisine":"American","address":"126 W 18th St","coordinates":{"latitude":40.7401657104492,"longitude":-73.9962997436523},"review_count":97,"rating":4,"zip_code":"10011"},{"id":"YRfDdBgWS4T80oJfKmVThA","name":"Chocolat Restaurant Lounge","cuisine":"American","address":"2223 Frederick Douglass Blvd","coordinates":{"latitude":40.8069256,"longitude":-73.9539472},"review_count":775,"rating":3,"zip_code":"10026"},{"id":"0v0uYzYlIbxD0lGTiXhG-g","name":"Morrell Wine Bar & Cafe","cuisine":"American","address":"1 Rockefeller Plz 49th St","coordinates":{"latitude":40.75809,"longitude":-73.97901},"review_count":205,"rating":3.5,"zip_code":"10020"},{"id":"hiTfA7vnxDSLv77nl6UQXQ","name":"St. Anselm","cuisine":"American","address":"355 Metropolitan Ave","coordinates":{"latitude":40.7143299,"longitude":-73.95604},"review_count":713,"rating":4,"zip_code":"11211"},{"id":"kvIrv1akLm08kxd44ciicA","name":"Blenheim","cuisine":"American","address":"283 W 12th St","coordinates":{"latitude":40.737716,"longitude":-74.004005},"review_count":176,"rating":4,"zip_code":"10014"},{"id":"NzcI2h7qA-_edSaw0Jta4A","name":"Japas 38","cuisine":"American","address":"9 E 38th St","coordinates":{"latitude":40.7508277893066,"longitude":-73.9815673828125},"review_count":250,"rating":3.5,"zip_code":"10016"},{"id":"dy3JvLV06a4CyuMjoGkF1g","name":"Il Bastardo","cuisine":"American","address":"544 W 27th St","coordinates":{"latitude":40.750797,"longitude":-74.0043558},"review_count":727,"rating":3,"zip_code":"10001"},{"id":"y5eCwBwwYGIAqQrinwfiBg","name":"Tonic East","cuisine":"American","address":"411 3rd Ave","coordinates":{"latitude":40.742366,"longitude":-73.980186},"review_count":689,"rating":3,"zip_code":"10016"},{"id":"vh0ZN59b_OaA4R6Yxft3Dg","name":"Acme","cuisine":"American","address":"9 Great Jones St","coordinates":{"latitude":40.727232,"longitude":-73.994069},"review_count":365,"rating":3.5,"zip_code":"10012"},{"id":"Xcnq-GIw48tMPlUIavpGmA","name":"The East Pole","cuisine":"American","address":"133 E 65th St","coordinates":{"latitude":40.7662355,"longitude":-73.9658007},"review_count":204,"rating":3.5,"zip_code":"10065"},{"id":"Zoq9Q1bciS8vtEGLyTsuuA","name":"Social Bar, Grill & Lounge","cuisine":"American","address":"795 8th Ave","coordinates":{"latitude":40.76127,"longitude":-73.98708},"review_count":280,"rating":3.5,"zip_code":"10019"},{"id":"XAeGAF5MGr7P6A13SnXbjQ","name":"Merchants River House","cuisine":"American","address":"375 S End Ave","coordinates":{"latitude":40.7112882252543,"longitude":-74.0176175854584},"review_count":299,"rating":3.5,"zip_code":"10280"},{"id":"obCkTDKbKPwMoisXvG3-6Q","name":"St. Dymphna's","cuisine":"American","address":"118 St Marks Pl","coordinates":{"latitude":40.726852,"longitude":-73.984115},"review_count":183,"rating":4,"zip_code":"10009"},{"id":"AawLwOYZwMf_9wkShExfuw","name":"Sanfords","cuisine":"American","address":"30-13 Broadway","coordinates":{"latitude":40.762339,"longitude":-73.925568},"review_count":553,"rating":4,"zip_code":"11106"},{"id":"np98mkA22LYf6kCwCL59pw","name":"Rabbithole Restaurant","cuisine":"American","address":"352 Bedford Ave","coordinates":{"latitude":40.7122932799856,"longitude":-73.9628687873483},"review_count":676,"rating":4,"zip_code":"11211"},{"id":"6ZIfKJpnZ465jN-diiwrzA","name":"Feile","cuisine":"American","address":"131 W 33rd St","coordinates":{"latitude":40.74987,"longitude":-73.98975},"review_count":223,"rating":3.5,"zip_code":"10001"},{"id":"AuP8EFpM6itg2jfPFmnuJQ","name":"Dig Inn","cuisine":"American","address":"350 Hudson St","coordinates":{"latitude":40.7276592,"longitude":-74.0071263},"review_count":195,"rating":4,"zip_code":"10014"},{"id":"iu8nqOMFdUPg201QMkrGJw","name":"American Whiskey","cuisine":"American","address":"247 W 30th St","coordinates":{"latitude":40.749403,"longitude":-73.994049},"review_count":291,"rating":3.5,"zip_code":"10001"},{"id":"J5y7oRfiGtxFDkYGKxFZkw","name":"Anella","cuisine":"American","address":"222 Franklin St","coordinates":{"latitude":40.73327,"longitude":-73.95786},"review_count":364,"rating":4,"zip_code":"11222"},{"id":"R8V3qK43gbtjgjtIy5zhBw","name":"EDEN Local","cuisine":"American","address":"508 W 42nd St","coordinates":{"latitude":40.75964,"longitude":-73.99608},"review_count":85,"rating":4,"zip_code":"10036"},{"id":"Jy0nQ1uI8KPvTv8nBZGdMg","name":"Wildair","cuisine":"American","address":"142 Orchard St","coordinates":{"latitude":40.7197229753629,"longitude":-73.98919771717},"review_count":133,"rating":4,"zip_code":"10002"},{"id":"5xI0Z0nqbaR-0FnPzg6VZg","name":"Crescent Grill","cuisine":"American","address":"38-40 Crescent St","coordinates":{"latitude":40.7549308,"longitude":-73.9367746},"review_count":249,"rating":4.5,"zip_code":"11101"},{"id":"PYw4gLZfLcmnmtxmepW9Gw","name":"Amanda's Restaurant","cuisine":"American","address":"908 Washington St","coordinates":{"latitude":40.74763,"longitude":-74.02812},"review_count":491,"rating":4,"zip_code":"07030"},{"id":"5OfCQDtwqKiYAcsi-NABjQ","name":"Chumley's","cuisine":"American","address":"86 Bedford St","coordinates":{"latitude":40.73209,"longitude":-74.00505},"review_count":152,"rating":3.5,"zip_code":"10014"},{"id":"7YsZno_m9TQqKd-DHpttuw","name":"Camaje","cuisine":"American","address":"85 MacDougal St","coordinates":{"latitude":40.7289635,"longitude":-74.0015413},"review_count":218,"rating":3.5,"zip_code":"10012"},{"id":"hkeMbvsLVrVgdpU_XRDvRA","name":"STATE Grill and Bar","cuisine":"American","address":"Empire State Building","coordinates":{"latitude":40.7482015401149,"longitude":-73.9853947175581},"review_count":102,"rating":4,"zip_code":"10118"},{"id":"W4mnJcaf42jqkSOHVjnWVw","name":"Fields Good Chicken","cuisine":"American","address":"101 Maiden Ln","coordinates":{"latitude":40.7071262114544,"longitude":-74.0071845799685},"review_count":164,"rating":3.5,"zip_code":"10038"},{"id":"sMUYF6hEsuptyXiwNLaK-Q","name":"Charlie Palmer Steak","cuisine":"American","address":"47 West 38th St","coordinates":{"latitude":40.75194,"longitude":-73.98481},"review_count":157,"rating":4,"zip_code":"10018"},{"id":"KZq5VsNf2yAaUTMIBGDa9Q","name":"The Library at The Public","cuisine":"American","address":"425 Lafayette St","coordinates":{"latitude":40.72921,"longitude":-73.99177},"review_count":145,"rating":3.5,"zip_code":"10003"},{"id":"JmxmSAmGOWLgbImq8MtNLA","name":"Todd English Food Hall","cuisine":"American","address":"1 W 59th St","coordinates":{"latitude":40.7645700126886,"longitude":-73.9738467335701},"review_count":279,"rating":3.5,"zip_code":"10019"},{"id":"-Uc6m_rQqYSgRr8FBd63Yw","name":"Dishes","cuisine":"American","address":"6 E 45th St","coordinates":{"latitude":40.755043,"longitude":-73.978933},"review_count":275,"rating":3.5,"zip_code":"10017"},{"id":"hgwnIf9c9_IvY40YhdqQfw","name":"The Ainsworth","cuisine":"American","address":"122 W 26th St","coordinates":{"latitude":40.745306,"longitude":-73.992583},"review_count":517,"rating":3,"zip_code":"10001"},{"id":"ZeachlM-rimku3BD33oH3w","name":"Jimmy","cuisine":"American","address":"15 Thompson St","coordinates":{"latitude":40.72244,"longitude":-74.00482},"review_count":268,"rating":3.5,"zip_code":"10013"},{"id":"T0_H1TzV3RcCtADVmlo29A","name":"Good Seed","cuisine":"American","address":"213 W 35th St","coordinates":{"latitude":40.75204,"longitude":-73.99076},"review_count":106,"rating":4,"zip_code":"10001"},{"id":"zYYx6zMrdWKJj623Y2ZZXw","name":"Tapanju","cuisine":"American","address":"235 E 4th St","coordinates":{"latitude":40.72346,"longitude":-73.9827},"review_count":60,"rating":4.5,"zip_code":"10009"},{"id":"HnFHxQUSviXVa1FUGR-Hjw","name":"Adella","cuisine":"American","address":"410 W 43rd St","coordinates":{"latitude":40.7594098,"longitude":-73.9929134},"review_count":132,"rating":4,"zip_code":"10036"},{"id":"5K-AyByoRLKW5XMxOSkNTA","name":"Court Street Grocers LaGuardia Place","cuisine":"American","address":"540 Laguardia Pl","coordinates":{"latitude":40.72889,"longitude":-73.99861},"review_count":80,"rating":4,"zip_code":"10012"},{"id":"ywAq9nvr9jX1S7-_HjA5ng","name":"Ferris","cuisine":"American","address":"44 W 29th St","coordinates":{"latitude":40.74631,"longitude":-73.98948},"review_count":64,"rating":4,"zip_code":"10001"},{"id":"oLg2HxLYChgvMRTK5ZSdKQ","name":"Kurant","cuisine":"American","address":"1091 2nd Ave","coordinates":{"latitude":40.759748,"longitude":-73.965299},"review_count":151,"rating":4,"zip_code":"10022"},{"id":"P7yE1T1TDFIiYgLdEYR3Gw","name":"Bill's Townhouse","cuisine":"American","address":"57 E 54th St","coordinates":{"latitude":40.7602615356445,"longitude":-73.9729461669922},"review_count":71,"rating":4.5,"zip_code":"10022"},{"id":"DfXh4GIeGyYGz2o3NmhorQ","name":"Irvington","cuisine":"American","address":"201 Park Ave S","coordinates":{"latitude":40.7366011,"longitude":-73.9885554},"review_count":159,"rating":3.5,"zip_code":"10003"},{"id":"fanlKZzN-fI9LywqQD6EHg","name":"Broadstone Bar & Kitchen","cuisine":"American","address":"88 Broad St","coordinates":{"latitude":40.70411,"longitude":-74.01186},"review_count":125,"rating":4,"zip_code":"10004"},{"id":"dvRKiQbscruyTLaAL7q3PA","name":"Row House","cuisine":"American","address":"2128 Frederick Douglass Blvd","coordinates":{"latitude":40.803531,"longitude":-73.95565},"review_count":245,"rating":3.5,"zip_code":"10026"},{"id":"izPtlTgNT9WnibeRrXmvsQ","name":"Hill and Bay","cuisine":"American","address":"581 2nd Ave","coordinates":{"latitude":40.743507,"longitude":-73.977165},"review_count":263,"rating":3.5,"zip_code":"10016"},{"id":"KfHwEsirvgNwqqSSIZ4Kdg","name":"Somm Time","cuisine":"American","address":"959 2nd Ave","coordinates":{"latitude":40.75544,"longitude":-73.96836},"review_count":55,"rating":4.5,"zip_code":"10022"},{"id":"YgVUJg4-aUsSu9dLhfF-3Q","name":"Pinks","cuisine":"American","address":"242 E 10th St","coordinates":{"latitude":40.7287913560867,"longitude":-73.9845903217793},"review_count":148,"rating":4,"zip_code":"10003"},{"id":"rc6gHnD6hdaf1ZV9fzGRaQ","name":"Fields Good Chicken","cuisine":"American","address":"26 E 40th St","coordinates":{"latitude":40.750939,"longitude":-73.9792067},"review_count":92,"rating":4,"zip_code":"10016"},{"id":"YDzygPhlc5fSE552u6hEWw","name":"Gourmet 53","cuisine":"American","address":"875 3rd Ave","coordinates":{"latitude":40.75722,"longitude":-73.96919},"review_count":90,"rating":4,"zip_code":"10022"},{"id":"wOYqxqz5yhx3CrP2RsCXpw","name":"Anthony David's","cuisine":"American","address":"953 Bloomfield St","coordinates":{"latitude":40.74859,"longitude":-74.02822},"review_count":530,"rating":4,"zip_code":"07030"},{"id":"mZkjzTyiu1CzKn-jNBtMcg","name":"M1-5 Lounge","cuisine":"American","address":"52 Walker St","coordinates":{"latitude":40.7190545,"longitude":-74.0034335},"review_count":386,"rating":3,"zip_code":"10013"},{"id":"6gzQLjzJk25ePm_JS7ZAug","name":"Esme","cuisine":"American","address":"999 Manhattan Ave","coordinates":{"latitude":40.7332033928175,"longitude":-73.9549667724914},"review_count":236,"rating":4.5,"zip_code":"11222"},{"id":"TaAICUBApAfQG0ATDyspJQ","name":"9ten Restaurant","cuisine":"American","address":"910 7th Ave","coordinates":{"latitude":40.7661399841309,"longitude":-73.97998046875},"review_count":134,"rating":4,"zip_code":"10019"},{"id":"2SFCL3jXHv6goWfOr-7GvQ","name":"Kingside","cuisine":"American","address":"124 W 57th St","coordinates":{"latitude":40.7646684590322,"longitude":-73.9784303651087},"review_count":199,"rating":3.5,"zip_code":"10019"},{"id":"UNX40pcYuNtbAUFE84dgFw","name":"Jams","cuisine":"American","address":"1414 Ave Of The Americas","coordinates":{"latitude":40.7647623112681,"longitude":-73.9766215865164},"review_count":198,"rating":3.5,"zip_code":"10019"},{"id":"FEDV_4qWbTBauNAgezUJXg","name":"Niles NYC","cuisine":"American","address":"371 7th Ave","coordinates":{"latitude":40.74885,"longitude":-73.99197},"review_count":174,"rating":3.5,"zip_code":"10001"},{"id":"QHurDPvtdeq3_KGTbBd-6A","name":"Pyramid Club","cuisine":"American","address":"101 Ave A","coordinates":{"latitude":40.72579,"longitude":-73.98391},"review_count":190,"rating":3.5,"zip_code":"10009"},{"id":"nsAU6F2vmdnphmfIa_RuWg","name":"Mable's Smokehouse","cuisine":"American","address":"44 Berry St","coordinates":{"latitude":40.7211747906766,"longitude":-73.9569354057312},"review_count":677,"rating":4,"zip_code":"11211"},{"id":"L76e8Iz0orAWab0Nyampyg","name":"Sutton Inn","cuisine":"American","address":"347 E 54th St","coordinates":{"latitude":40.7567013544777,"longitude":-73.9648072030919},"review_count":98,"rating":4,"zip_code":"10022"},{"id":"o2QR6wrQgTsWAMrd1sTjOA","name":"Dig Inn","cuisine":"American","address":"80 Broad St","coordinates":{"latitude":40.7042826,"longitude":-74.011963},"review_count":180,"rating":4,"zip_code":"10004"},{"id":"qYuWyqWH5zfKJfJ6obuh4g","name":"Eastfield's Kitchen & Bar","cuisine":"American","address":"1479 York Ave","coordinates":{"latitude":40.7709264508638,"longitude":-73.950938590508},"review_count":132,"rating":4,"zip_code":"10075"},{"id":"Ac1irK7K_PAQ06mE8CchLw","name":"Lucky Strike","cuisine":"American","address":"624-660 W 42nd St","coordinates":{"latitude":40.761821,"longitude":-74.000843},"review_count":373,"rating":3,"zip_code":"10036"},{"id":"_rzVYnChUVRaQb7VyuI7IQ","name":"Dig Inn","cuisine":"American","address":"80 Pine St","coordinates":{"latitude":40.70592,"longitude":-74.0071},"review_count":242,"rating":3.5,"zip_code":"10005"},{"id":"l2u-IHL-rNz0uvn6-UC-Rw","name":"Diner","cuisine":"American","address":"85 Broadway","coordinates":{"latitude":40.71069,"longitude":-73.96559},"review_count":694,"rating":4,"zip_code":"11211"},{"id":"UTnMSx3rTvFBjt3WLRpBmA","name":"Fuku+","cuisine":"American","address":"15 West 56th St","coordinates":{"latitude":40.76281,"longitude":-73.97543},"review_count":167,"rating":3.5,"zip_code":"10019"},{"id":"t_IXO90SSJz4pt5GLD2lTA","name":"Playwright Celtic Pub","cuisine":"American","address":"732 8th Ave","coordinates":{"latitude":40.75933,"longitude":-73.98793},"review_count":295,"rating":3,"zip_code":"10036"},{"id":"Ad3JpyadCNBDKZiKD57Tbw","name":"The Brooklyneer","cuisine":"American","address":"220 W Houston St","coordinates":{"latitude":40.7286219,"longitude":-74.0045657},"review_count":197,"rating":3.5,"zip_code":"10014"},{"id":"Fyrw-Vcs9krhRx7pGrPdtQ","name":"Cornerstone Tavern","cuisine":"American","address":"961 2nd Ave","coordinates":{"latitude":40.755612,"longitude":-73.968301},"review_count":210,"rating":3.5,"zip_code":"10022"},{"id":"AIMUnEERR6BbX2eBGHnocg","name":"Upholstery Store: Food and Wine","cuisine":"American","address":"713 Washington St","coordinates":{"latitude":40.735261,"longitude":-74.008196},"review_count":100,"rating":4,"zip_code":"10014"},{"id":"lkDtUR6P0Y2gYkylHc6SoQ","name":"Wild","cuisine":"American","address":"535 Hudson St","coordinates":{"latitude":40.73474,"longitude":-74.00632},"review_count":301,"rating":3.5,"zip_code":"10014"},{"id":"tIqk0ZWGoItm4oR-l4o4aw","name":"Dalton's Bar & Grill","cuisine":"American","address":"611 9th Ave","coordinates":{"latitude":40.759459,"longitude":-73.992285},"review_count":208,"rating":3.5,"zip_code":"10036"},{"id":"qcMpRNrnS6gggYv28dgm_A","name":"Belle Reve","cuisine":"American","address":"305 Church St","coordinates":{"latitude":40.71951,"longitude":-74.00413},"review_count":113,"rating":4,"zip_code":"10013"},{"id":"BhrSGlUf4oyIzI16oil0cQ","name":"NIOS","cuisine":"American","address":"130 W 46th St","coordinates":{"latitude":40.75792,"longitude":-73.98375},"review_count":118,"rating":3.5,"zip_code":"10036"},{"id":"RDpWchPc4-urvp2XJDsDKw","name":"Flight 151","cuisine":"American","address":"151 8th Ave","coordinates":{"latitude":40.742118,"longitude":-74.00119},"review_count":219,"rating":3.5,"zip_code":"10011"},{"id":"3Aq9BydG15vq0b73cgmMYw","name":"Blind Pig","cuisine":"American","address":"233 E 14th St","coordinates":{"latitude":40.7329483032227,"longitude":-73.9856262207031},"review_count":313,"rating":3,"zip_code":"10003"},{"id":"y64lCrHGTsrRuDmhoUA0nw","name":"Niall's","cuisine":"American","address":"218 E 52nd St","coordinates":{"latitude":40.75653,"longitude":-73.96909},"review_count":113,"rating":4,"zip_code":"10022"},{"id":"eSyYRxNDQoOundKSUqRosw","name":"The Daisy","cuisine":"American","address":"1641 Second Ave","coordinates":{"latitude":40.77741,"longitude":-73.952434},"review_count":178,"rating":3.5,"zip_code":"10028"},{"id":"GRhA1hH1edG48tj2T5I6CA","name":"Crimson & Rye","cuisine":"American","address":"198 E 54th St","coordinates":{"latitude":40.7580738959145,"longitude":-73.9687237968059},"review_count":100,"rating":4,"zip_code":"10022"},{"id":"FscXu9Lut9UA8ItjPY8WIA","name":"Mulberry & Vine","cuisine":"American","address":"55 W 27th St","coordinates":{"latitude":40.74527,"longitude":-73.99035},"review_count":90,"rating":4,"zip_code":"10001"},{"id":"UJSugMSGxB4vzBaCvmLthA","name":"Treehaus Mima","cuisine":"American","address":"470 W 42nd St","coordinates":{"latitude":40.7591906203981,"longitude":-73.9949657125923},"review_count":108,"rating":4,"zip_code":"10036"},{"id":"YSflX6shqcP3zYno0Zz75Q","name":"While We Were Young","cuisine":"American","address":"183 W 10th St","coordinates":{"latitude":40.73437,"longitude":-74.00272},"review_count":153,"rating":3.5,"zip_code":"10014"},{"id":"LZC5OOn_NmtBSC4eX8yFiw","name":"The Ellington","cuisine":"American","address":"936 Amsterdam Ave","coordinates":{"latitude":40.800714,"longitude":-73.965906},"review_count":209,"rating":3.5,"zip_code":"10025"},{"id":"i5uemjsAS1yJFCnvicPtBg","name":"Pushcart Coffee","cuisine":"American","address":"362 2nd Ave","coordinates":{"latitude":40.73674,"longitude":-73.98152},"review_count":145,"rating":3.5,"zip_code":"10010"},{"id":"hgQxxv1WlmI7lMjLjp-2zA","name":"Bus Stop Cafe","cuisine":"American","address":"597 Hudson St","coordinates":{"latitude":40.73702,"longitude":-74.00595},"review_count":161,"rating":3.5,"zip_code":"10014"},{"id":"zv29TbzPs9-rD5ql0qWw5A","name":"The Shadmoor","cuisine":"American","address":"1066 2nd Ave","coordinates":{"latitude":40.75862,"longitude":-73.96545},"review_count":114,"rating":4.5,"zip_code":"10022"},{"id":"59c0qGZzduYOGopDx4KXuQ","name":"Till & Sprocket","cuisine":"American","address":"140 W 30th St","coordinates":{"latitude":40.7478754059662,"longitude":-73.9916682628767},"review_count":116,"rating":4,"zip_code":"10001"},{"id":"bM3lf5x02VdRgNIwVC7gNw","name":"Bedford & Co","cuisine":"American","address":"118 E 40th St","coordinates":{"latitude":40.75016,"longitude":-73.9776},"review_count":121,"rating":4,"zip_code":"10016"},{"id":"yo5eVHQeB3T95Vo04X62VA","name":"American Cut Steakhouse Midtown","cuisine":"American","address":"109 E 56th St","coordinates":{"latitude":40.76081,"longitude":-73.97034},"review_count":158,"rating":3.5,"zip_code":"10022"},{"id":"I5jwaOTQCmT44UEaCX0iEg","name":"De Maria","cuisine":"American","address":"19 Kenmare St","coordinates":{"latitude":40.72066,"longitude":-73.99468},"review_count":132,"rating":4,"zip_code":"10012"},{"id":"6ZdvsoqcyKCeTG8ytYtYCQ","name":"The Strand Bistro","cuisine":"American","address":"33 W 37th St","coordinates":{"latitude":40.75128,"longitude":-73.98482},"review_count":122,"rating":4,"zip_code":"10018"},{"id":"OZtXG5DUsJZrtMFWodCNnA","name":"Harlem Food Bar","cuisine":"American","address":"2100 Frederick Douglass Blvd","coordinates":{"latitude":40.8028100298629,"longitude":-73.9563177244257},"review_count":191,"rating":3.5,"zip_code":"10026"},{"id":"FhK_owSqLZLLqtFLzjK-fQ","name":"TBar","cuisine":"American","address":"1278 3rd Ave","coordinates":{"latitude":40.7706801,"longitude":-73.9601213},"review_count":143,"rating":4,"zip_code":"10021"},{"id":"8UwRTdW4OtSEI2rJ_p1zGg","name":"Dimes","cuisine":"American","address":"49 Canal St","coordinates":{"latitude":40.71497,"longitude":-73.99154},"review_count":207,"rating":3.5,"zip_code":"10002"},{"id":"ME0627wYk0ikhX2yf1fN7w","name":"HAVEN Riverfront Restaurant and Bar","cuisine":"American","address":"2 Main St","coordinates":{"latitude":40.803426,"longitude":-73.9907},"review_count":552,"rating":4,"zip_code":"07020"},{"id":"tFQRwk9SVOFgpMBZ55UrLw","name":"Umami Burger - Brookfield Place","cuisine":"American","address":"225 Liberty St","coordinates":{"latitude":40.713225,"longitude":-74.015913},"review_count":227,"rating":3.5,"zip_code":"10281"},{"id":"dRrSB-1I5z9f4szxJ1Ol8Q","name":"Libation","cuisine":"American","address":"137 Ludlow St","coordinates":{"latitude":40.72043,"longitude":-73.98844},"review_count":379,"rating":3,"zip_code":"10002"},{"id":"wJ-MPdFSPUoChucj-r6YxA","name":"Dig Inn","cuisine":"American","address":"225 Liberty St","coordinates":{"latitude":40.71156,"longitude":-74.01533},"review_count":131,"rating":3.5,"zip_code":"10281"},{"id":"WZ5B52Y_Dl3hOTI3NrhPCA","name":"Rock & Reilly's","cuisine":"American","address":"218 W 35th St","coordinates":{"latitude":40.7520015662568,"longitude":-73.9915366400285},"review_count":153,"rating":3.5,"zip_code":"10001"},{"id":"dcnE_oF5teHqwUMymZlASQ","name":"The Shop","cuisine":"American","address":"485 5th Ave","coordinates":{"latitude":40.752825,"longitude":-73.980961},"review_count":145,"rating":3.5,"zip_code":"10017"},{"id":"dwq7d6w1DD_D5jjPWQo-XA","name":"Johnny Utah's","cuisine":"American","address":"25 W 51st St","coordinates":{"latitude":40.7600021362305,"longitude":-73.978157043457},"review_count":658,"rating":2.5,"zip_code":"10019"},{"id":"6fuBkRzFEuIGexlxJx4RrA","name":"Blujeen","cuisine":"American","address":"2143 Frederick Douglass Blvd","coordinates":{"latitude":40.8041614294052,"longitude":-73.9556238055229},"review_count":198,"rating":3.5,"zip_code":"10026"},{"id":"1nQZbtmjODUgPm-QQdKrhA","name":"Milk And Roses","cuisine":"American","address":"1110 Manhattan Ave","coordinates":{"latitude":40.7364097,"longitude":-73.9550825},"review_count":306,"rating":4,"zip_code":"11222"},{"id":"3SOOqxzqWlo_yfJ_UGYdWA","name":"Foxy Greens","cuisine":"American","address":"1049 1st Ave","coordinates":{"latitude":40.7586124,"longitude":-73.9628462},"review_count":39,"rating":4.5,"zip_code":"10022"},{"id":"XO3yD87rTPz9o6Dy9qRaJg","name":"The Spaniard","cuisine":"American","address":"190 W 4th St","coordinates":{"latitude":40.7324927,"longitude":-74.0020135},"review_count":129,"rating":4,"zip_code":"10014"},{"id":"7zxV9U7_SJ1npeLCkHUzjg","name":"Yankee Doodle Dandy's","cuisine":"American","address":null,"coordinates":{"latitude":40.71424,"longitude":-74.00642},"review_count":94,"rating":4,"zip_code":"11121"},{"id":"9fydXI0fj2s-EmlF7vm8Og","name":"Clay","cuisine":"American","address":"553 Manhattan Ave","coordinates":{"latitude":40.8094002234406,"longitude":-73.9536950700793},"review_count":79,"rating":4.5,"zip_code":"10027"},{"id":"Ropty31AcksOu4-p-iOtkA","name":"Rock Center Cafe","cuisine":"American","address":"Rockefeller Ctr","coordinates":{"latitude":40.7587938364555,"longitude":-73.9782267808914},"review_count":391,"rating":3,"zip_code":"10001"},{"id":"1o5dCnbY1Y9de7ZbdsxUsQ","name":"Barbetta","cuisine":"American","address":"321 W 46th St","coordinates":{"latitude":40.76031,"longitude":-73.98889},"review_count":191,"rating":3.5,"zip_code":"10036"},{"id":"s-b1Mn_Gzkftz2MCjZ3lwg","name":"Turntable LP Bar & Karaoke","cuisine":"American","address":"34-36 W 32nd St","coordinates":{"latitude":40.7478911,"longitude":-73.9872594},"review_count":108,"rating":4,"zip_code":"10001"},{"id":"D7w3Nk3H0oDYZSIAaRgYRA","name":"Sexy Taco/Dirty Cash","cuisine":"American","address":"161 Malcolm X Blvd","coordinates":{"latitude":40.803604,"longitude":-73.949035},"review_count":242,"rating":3,"zip_code":"10026"},{"id":"Uw-NC49hhjGo-kmPArHDlw","name":"Jack Demsey's","cuisine":"American","address":"36 W 33rd St","coordinates":{"latitude":40.7483251,"longitude":-73.9869592},"review_count":187,"rating":3.5,"zip_code":"10001"},{"id":"T3k3vbXenuGQbsiCC4G7JQ","name":"MP Taverna Astoria","cuisine":"American","address":"31-29 Ditmars Blvd","coordinates":{"latitude":40.775622,"longitude":-73.90951},"review_count":706,"rating":4,"zip_code":"11105"},{"id":"N81_5xlY7dpEqrygi8lVOA","name":"Public Kitchen","cuisine":"American","address":"215 Chrystie St","coordinates":{"latitude":40.7230205730996,"longitude":-73.9919801428914},"review_count":117,"rating":3.5,"zip_code":"10002"},{"id":"aZ9N4cUBTp3nNaWAeoSbzA","name":"Dig Inn","cuisine":"American","address":"1297 Lexington Ave","coordinates":{"latitude":40.78029,"longitude":-73.95478},"review_count":95,"rating":4,"zip_code":"10128"},{"id":"1GomqJMxkBzdEliYnY6Lfw","name":"Croton Reservoir Tavern","cuisine":"American","address":"108 W 40th St","coordinates":{"latitude":40.75376,"longitude":-73.98578},"review_count":242,"rating":3,"zip_code":"10018"},{"id":"MJP2jGkQB3kPdSDt6fHWHQ","name":"Henry's","cuisine":"American","address":"2745 Broadway","coordinates":{"latitude":40.8007887729421,"longitude":-73.9682734744612},"review_count":252,"rating":3.5,"zip_code":"10025"},{"id":"_HBpi2PIG8Zxz01Pr41MIw","name":"The Shady Lady","cuisine":"American","address":"34-19 30th Ave","coordinates":{"latitude":40.765619,"longitude":-73.9181399},"review_count":615,"rating":4,"zip_code":"11103"},{"id":"Rq7B5m9nYiRRRHa8CvPDTg","name":"Edward's","cuisine":"American","address":"136 W Broadway","coordinates":{"latitude":40.716972,"longitude":-74.008369},"review_count":204,"rating":3.5,"zip_code":"10013"},{"id":"R9XDds0a1_jip3glIdlQsg","name":"The District","cuisine":"American","address":"1679 3rd Ave","coordinates":{"latitude":40.783851,"longitude":-73.949892},"review_count":289,"rating":3,"zip_code":"10128"},{"id":"IO9mQ3xkj8W3cv542rt0hg","name":"Triomphe","cuisine":"American","address":"49 W 44th St","coordinates":{"latitude":40.7557848908345,"longitude":-73.9819913142291},"review_count":127,"rating":3.5,"zip_code":"10036"},{"id":"4kzN5nhvOyHyJaeviWTpHQ","name":"Mike's Bistro","cuisine":"American","address":"127 E 54th St","coordinates":{"latitude":40.7594553,"longitude":-73.9710257},"review_count":76,"rating":4,"zip_code":"10022"},{"id":"N90gLDq4XgqYanlRqaeNKg","name":"Acapulco","cuisine":"American","address":"1116 Manhattan Ave","coordinates":{"latitude":40.736717,"longitude":-73.955004},"review_count":244,"rating":4,"zip_code":"11222"},{"id":"lcBLhtM1mx3BulbWo1uMsQ","name":"Sky Room","cuisine":"American","address":"330 W 40th St","coordinates":{"latitude":40.7565877041595,"longitude":-73.9921761534424},"review_count":617,"rating":2.5,"zip_code":"10018"},{"id":"mmJ72_R1HvpSz6a3l7jYnA","name":"Tiramisu","cuisine":"American","address":"1410 3rd Ave","coordinates":{"latitude":40.7751535105423,"longitude":-73.956925223544},"review_count":159,"rating":3.5,"zip_code":"10028"},{"id":"v0MZ0nONPh1b-9IC4M0weg","name":"The Vine - Eventi Hotel","cuisine":"American","address":"851 Avenue Of The Americas","coordinates":{"latitude":40.7470966060545,"longitude":-73.9898588913998},"review_count":97,"rating":3.5,"zip_code":"10001"},{"id":"rtD77CWSUh5FVp9kXn_0UQ","name":"Henry at Life Hotel","cuisine":"American","address":"19 W 31st St","coordinates":{"latitude":40.74722,"longitude":-73.98699},"review_count":43,"rating":4.5,"zip_code":"10001"},{"id":"Lw3JXLqb-OqwpxoXEi7DJw","name":"WABar Kitchen","cuisine":"American","address":"28 W 32nd St","coordinates":{"latitude":40.7475813,"longitude":-73.9870976},"review_count":149,"rating":3.5,"zip_code":"10001"},{"id":"l_hBcWIFx_ausYBxLkSglQ","name":"Oliver's Astoria","cuisine":"American","address":"3719 Broadway","coordinates":{"latitude":40.7595239,"longitude":-73.9198044},"review_count":400,"rating":4,"zip_code":"11103"},{"id":"G18cPTEjuxXx957dGYBDAQ","name":"Marlow & Sons","cuisine":"American","address":"81 Broadway","coordinates":{"latitude":40.7106126934043,"longitude":-73.9658814005443},"review_count":492,"rating":4,"zip_code":"11249"},{"id":"bRumgI6cB9ok8zfTkfYkPA","name":"Pizza Beach","cuisine":"American","address":"1426 3rd Ave","coordinates":{"latitude":40.7754848,"longitude":-73.9566053},"review_count":221,"rating":3,"zip_code":"10028"},{"id":"MX0Ohq0P73NfMLdkSM7nog","name":"Tender Greens","cuisine":"American","address":"900 Broadway","coordinates":{"latitude":40.73889,"longitude":-73.9897},"review_count":72,"rating":4,"zip_code":"10003"},{"id":"IcqlfJEHyO8OttW6l8qFag","name":"Freds Madison Avenue","cuisine":"American","address":"660 Madison Ave","coordinates":{"latitude":40.7647300877058,"longitude":-73.9711537166068},"review_count":191,"rating":3.5,"zip_code":"10065"},{"id":"oFG-NicHnXccAgs_dvZxXA","name":"Sugar East","cuisine":"American","address":"1125 1st Ave","coordinates":{"latitude":40.7614,"longitude":-73.9609},"review_count":59,"rating":4,"zip_code":"10065"},{"id":"8oIhYiTmNRuFzsEaRfzOkw","name":"Kingsley","cuisine":"American","address":"190 Ave B","coordinates":{"latitude":40.7278617310416,"longitude":-73.9792357761343},"review_count":120,"rating":3.5,"zip_code":"10009"},{"id":"o-FxsaWAM3JwMMqxQb3MbQ","name":"Amsterdam Ale House","cuisine":"American","address":"340 Amsterdam Ave","coordinates":{"latitude":40.7814117451455,"longitude":-73.9799106589601},"review_count":318,"rating":3,"zip_code":"10024"},{"id":"zTxoqf4dRIjWn-CK6T0Agg","name":"The Bounty","cuisine":"American","address":"131 Greenpoint Ave","coordinates":{"latitude":40.730385,"longitude":-73.954811},"review_count":184,"rating":4,"zip_code":"11222"},{"id":"kJExyhre8kocF5gI9y4IDA","name":"Villanelle","cuisine":"American","address":"15 E 12th St","coordinates":{"latitude":40.73441,"longitude":-73.99329},"review_count":41,"rating":4.5,"zip_code":"10003"},{"id":"JbpjgLAk4DaP0zvY7dP9Hw","name":"Elysian Cafe","cuisine":"American","address":"1001 Washington St","coordinates":{"latitude":40.7486464,"longitude":-74.027349},"review_count":451,"rating":3.5,"zip_code":"07030"},{"id":"6hw4ibsutVoMl_RK0aAJ7Q","name":"The Black Derby","cuisine":"American","address":"310 W 4th St","coordinates":{"latitude":40.737266,"longitude":-74.00399},"review_count":84,"rating":4.5,"zip_code":"10014"},{"id":"T_d-JdVD-DVl4DzWqQk9DQ","name":"View of the World Terrace Club","cuisine":"American","address":"144 Washington St","coordinates":{"latitude":40.7098701,"longitude":-74.013926},"review_count":102,"rating":4,"zip_code":"10006"},{"id":"UF9F0A4e7AJHzNPG5zrHUQ","name":"The Beast Next Door","cuisine":"American","address":"42-51 27th St","coordinates":{"latitude":40.748821,"longitude":-73.940719},"review_count":135,"rating":4.5,"zip_code":"11101"},{"id":"mw0EQ-dO4lUD2q44ASizhA","name":"Rochelles","cuisine":"American","address":"205 Chrystie St","coordinates":{"latitude":40.722386,"longitude":-73.991958},"review_count":117,"rating":4,"zip_code":"10002"},{"id":"pzfPgFS01LJAudksr86wYA","name":"Frankie & Johnnie's Steak House","cuisine":"American","address":"32 W 37th St","coordinates":{"latitude":40.75083,"longitude":-73.98491},"review_count":128,"rating":3.5,"zip_code":"10018"},{"id":"dQ_sWeM_1QqdNPsXuq8_Qw","name":"CORE: Club","cuisine":"American","address":"66 E 55th St","coordinates":{"latitude":40.76041,"longitude":-73.97254},"review_count":33,"rating":4.5,"zip_code":"10022"},{"id":"zWem2SAbFc7lIYR2y9DE0g","name":"Harlem Public","cuisine":"American","address":"3612 Broadway","coordinates":{"latitude":40.828717774457,"longitude":-73.9484412254424},"review_count":720,"rating":4,"zip_code":"10031"},{"id":"dsTAUtR3bRMFIKJpAJk1Jw","name":"The Sparrow Tavern","cuisine":"American","address":"24-01 29th St","coordinates":{"latitude":40.772731,"longitude":-73.916496},"review_count":523,"rating":4,"zip_code":"11102"},{"id":"4PeBRQZgHMW80J5YIaT39A","name":"The Loyal","cuisine":"American","address":"289 Bleecker St","coordinates":{"latitude":40.7321627859791,"longitude":-74.0033025943349},"review_count":73,"rating":4,"zip_code":"10014"},{"id":"Xbd3lfDIz5nLagWWVTPO-g","name":"Connolly's Pub & Restaurant","cuisine":"American","address":"14 E 47th St","coordinates":{"latitude":40.75618,"longitude":-73.97772},"review_count":163,"rating":3.5,"zip_code":"10017"},{"id":"gT7M8Qxq7wXwz4rY0Ltb2g","name":"Southwest Porch","cuisine":"American","address":"40TH St And 6th Ave","coordinates":{"latitude":40.7538411383401,"longitude":-73.9844154173197},"review_count":131,"rating":3.5,"zip_code":"10018"},{"id":"vr_edPWXo8qB8pirE9iUlQ","name":"Skinner's Loft","cuisine":"American","address":"146 Newark Ave","coordinates":{"latitude":40.7206199,"longitude":-74.04376},"review_count":847,"rating":4,"zip_code":"07302"},{"id":"9AXTJkwXdWaJaQkCjpj6mA","name":"Sunday in Brooklyn","cuisine":"American","address":"348 Wythe Ave","coordinates":{"latitude":40.714145,"longitude":-73.965322},"review_count":315,"rating":4,"zip_code":"11249"},{"id":"l54FZs2AbhrDdW2C_LDLeQ","name":"Forty Four Lounge","cuisine":"American","address":"44 W 44th St","coordinates":{"latitude":40.755584,"longitude":-73.982225},"review_count":118,"rating":3.5,"zip_code":"10036"},{"id":"JEuIdK9hzci9g_TuwfnZ_w","name":"Society Cafe","cuisine":"American","address":"52 W 13th St","coordinates":{"latitude":40.73624,"longitude":-73.99658},"review_count":72,"rating":4.5,"zip_code":"10011"},{"id":"qmt4lPkK30THRomHbd5EWg","name":"The Fat Monk","cuisine":"American","address":"949 Columbus Ave","coordinates":{"latitude":40.79952,"longitude":-73.96232},"review_count":157,"rating":4,"zip_code":"10025"},{"id":"RTA_esY_iOwFe3qyNzHeLQ","name":"BIN No. 220","cuisine":"American","address":"220 Front St","coordinates":{"latitude":40.70761,"longitude":-74.00236},"review_count":71,"rating":4,"zip_code":"10038"},{"id":"AoMmmvB8Fsc4euWs51y5wA","name":"Abigael's on Broadway","cuisine":"American","address":"1407 Broadway","coordinates":{"latitude":40.75353,"longitude":-73.98777},"review_count":126,"rating":3.5,"zip_code":"10018"},{"id":"l3USyZNhkkTsG-6-rHvsew","name":"Wine:34","cuisine":"American","address":"127 E 34th St","coordinates":{"latitude":40.7467540555211,"longitude":-73.9802000666539},"review_count":47,"rating":4.5,"zip_code":"10016"},{"id":"0pohq-vk8zKoi8ntSJnX4g","name":"Smile To Go","cuisine":"American","address":"22 Howard St","coordinates":{"latitude":40.7195836,"longitude":-74.0001862},"review_count":107,"rating":3.5,"zip_code":"10013"},{"id":"bEec28P1CziowM9LrNkNsg","name":"Cafe Amrita","cuisine":"American","address":"301 W 110th St","coordinates":{"latitude":40.8011054761062,"longitude":-73.9588342646992},"review_count":211,"rating":3.5,"zip_code":"10025"},{"id":"v4d2TBqxMmNzWNvShkvRrA","name":"FREEHOLD","cuisine":"American","address":"45 S 3rd St","coordinates":{"latitude":40.7136054,"longitude":-73.965905},"review_count":366,"rating":4,"zip_code":"11249"},{"id":"3KztPt62_BR1EO2_RCRhBQ","name":"Wollensky Grill","cuisine":"American","address":"210 E 49th St","coordinates":{"latitude":40.7547799,"longitude":-73.9707899},"review_count":90,"rating":3.5,"zip_code":"10017"},{"id":"oq-3mheTFeiOq6ojzdzSNg","name":"Cloister Cafe","cuisine":"American","address":"238 E 9th St","coordinates":{"latitude":40.729324,"longitude":-73.987892},"review_count":424,"rating":2.5,"zip_code":"10003"},{"id":"DCTWsTYqkbwJ-pFCIwmHew","name":"Gleason's Tavern","cuisine":"American","address":"206 W 41st St","coordinates":{"latitude":40.75539,"longitude":-73.98809},"review_count":73,"rating":4,"zip_code":"10036"},{"id":"BNsKXLDL0pM_IaAR_LR7bw","name":"The Hamilton Inn","cuisine":"American","address":"708 Jersey Ave","coordinates":{"latitude":40.7289398377141,"longitude":-74.0446714764976},"review_count":609,"rating":4,"zip_code":"07302"},{"id":"V7DgLgASnU7s0GuiN4dV8A","name":"Dirty Bird To Go","cuisine":"American","address":"155 Chambers St","coordinates":{"latitude":40.71607,"longitude":-74.00997},"review_count":158,"rating":3.5,"zip_code":"10007"},{"id":"vhaiRIPLJsuKWpK8M4QIMQ","name":"Grey Bar & Restaurant","cuisine":"American","address":"43 W 26th St","coordinates":{"latitude":40.7445535,"longitude":-73.9905128},"review_count":104,"rating":3.5,"zip_code":"10010"},{"id":"iHmBWf-QuwzqvCL-ZebITw","name":"Ignited Restaurant & Lounge","cuisine":"American","address":"3027 Steinway St","coordinates":{"latitude":40.763195170874,"longitude":-73.9153153029795},"review_count":193,"rating":4.5,"zip_code":"11103"},{"id":"bJBDLBZiak_pCI5CuvAfAA","name":"Formerly Crow's","cuisine":"American","address":"85 Washington Pl","coordinates":{"latitude":40.7322,"longitude":-74.00003},"review_count":60,"rating":4,"zip_code":"10011"},{"id":"WI_AYZSW8ds1GjFq3PQJRA","name":"Satis Bistro","cuisine":"American","address":"212 Washington St","coordinates":{"latitude":40.7144521915461,"longitude":-74.037669933778},"review_count":545,"rating":4,"zip_code":"07302"},{"id":"vdrHSnRc1X2pJiLJuiOfGA","name":"Toad Hall","cuisine":"American","address":"57 Grand St","coordinates":{"latitude":40.722114,"longitude":-74.003608},"review_count":87,"rating":4,"zip_code":"10013"},{"id":"sEgYMqEjnILJFYNTwg_izA","name":"Fields Good Chicken","cuisine":"American","address":"44 E 23rd St","coordinates":{"latitude":40.7403,"longitude":-73.9869963},"review_count":66,"rating":4,"zip_code":"10010"},{"id":"nW67yVjX27wNJWyYkD6oFA","name":"Mickey Spillane's","cuisine":"American","address":"350 W 49th St","coordinates":{"latitude":40.7626220950179,"longitude":-73.9893065669342},"review_count":178,"rating":3,"zip_code":"10019"}]}
