{"businesses":[{"id":"6k6PRNSLnExNes-iGcu1EA","name":"Taqueria La Nortena","cuisine":"Mexican","address":"668 Manhattan Ave","coordinates":{"latitude":40.72474,"longitude":-73.95121},"review_count":83,"rating":3,"zip_code":"11222"},{"id":"keOMomcnyrJEQvFtfEYadg","name":"Swell Dive","cuisine":"Mexican","address":"1013 Bedford Ave","coordinates":{"latitude":40.689183858613,"longitude":-73.9549609646201},"review_count":66,"rating":4,"zip_code":"11205"},{"id":"r23ZiJmpBWBIvQlT069atw","name":"El Paso Taco Truck","cuisine":"Mexican","address":"175-9 E 116th St","coordinates":{"latitude":40.79845,"longitude":-73.94046},"review_count":9,"rating":4.5,"zip_code":"10029"},{"id":"rkPpLoJKMUTNmd-uyqfq1g","name":"Taqueria El Fogon","cuisine":"Mexican","address":"1050 Flushing Ave","coordinates":{"latitude":40.7044101,"longitude":-73.9291005},"review_count":148,"rating":3.5,"zip_code":"11237"},{"id":"9qOUxAQD6Tasr9TVUlSvdg","name":"Los Amigos Mexican Restaurant","cuisine":"Mexican","address":"2273 31st St","coordinates":{"latitude":40.7744827270508,"longitude":-73.9123611450195},"review_count":104,"rating":3.5,"zip_code":"11105"},{"id":"8CTaeOtqr461Ah5yWcnCPw","name":"Fatty Daddy Taco","cuisine":"Mexican","address":"152 Smith St","coordinates":{"latitude":40.686578,"longitude":-73.990821},"review_count":99,"rating":3.5,"zip_code":"11201"},{"id":"QbDy2I6ENbHP-B89tH0sUQ","name":"El Cafetal Mexican Restaurant","cuisine":"Mexican","address":"30-19 Astoria Blvd","coordinates":{"latitude":40.7702872,"longitude":-73.9183644},"review_count":66,"rating":3.5,"zip_code":"11102"},{"id":"-c5wzbi8rd8gpplyTZUgIw","name":"Taco Bell","cuisine":"Mexican","address":"390 8th Ave","coordinates":{"latitude":40.755298,"longitude":-73.99522},"review_count":46,"rating":2.5,"zip_code":"10001"},{"id":"JnOYZqzRBHkEB_mvMXph_g","name":"Juquila Kitchen and Bar","cuisine":"Mexican","address":"39-05 29th St","coordinates":{"latitude":40.7532,"longitude":-73.93436},"review_count":39,"rating":3.5,"zip_code":"11101"},{"id":"GuqvwAFpjjz3m3vicbJBTQ","name":"El Rey del Taco Deli","cuisine":"Mexican","address":"49-06 43rd Ave","coordinates":{"latitude":40.7445104420185,"longitude":-73.9153558015823},"review_count":38,"rating":4,"zip_code":"11377"},{"id":"A0nCLU0qBly0AUm-pvgNXw","name":"Tacos Mexico","cuisine":"Mexican","address":"32-08 38th St","coordinates":{"latitude":40.75914,"longitude":-73.92015},"review_count":86,"rating":3,"zip_code":"11103"},{"id":"uGUXV74PbdcYeHEqntDh2w","name":"Hidalgo Mexican Food","cuisine":"Mexican","address":"35-9 Vernon Blvd","coordinates":{"latitude":40.7632870632524,"longitude":-73.9415278658571},"review_count":20,"rating":4,"zip_code":"11106"},{"id":"ht2lc-By8ilj2IQKK4vn1A","name":"Al Horno Lean Mexican Kitchen","cuisine":"Mexican","address":"57 1st Ave","coordinates":{"latitude":40.72511,"longitude":-73.98753},"review_count":20,"rating":3,"zip_code":"10003"},{"id":"3M6CsWQ_FIAzpxnuqq_eHw","name":"Las Margaritas Astoria Restaurant","cuisine":"Mexican","address":"38-01 Broadway","coordinates":{"latitude":40.7594468,"longitude":-73.9195285},"review_count":213,"rating":2.5,"zip_code":"11103"},{"id":"fmWPll4-PI4PTx_b_E_-Hw","name":"Tri Mexican Tacos","cuisine":"Mexican","address":"46th St & Greenpoint Ave","coordinates":{"latitude":40.7421913,"longitude":-73.9188919},"review_count":29,"rating":4,"zip_code":"11104"},{"id":"0KeuqyRSUAYLwMI-3ZAZJw","name":"Maya Blue","cuisine":"Mexican","address":"146 E 44th St","coordinates":{"latitude":40.7524506103315,"longitude":-73.9743997152164},"review_count":23,"rating":3,"zip_code":"10174"},{"id":"hRiemFSaUuTuYexm1dvu0g","name":"Cafe Los Arcos","cuisine":"Mexican","address":"255 A Bushwick Ave","coordinates":{"latitude":40.7072619,"longitude":-73.9395899},"review_count":81,"rating":3.5,"zip_code":"11206"},{"id":"wg-aw8yFiPO-gZE4ecgWfA","name":"Chipotle Mexican Grill","cuisine":"Mexican","address":"504 6th Ave","coordinates":{"latitude":40.736446,"longitude":-73.997108},"review_count":24,"rating":3,"zip_code":"10011"},{"id":"kxY3FXKrJvxAIyaS5hx4Gw","name":"Festival Mexicano","cuisine":"Mexican","address":"120 Rivington St","coordinates":{"latitude":40.719905,"longitude":-73.987197},"review_count":34,"rating":3,"zip_code":"10002"},{"id":"8-boHR8m_gWYHF4XXasYbA","name":"Tacos Mi Mexico","cuisine":"Mexican","address":"","coordinates":{"latitude":40.78084,"longitude":-73.9511},"review_count":7,"rating":4.5,"zip_code":"10128"},{"id":"hOLv0a65RSb5QvFd0FrYjw","name":"Taqueria Santa Fe","cuisine":"Mexican","address":"214 Stanhope St","coordinates":{"latitude":40.7004276663065,"longitude":-73.9206317067146},"review_count":56,"rating":4.5,"zip_code":"11237"},{"id":"v7hwkFxrz2pORrT9Fiiovw","name":"La Lupe","cuisine":"Mexican","address":"9 Jefferson St","coordinates":{"latitude":40.69725,"longitude":-73.93517},"review_count":126,"rating":3.5,"zip_code":"11206"},{"id":"L3ekOOsyK_HfFrf5MzQA_w","name":"Taqueria Diana","cuisine":"Mexican","address":"69 Clinton St","coordinates":{"latitude":40.71934,"longitude":-73.98505},"review_count":27,"rating":3,"zip_code":"10002"},{"id":"SHGSMv63CvBpoXEQHtfstQ","name":"Taco Bell","cuisine":"Mexican","address":"1503 Lexington Ave","coordinates":{"latitude":40.78646,"longitude":-73.95029},"review_count":28,"rating":3,"zip_code":"10029"},{"id":"gF4WOspnk9KkUWKDi0uS9g","name":"Chipotle Mexican Grill","cuisine":"Mexican","address":"2298 Broadway","coordinates":{"latitude":40.786248,"longitude":-73.977917},"review_count":57,"rating":2.5,"zip_code":"10024"},{"id":"DNe4uZuvsoEdvRXhyC6dew","name":"La Fiesta","cuisine":"Mexican","address":"3797 Broadway","coordinates":{"latitude":40.8346,"longitude":-73.94482},"review_count":84,"rating":4,"zip_code":"10032"},{"id":"A7PEhG0nG_riSgfNebr64g","name":"Chipotle Mexican Grill","cuisine":"Mexican","address":"906 Third Ave","coordinates":{"latitude":40.7589,"longitude":-73.96875},"review_count":34,"rating":2.5,"zip_code":"10022"},{"id":"9a6I0FhQ-S7wZo4OaLThzw","name":"Oaxaca Taqueria","cuisine":"Mexican","address":"1264 Amsterdam Ave","coordinates":{"latitude":40.8110313415527,"longitude":-73.958381652832},"review_count":36,"rating":3,"zip_code":"10027"},{"id":"J7hRmPAGnOcd2OJsN_eV9g","name":"El Mariachi Restaurant","cuisine":"Mexican","address":"6712 Roosevelt Ave","coordinates":{"latitude":40.7460442,"longitude":-73.8978364},"review_count":35,"rating":4,"zip_code":"11377"},{"id":"EZ-ec_6fXPsZiDshbFMnjA","name":"The King of Tacos","cuisine":"Mexican","address":"9017 31st Ave","coordinates":{"latitude":40.7601063,"longitude":-73.8779181},"review_count":70,"rating":4,"zip_code":"11369"},{"id":"9YQAFztjRb1WdEr_kCBVAw","name":"Mally's Deli & Grocery","cuisine":"Mexican","address":"199 Knickerbocker Ave","coordinates":{"latitude":40.7036972045898,"longitude":-73.9264450073242},"review_count":31,"rating":4.5,"zip_code":"11237"},{"id":"NMvGg6AwvEMUEjIF1z9Ghw","name":"Puebla","cuisine":"Mexican","address":"120 Essex St","coordinates":{"latitude":40.7191285440113,"longitude":-73.987642195336},"review_count":13,"rating":4,"zip_code":"10002"},{"id":"pD0BuDTrnya7t4S5nm_5Vw","name":"The Original Fresh Tortillas Grill","cuisine":"Mexican","address":"573 2nd Ave","coordinates":{"latitude":40.74332,"longitude":-73.97735},"review_count":45,"rating":2.5,"zip_code":"10016"},{"id":"1DE0dfgDczWc3NKo5CLCJA","name":"El Idolo","cuisine":"Mexican","address":"E 3rd St & 6th Ave","coordinates":{"latitude":40.7310577633541,"longitude":-74.0014062726126},"review_count":18,"rating":3,"zip_code":"10012"},{"id":"nY7jGZGMR7XA95t2uey2hA","name":"Viva Margarita","cuisine":"Mexican","address":"364 Lawton Ave","coordinates":{"latitude":40.8278310422836,"longitude":-73.987404530236},"review_count":102,"rating":3.5,"zip_code":"07010"},{"id":"VREXC353INWXdSyTYvt8Lg","name":"Oaxaca Taqueria","cuisine":"Mexican","address":"1116 Bedford Ave","coordinates":{"latitude":40.68634,"longitude":-73.954767},"review_count":140,"rating":3.5,"zip_code":"11216"},{"id":"anBWvFPOce4nl3qLX-H6Rg","name":"El Mero Mero","cuisine":"Mexican","address":"35-57 38th St","coordinates":{"latitude":40.753834323302,"longitude":-73.923701159656},"review_count":22,"rating":4.5,"zip_code":"11101"},{"id":"U02ibutbgrC3uQzEq4w2ww","name":"Guadalajara De Dia 2","cuisine":"Mexican","address":"566 Seneca Ave","coordinates":{"latitude":40.7044639587402,"longitude":-73.9109420776367},"review_count":69,"rating":4,"zip_code":"11385"},{"id":"_Pz5L7DGORcaThGB4CWcfg","name":"La Loncheria","cuisine":"Mexican","address":"41 Wilson Ave","coordinates":{"latitude":40.702921,"longitude":-73.929105},"review_count":23,"rating":4.5,"zip_code":"11237"},{"id":"jKUF-ts0Et40ri33NDiMDw","name":"Tacos Lokos 4ever","cuisine":"Mexican","address":"120 Franklin St","coordinates":{"latitude":40.72886,"longitude":-73.95727},"review_count":22,"rating":4,"zip_code":"11222"},{"id":"BRqPr7YpcQCu23e5i__Frw","name":"Orale Tacos","cuisine":"Mexican","address":"23-23 30th Ave","coordinates":{"latitude":40.7689108,"longitude":-73.9256464},"review_count":24,"rating":4,"zip_code":"11102"},{"id":"uOaiLIkwFbOOAc0xoW81XA","name":"Taco Veloz","cuisine":"Mexican","address":"8610 Roosevelt Ave","coordinates":{"latitude":40.747793,"longitude":-73.87985},"review_count":47,"rating":4.5,"zip_code":"11372"},{"id":"6uDckvEsM7vqw4o14soG9w","name":"3 Coffee Beans Restaurant","cuisine":"Mexican","address":"658 Montgomery St","coordinates":{"latitude":40.7240767031908,"longitude":-74.0648453682661},"review_count":57,"rating":4,"zip_code":"07306"},{"id":"W9T7Meu3Q4VmF1Xrxt6EKw","name":"Chipotle Mexican Grill","cuisine":"Mexican","address":"625 Broadway","coordinates":{"latitude":40.7259231997786,"longitude":-73.9965747390492},"review_count":45,"rating":2.5,"zip_code":"10012"},{"id":"3_8uwehn3Pie7WC0lfmOqw","name":"San Loco","cuisine":"Mexican","address":"637 Driggs Ave","coordinates":{"latitude":40.7149801398938,"longitude":-73.9583154806302},"review_count":121,"rating":3,"zip_code":"11211"},{"id":"Tef5SEEypUdwkQ_E8YfXuw","name":"Chipotle Mexican Grill","cuisine":"Mexican","address":"28 W 40th St","coordinates":{"latitude":40.7527202807699,"longitude":-73.9833156546202},"review_count":33,"rating":2.5,"zip_code":"10018"},{"id":"NgkQtIzMjUISyAreyzrtKg","name":"Tacos Él Gallo Giro","cuisine":"Mexican","address":"75-10 Roosevelt Ave","coordinates":{"latitude":40.7468650335835,"longitude":-73.8900142908096},"review_count":31,"rating":4,"zip_code":"11372"},{"id":"Ibk2DnCNvlWd9Oi61jaK-A","name":"Chipotle Mexican Grill","cuisine":"Mexican","address":"700 Plaza Dr","coordinates":{"latitude":40.787555,"longitude":-74.045813},"review_count":65,"rating":3.5,"zip_code":"07094"},{"id":"nm7uUS4Qa6xB-VMm1bnbEA","name":"Dos Toros Taqueria","cuisine":"Mexican","address":"64 Court St","coordinates":{"latitude":40.6920649351928,"longitude":-73.9914631471038},"review_count":66,"rating":4,"zip_code":"11201"},{"id":"UJYLVyqur-3dX9DtUDkzrg","name":"Xochitl Taqueria","cuisine":"Mexican","address":"1015 Fulton St","coordinates":{"latitude":40.6823211397652,"longitude":-73.9608860896543},"review_count":116,"rating":3.5,"zip_code":"11238"},{"id":"tk5cnLJDAlUmX_ZYBGzw1w","name":"Tacos y quesadillas","cuisine":"Mexican","address":"1280 Lexington Ave","coordinates":{"latitude":40.77993,"longitude":-73.95546},"review_count":6,"rating":5,"zip_code":"10028"},{"id":"V-yI80ii8Sau_BOQsDhz-A","name":"Taqueria La Placita Puebla","cuisine":"Mexican","address":"830 Broadway","coordinates":{"latitude":40.69908,"longitude":-73.93946},"review_count":48,"rating":4,"zip_code":"11206"},{"id":"qmSBFiAikpyUO3JA8ez1Ow","name":"El Loco Burrito","cuisine":"Mexican","address":"345 Graham Ave","coordinates":{"latitude":40.7147469,"longitude":-73.9445868},"review_count":167,"rating":2.5,"zip_code":"11211"},{"id":"adr4Cg5A0G1cRoVqw72iDA","name":"Taco Bite Food Truck","cuisine":"Mexican","address":null,"coordinates":{"latitude":40.70602,"longitude":-74.00889},"review_count":39,"rating":4,"zip_code":"10005"},{"id":"sNr7HL0CE9AJu_SJNfRBZA","name":"Soona' Mexican Cuisine","cuisine":"Mexican","address":"6900 Park Ave","coordinates":{"latitude":40.7921022226938,"longitude":-74.0035550606074},"review_count":19,"rating":4.5,"zip_code":"07093"},{"id":"DhivGpHqgPy1f1gSXhrvPg","name":"LA Burrito","cuisine":"Mexican","address":"67 Wilson Ave","coordinates":{"latitude":40.70235,"longitude":-73.92837},"review_count":147,"rating":3,"zip_code":"11237"},{"id":"_5z4Ekuo0J8JLKWpTLap3Q","name":"Chipotle Mexican Grill","cuisine":"Mexican","address":"1020 Third Ave","coordinates":{"latitude":40.7625487808959,"longitude":-73.9660083130002},"review_count":29,"rating":3,"zip_code":"10065"},{"id":"fApsIHYpJJ7JI2AM0TSHvw","name":"QDOBA Mexican Eats","cuisine":"Mexican","address":"400 Washington St","coordinates":{"latitude":40.7414127,"longitude":-74.0299258},"review_count":81,"rating":3,"zip_code":"07030"},{"id":"JG8I1A40Qc7GgOsLnBPkjA","name":"Chipotle Mexican Grill","cuisine":"Mexican","address":"405 6th Ave","coordinates":{"latitude":40.7334174960852,"longitude":-73.9997662603855},"review_count":43,"rating":2.5,"zip_code":"10014"},{"id":"ePdAQHh3ZlktMZ4YTLWpwg","name":"Tacos Juquilita","cuisine":"Mexican","address":"28TH Street And 6th Ave","coordinates":{"latitude":40.7460399717093,"longitude":-73.9905200153589},"review_count":5,"rating":4.5,"zip_code":"10001"},{"id":"1WUdvbRlqqLidaWexQc-ng","name":"Taqueria Downtown","cuisine":"Mexican","address":"354 Grove St","coordinates":{"latitude":40.7210813462734,"longitude":-74.0426413714886},"review_count":61,"rating":4,"zip_code":"07302"},{"id":"V1DdkgD8O2B33GruALTBNw","name":"Riviera Maya Cafe","cuisine":"Mexican","address":"301 W 96th St","coordinates":{"latitude":40.79554,"longitude":-73.9735},"review_count":25,"rating":3.5,"zip_code":"10025"},{"id":"dO03lFjb-9vxEmEt49RjNQ","name":"Burrito Joint","cuisine":"Mexican","address":"3800 Palisade Ave","coordinates":{"latitude":40.77416,"longitude":-74.0242},"review_count":91,"rating":3,"zip_code":"07087"},{"id":"MEmKGwYjjkoibhNd_Tdtbw","name":"Taqueria Cocoyoc","cuisine":"Mexican","address":"211 Wyckoff Ave","coordinates":{"latitude":40.702385,"longitude":-73.915728},"review_count":105,"rating":3.5,"zip_code":"11237"},{"id":"4EGq0GMAJwGIrfhVg4PxVw","name":"Swick 2","cuisine":"Mexican","address":"35-04 35th St","coordinates":{"latitude":40.7564825,"longitude":-73.9254339},"review_count":26,"rating":4,"zip_code":"11106"},{"id":"E1u1x-uTm-9ubQKWeOq8Yw","name":"Biggies Mexican Restaurant","cuisine":"Mexican","address":"3700 Bergenline Ave","coordinates":{"latitude":40.77468,"longitude":-74.02702},"review_count":33,"rating":3.5,"zip_code":"07087"},{"id":"bWENqo52d9fFPH9D-CWuqQ","name":"New Fresco Tortillas","cuisine":"Mexican","address":"63 Reade St","coordinates":{"latitude":40.7148315,"longitude":-74.0065651},"review_count":38,"rating":2,"zip_code":"10007"},{"id":"z6SKrIMATXU5JZ85D9ecuQ","name":"El Toro Rojo Truck","cuisine":"Mexican","address":"","coordinates":{"latitude":40.7720489501953,"longitude":-73.9260635375977},"review_count":14,"rating":4,"zip_code":"11102"},{"id":"c921DfWPCxG5qJ687TU6Xw","name":"Burrito Republic","cuisine":"Mexican","address":"59-15 71st Ave","coordinates":{"latitude":40.7006779324274,"longitude":-73.8991589471698},"review_count":36,"rating":4.5,"zip_code":"11385"},{"id":"wOvCuvf0ftfTxQ-8NJ6V4A","name":"Xochimilco Mexican Restaurant & Bakery","cuisine":"Mexican","address":"321-323 61st St","coordinates":{"latitude":40.78872,"longitude":-74.01255},"review_count":13,"rating":4.5,"zip_code":"07093"},{"id":"_gwi6OqeNiTmWUBf1lcRGw","name":"Fajitas Sunrise","cuisine":"Mexican","address":"5924 Myrtle Ave","coordinates":{"latitude":40.7002830505371,"longitude":-73.8988723754883},"review_count":136,"rating":3.5,"zip_code":"11385"},{"id":"WPykmkMYWvXNdvCS2kDbkA","name":"Taco Bell","cuisine":"Mexican","address":"Pennsylvania Station","coordinates":{"latitude":40.75097,"longitude":-73.99342},"review_count":28,"rating":2.5,"zip_code":"10001"},{"id":"sBP8072dTkHDHyS8MTaZcQ","name":"Coatzingo Restaurant","cuisine":"Mexican","address":"79-11 Roosevelt Ave","coordinates":{"latitude":40.74759,"longitude":-73.88623},"review_count":37,"rating":4.5,"zip_code":"11372"},{"id":"b_3yI7FXcIle71lD9Tulww","name":"Guajillo Mexican Kitchen","cuisine":"Mexican","address":"2277 1st Ave","coordinates":{"latitude":40.7967861606349,"longitude":-73.934840150695},"review_count":23,"rating":4.5,"zip_code":"10035"},{"id":"qS15lSSIChNKBECO7uCi2g","name":"Momento Restaurant","cuisine":"Mexican","address":"25-13 Queens Plz N","coordinates":{"latitude":40.7509128979866,"longitude":-73.9400115529873},"review_count":39,"rating":3,"zip_code":"11101"},{"id":"SYQwo6Ikr38GqwKEHuDIpQ","name":"Chipotle Mexican Grill","cuisine":"Mexican","address":"286 First Ave","coordinates":{"latitude":40.7330492739346,"longitude":-73.9810002134851},"review_count":22,"rating":2.5,"zip_code":"10009"},{"id":"jf95dOTlZB7oPWz9JLgaQA","name":"Borrachito","cuisine":"Mexican","address":"206 Avenue A","coordinates":{"latitude":40.7295,"longitude":-73.98084},"review_count":4,"rating":5,"zip_code":"10009"},{"id":"Ke4hW2_6iCfhwEuSJfsOXA","name":"Santinis Bistro","cuisine":"Mexican","address":"5114 Hudson Ave","coordinates":{"latitude":40.782136,"longitude":-74.016253},"review_count":43,"rating":3,"zip_code":"07093"},{"id":"G92jSUckfs4MhD6bGPyHow","name":"Taqueria Diana","cuisine":"Mexican","address":"367 Metropolitan Ave","coordinates":{"latitude":40.71424,"longitude":-73.95568},"review_count":16,"rating":4,"zip_code":"11211"},{"id":"5ieIH2GbKCweKfrm6q8Aqg","name":"Taco Bell","cuisine":"Mexican","address":"1884 Third Ave","coordinates":{"latitude":40.790467,"longitude":-73.945758},"review_count":16,"rating":3,"zip_code":"10029"},{"id":"h_ITJux-MF0YcmZx8KRHtA","name":"Tacos Project","cuisine":"Mexican","address":"800 Grand St","coordinates":{"latitude":40.711641,"longitude":-73.941319},"review_count":36,"rating":4,"zip_code":"11211"},{"id":"fSgoG2l2GwDjQnLGOekjUA","name":"San Francisco De Assis Restaurant","cuisine":"Mexican","address":"1779 Lexington Ave","coordinates":{"latitude":40.794906,"longitude":-73.944038},"review_count":16,"rating":3,"zip_code":"10029"},{"id":"CUPrO7jULZB5uvzp9l2Gzw","name":"Salerno Pizza","cuisine":"Mexican","address":"29-24 30th Ave","coordinates":{"latitude":40.767289,"longitude":-73.922863},"review_count":32,"rating":3.5,"zip_code":"11102"},{"id":"6eihmCzFJvolelWSW7-VPQ","name":"La Esquina Del Camaron Mexicano","cuisine":"Mexican","address":"80-02 Roosevelt Ave","coordinates":{"latitude":40.7474139332771,"longitude":-73.8855906575918},"review_count":19,"rating":4.5,"zip_code":"11372"},{"id":"l9-qUMM99-8yxZ5uQD2Vyg","name":"Kathy The Tamale Lady","cuisine":"Mexican","address":"E 116th & Lexington","coordinates":{"latitude":40.7986227214486,"longitude":-73.9416182220012},"review_count":4,"rating":5,"zip_code":"10029"},{"id":"ofyC683l9tTvkXKbmOXiEw","name":"Fresco Tortillas","cuisine":"Mexican","address":"3112 36th Ave","coordinates":{"latitude":40.75618,"longitude":-73.92941},"review_count":41,"rating":3,"zip_code":"11106"},{"id":"kyt5EC3xRiX7TxYZhjEbvw","name":"Burrito House","cuisine":"Mexican","address":"189 Church St","coordinates":{"latitude":40.7157417,"longitude":-74.0070872},"review_count":37,"rating":2,"zip_code":"10007"},{"id":"dlPGWZdnYiOuwuS9u_CbGA","name":"Terrific Wings Tacos And Things","cuisine":"Mexican","address":"1901 Lexington Ave","coordinates":{"latitude":40.8000680303579,"longitude":-73.9404931291938},"review_count":20,"rating":3,"zip_code":"10035"},{"id":"Z-RH_ZKPHMJ1VJwCdDlMCA","name":"Chipotle Mexican Grill","cuisine":"Mexican","address":"One New York Plz","coordinates":{"latitude":40.7023125,"longitude":-74.0114975},"review_count":10,"rating":3.5,"zip_code":"10004"},{"id":"ojABtG3n4R7z9HxPOvfexQ","name":"The Boss of the Tacos","cuisine":"Mexican","address":"4707 Broadway","coordinates":{"latitude":40.7563152,"longitude":-73.912865},"review_count":17,"rating":4.5,"zip_code":"11103"},{"id":"nFheFe5nU7hSSydNjsliGA","name":"Naranjo's Taco Truck","cuisine":"Mexican","address":"936 Broadway","coordinates":{"latitude":40.74025,"longitude":-73.98912},"review_count":5,"rating":4,"zip_code":"10010"},{"id":"DjtjAuN5jWd_ukx0YWUFWw","name":"Oaxaca Taqueria","cuisine":"Mexican","address":"75 Hoyt St","coordinates":{"latitude":40.688233,"longitude":-73.986593},"review_count":70,"rating":3.5,"zip_code":"11217"},{"id":"BGzM81ykCfUKjGUrq66fgA","name":"Agave Mexican, Spanish & American Grill","cuisine":"Mexican","address":"398 W 145th St","coordinates":{"latitude":40.8242411149966,"longitude":-73.9452161405442},"review_count":77,"rating":3.5,"zip_code":"10031"},{"id":"FjIbsD5d6sYp9nWg7qblFw","name":"Sunnyside Fresh Taco","cuisine":"Mexican","address":"4222 Greenpoint Ave","coordinates":{"latitude":40.7404526,"longitude":-73.9226629},"review_count":55,"rating":3,"zip_code":"11104"},{"id":"Jw6nTaia5rdxefvg5tQ9uQ","name":"El Maguey Mexican Restaurant","cuisine":"Mexican","address":"83-28 Northern Blvd","coordinates":{"latitude":40.7555523,"longitude":-73.8840807},"review_count":39,"rating":3.5,"zip_code":"11372"},{"id":"AIw_q3kqThesAPHZZ2A85A","name":"Habanero Cafe Mexican Grill","cuisine":"Mexican","address":"715 Flushing Ave","coordinates":{"latitude":40.70058,"longitude":-73.94408},"review_count":53,"rating":3.5,"zip_code":"11206"},{"id":"n-Z4HSwVeiDyA7AotduUNw","name":"Sonora","cuisine":"Mexican","address":"174 Howard Ave","coordinates":{"latitude":40.6824295855403,"longitude":-73.9199669121657},"review_count":59,"rating":4,"zip_code":"11233"},{"id":"UEf5L44HjzyapxyWiUSfwg","name":"El Taco Ranchero","cuisine":"Mexican","address":"E 118th St And 3rd Ave","coordinates":{"latitude":40.7992528022211,"longitude":-73.9390614933376},"review_count":4,"rating":4.5,"zip_code":"10035"},{"id":"lf1eKRAy_ybZZrnd41x58g","name":"Tia Julia Taco Truck","cuisine":"Mexican","address":"","coordinates":{"latitude":40.74242,"longitude":-73.8789},"review_count":18,"rating":4.5,"zip_code":"11373"},{"id":"oDrjaOCWxTGxJ1C8kViocg","name":"Fresca Tortilla","cuisine":"Mexican","address":"3115 Ditmars Blvd","coordinates":{"latitude":40.7757870486376,"longitude":-73.9099826840614},"review_count":82,"rating":3,"zip_code":"11105"},{"id":"3V7W97p13cb_02fsrPfJJw","name":"El Sombrero","cuisine":"Mexican","address":"6900 Bergenline Ave","coordinates":{"latitude":40.7955716085784,"longitude":-74.0111066833504},"review_count":18,"rating":3.5,"zip_code":"07093"},{"id":"YS21bp9Wp715X75r7eTzxw","name":"Mi Querido Mexico Lindo","cuisine":"Mexican","address":"247 E 116th St","coordinates":{"latitude":40.79733,"longitude":-73.93816},"review_count":12,"rating":4.5,"zip_code":"10029"},{"id":"xsomq3qW2hmjFih64wZRlQ","name":"La Oaxaquena Restaurant","cuisine":"Mexican","address":"1969 Amsterdam Ave","coordinates":{"latitude":40.83318,"longitude":-73.9415999},"review_count":64,"rating":4,"zip_code":"10032"},{"id":"neneS3H11WQIHRYhvlcwVA","name":"El Tio Taco","cuisine":"Mexican","address":"502 55th St","coordinates":{"latitude":40.7857131958008,"longitude":-74.0188980102539},"review_count":27,"rating":3.5,"zip_code":"07093"},{"id":"gAAG2KJ_pdfAK-_UVN-bjQ","name":"Oaxaca Taqueria","cuisine":"Mexican","address":"130 Grand St","coordinates":{"latitude":40.7148433,"longitude":-73.9626569},"review_count":29,"rating":3.5,"zip_code":"11249"},{"id":"hg5LjqQ6pTM4U58nJiDylg","name":"Habanero Mexican Cuisine","cuisine":"Mexican","address":"141 Lincoln Ave","coordinates":{"latitude":40.80856,"longitude":-73.92916},"review_count":19,"rating":4.5,"zip_code":"10454"},{"id":"ENkPMKDMz_c308FB9EXF7A","name":"El Toro Taqueria","cuisine":"Mexican","address":"89 Fort Greene Pl","coordinates":{"latitude":40.6873547,"longitude":-73.976476},"review_count":89,"rating":3,"zip_code":"11217"},{"id":"c8c80FVXGUE7aPGurux3xw","name":"Chipotle Mexican Grill","cuisine":"Mexican","address":"404 Broadway","coordinates":{"latitude":40.7187461853027,"longitude":-74.0020446777344},"review_count":15,"rating":3,"zip_code":"10013"},{"id":"2nlk5jyPQw35HGfl9vfbqw","name":"Cholulita Bella Deli","cuisine":"Mexican","address":"888 Broadway","coordinates":{"latitude":40.6980840861797,"longitude":-73.9373204112053},"review_count":47,"rating":3.5,"zip_code":"11206"},{"id":"tt91_FxQHt2H_cmVbWFU_A","name":"Taqueria El Barrio","cuisine":"Mexican","address":"2327 1st Ave","coordinates":{"latitude":40.7982299,"longitude":-73.93419},"review_count":31,"rating":4,"zip_code":"10035"},{"id":"VyHwHBunPgzu8H2LrLvvwQ","name":"El Chilango Taqueria","cuisine":"Mexican","address":"","coordinates":{"latitude":40.72022,"longitude":-74.04768},"review_count":30,"rating":4,"zip_code":"07302"},{"id":"-82ju2_ebCeX3_mCcvTI_Q","name":"El Sol de Cholula","cuisine":"Mexican","address":"161 Wilson Ave","coordinates":{"latitude":40.7003,"longitude":-73.92452},"review_count":27,"rating":4,"zip_code":"11237"},{"id":"9ZTyAKZI0cpCbmTYZgNjAA","name":"Santa Clarita","cuisine":"Mexican","address":"237 Willis Ave","coordinates":{"latitude":40.80941,"longitude":-73.922889},"review_count":16,"rating":4.5,"zip_code":"10454"},{"id":"nsPDmDEn539AqQZpj2KrsA","name":"Chipotle Mexican Grill","cuisine":"Mexican","address":"325 S  End Ave","coordinates":{"latitude":40.7107259830474,"longitude":-74.0161949226227},"review_count":26,"rating":2,"zip_code":"10280"},{"id":"hMZvA0frin8K1dTtRCm9UQ","name":"Lucha Lucha","cuisine":"Mexican","address":"173 Irving Ave","coordinates":{"latitude":40.702308,"longitude":-73.9196827},"review_count":45,"rating":3.5,"zip_code":"11237"},{"id":"EJorB6z09e7Qu24Qeo7QKg","name":"New Taco Express","cuisine":"Mexican","address":"858 10th Ave","coordinates":{"latitude":40.768569,"longitude":-73.988578},"review_count":12,"rating":3,"zip_code":"10019"},{"id":"dMlQgSCPF1GZKdC_9mT40A","name":"Burritoville","cuisine":"Mexican","address":"141 2nd Ave","coordinates":{"latitude":40.72915,"longitude":-73.9874899},"review_count":13,"rating":3,"zip_code":"10003"},{"id":"UXIEHwXDbd5IcTfK-m_P-g","name":"Happy Fresh Taco","cuisine":"Mexican","address":"1693A Putnam Ave","coordinates":{"latitude":40.7002962,"longitude":-73.9069016},"review_count":55,"rating":3.5,"zip_code":"11385"},{"id":"Wlj9n6dT13EwteluUBACXA","name":"Tacos La Carcachita","cuisine":"Mexican","address":"Wyckoff Ave & Palmetto St","coordinates":{"latitude":40.69955,"longitude":-73.91107},"review_count":22,"rating":4.5,"zip_code":"11237"},{"id":"EIpQKo3NhAsYAZIWqxuDFQ","name":"Taqueria Restaurant Oaxaca","cuisine":"Mexican","address":"467 Central Ave","coordinates":{"latitude":40.75073,"longitude":-74.04642},"review_count":36,"rating":3.5,"zip_code":"07307"},{"id":"kZghUPIaNqRB74JL-lzHhA","name":"Fresh Taco","cuisine":"Mexican","address":"799 Cypress Ave","coordinates":{"latitude":40.7004794161793,"longitude":-73.90664935112},"review_count":80,"rating":3,"zip_code":"11385"},{"id":"FcHc4he-LK5dzeOL92MylQ","name":"Sabor Mexicano","cuisine":"Mexican","address":"Roosevelt Ave & 75th St","coordinates":{"latitude":40.7469530536088,"longitude":-73.89049248884},"review_count":19,"rating":4,"zip_code":"11372"},{"id":"vQTMu1jkFZUIkb_EmYPa9w","name":"Cinco De Mayo Restaurant","cuisine":"Mexican","address":"1028 Amsterdam Ave","coordinates":{"latitude":40.80359,"longitude":-73.96387},"review_count":22,"rating":2.5,"zip_code":"10025"},{"id":"0cgtOfYGHv3stIZb7C9wHQ","name":"La Perla Mexicana","cuisine":"Mexican","address":"281 E 149th St","coordinates":{"latitude":40.81739,"longitude":-73.9221},"review_count":32,"rating":4,"zip_code":"10451"},{"id":"D4tGzWIAM7Z3HNoNxPS2Gw","name":"El Burrito Nacho","cuisine":"Mexican","address":"1636 Broadway","coordinates":{"latitude":40.68465,"longitude":-73.91406},"review_count":36,"rating":4,"zip_code":"11207"},{"id":"HiO_eEu1kwUDM30YEjoG-g","name":"Regalo De Juquila","cuisine":"Mexican","address":"1209 Myrtle Ave","coordinates":{"latitude":40.69748,"longitude":-73.93168},"review_count":84,"rating":3,"zip_code":"11221"},{"id":"wa5jQjGJV_iYfDEelex-UA","name":"Ta Cocina","cuisine":"Mexican","address":"714 9th Ave","coordinates":{"latitude":40.762562,"longitude":-73.989206},"review_count":6,"rating":3.5,"zip_code":"10019"},{"id":"Gkm-ntQrMB42zrj_gTB3Yw","name":"Taco Bell","cuisine":"Mexican","address":"173 E. 116th Street","coordinates":{"latitude":40.7986,"longitude":-73.9417},"review_count":5,"rating":5,"zip_code":"10029"},{"id":"cpOfNDxSNyzHQmzSC6badQ","name":"Tio Taco Truck","cuisine":"Mexican","address":"51ST St Bergenline Ave","coordinates":{"latitude":40.7833218319139,"longitude":-74.0203072875738},"review_count":9,"rating":4,"zip_code":"07093"},{"id":"Ai2mbsb0cYZoMWC3DAAP3Q","name":"B'klyn Burro","cuisine":"Mexican","address":"922 Fulton St","coordinates":{"latitude":40.6827188,"longitude":-73.9640973},"review_count":67,"rating":3.5,"zip_code":"11238"},{"id":"a7QpqI_WDjo6fiedXlKpfQ","name":"Calexico Taco / Burrito Cart","cuisine":"Mexican","address":"Pier 1 Brooklyn Bridge Park","coordinates":{"latitude":40.6998302314297,"longitude":-73.9882925183047},"review_count":27,"rating":3.5,"zip_code":"11201"},{"id":"YOuxIvQh4RbX14Sh98m74Q","name":"Mr. Burrito Mexican Restaurant","cuisine":"Mexican","address":"43-20 Greenpoint Ave","coordinates":{"latitude":40.7409739,"longitude":-73.921299},"review_count":12,"rating":5,"zip_code":"11104"},{"id":"7B7lFbjmXqim9LCpr-jBQg","name":"Los Pollitos III","cuisine":"Mexican","address":"499 Myrtle Ave","coordinates":{"latitude":40.69367,"longitude":-73.96517},"review_count":112,"rating":2.5,"zip_code":"11205"},{"id":"SfPw0ZGXrqvcq_xLGSFuhA","name":"La Cueva Fonda Mexicana","cuisine":"Mexican","address":"835 E 152nd St","coordinates":{"latitude":40.81533,"longitude":-73.90412},"review_count":14,"rating":4.5,"zip_code":"10455"},{"id":"tBYX3F9xt_Iea-RR9GZrfQ","name":"Yummy Taco Mexican Restaurant","cuisine":"Mexican","address":"4814 Broadway","coordinates":{"latitude":40.7557407,"longitude":-73.9124395},"review_count":71,"rating":3,"zip_code":"11103"},{"id":"tThLkpLlETKFSbfc4vCQDw","name":"Fresh Tacos","cuisine":"Mexican","address":"4559 46th St","coordinates":{"latitude":40.741268,"longitude":-73.918899},"review_count":27,"rating":3.5,"zip_code":"11377"},{"id":"MoV1TGBXh9WMPduroGnIbQ","name":"Chipotle Mexican Grill","cuisine":"Mexican","address":"805 COLUMBUS AVENUE","coordinates":{"latitude":40.794994,"longitude":-73.965637},"review_count":21,"rating":2,"zip_code":"10025"},{"id":"_VcJzk6_WdRNFKXin221VA","name":"La Canela Restaurant & Hookah Lounge","cuisine":"Mexican","address":"25-79 Steinway St","coordinates":{"latitude":40.76586,"longitude":-73.91304},"review_count":76,"rating":2.5,"zip_code":"11103"},{"id":"lnvvEay-dxakpiscM-dZbA","name":"El Toro Bravo","cuisine":"Mexican","address":"88-12 Roosevelt Ave","coordinates":{"latitude":40.7479930621229,"longitude":-73.8780908659101},"review_count":30,"rating":4,"zip_code":"11372"},{"id":"ZGb979_FmfrwlJVhYFqJEg","name":"Cinco De Mayo","cuisine":"Mexican","address":"401 Central Ave","coordinates":{"latitude":40.7485,"longitude":-74.04792},"review_count":26,"rating":3.5,"zip_code":"07307"},{"id":"03TL_ZHn2NmNoejTTXTD3g","name":"New Mexico Place II","cuisine":"Mexican","address":"778 Seneca Ave","coordinates":{"latitude":40.7017029365783,"longitude":-73.9060716709411},"review_count":30,"rating":4,"zip_code":"11385"},{"id":"iGIBOJw2Z7-n7MHKy-RT5w","name":"Taqueria Izucar","cuisine":"Mexican","address":"1503 Myrtle Ave","coordinates":{"latitude":40.6992149,"longitude":-73.9155655},"review_count":46,"rating":4,"zip_code":"11237"},{"id":"EHT6Q9TWYp8NV11f5xBZkg","name":"Bubby's Burritos","cuisine":"Mexican","address":"440 Jersey Ave","coordinates":{"latitude":40.717377,"longitude":-74.048349},"review_count":151,"rating":2.5,"zip_code":"07302"},{"id":"FA_0DX6FwHm1Lnqz_fd9iA","name":"Mi Casita Restaurant","cuisine":"Mexican","address":"1484 Amsterdam Ave","coordinates":{"latitude":40.81795,"longitude":-73.953333},"review_count":24,"rating":2.5,"zip_code":"10031"},{"id":"TghlfLQWvNI0Nbn7X8QNqg","name":"Tacoffee","cuisine":"Mexican","address":"572 Grand St","coordinates":{"latitude":40.7110399,"longitude":-73.949},"review_count":42,"rating":3,"zip_code":"11211"},{"id":"3Ofho8rTUhqT66s_qsqJqg","name":"The Churro Man","cuisine":"Mexican","address":"L Train 6th Ave Station","coordinates":{"latitude":40.76435,"longitude":-73.97715},"review_count":3,"rating":4.5,"zip_code":"10079"},{"id":"P5gcdU1DX9M1V4W-V9o-wg","name":"The Bear","cuisine":"Mexican","address":"48 S 4th St","coordinates":{"latitude":40.71282,"longitude":-73.96666},"review_count":12,"rating":5,"zip_code":"11211"},{"id":"6-mj10b99EfRym72EuSp1w","name":"Hoboken Burrito","cuisine":"Mexican","address":"209 4th St","coordinates":{"latitude":40.7415499,"longitude":-74.03194},"review_count":40,"rating":3,"zip_code":"07030"},{"id":"ddaUQkqC53gzOGbMrdVqig","name":"El Tapatio Mexican Restaurant","cuisine":"Mexican","address":"209 E 116th St","coordinates":{"latitude":40.797908,"longitude":-73.939186},"review_count":27,"rating":2.5,"zip_code":"10029"},{"id":"JvKKqyAkecTmY_IInxsV0A","name":"Sombrero Cart","cuisine":"Mexican","address":"50TH B/w 6th And 7th","coordinates":{"latitude":40.7594833374023,"longitude":-73.989875793457},"review_count":11,"rating":3,"zip_code":"10036"},{"id":"EZZh8594pRwAM1e_WVGeFA","name":"Organic Mexican Food","cuisine":"Mexican","address":"50th Street & 6th Ave","coordinates":{"latitude":40.7598992013858,"longitude":-73.9804509576337},"review_count":4,"rating":3.5,"zip_code":"10020"},{"id":"Uj3QA_FsDcGtn_kpsIxU1w","name":"Taqueria & Deli Gloria's","cuisine":"Mexican","address":"117 Tonnelle Ave","coordinates":{"latitude":40.7352069,"longitude":-74.0671543},"review_count":25,"rating":4,"zip_code":"07306"},{"id":"vMTTFjgFKKua4VuAFX393g","name":"Antojitos Mexicanos","cuisine":"Mexican","address":"107 Graham Ave","coordinates":{"latitude":40.705406,"longitude":-73.943206},"review_count":26,"rating":3.5,"zip_code":"11206"},{"id":"yjg69OagV5rF6_V_zpEsHw","name":"Sol Azteca","cuisine":"Mexican","address":"328 Montgomery St","coordinates":{"latitude":40.719457,"longitude":-74.049676},"review_count":37,"rating":3.5,"zip_code":"07302"},{"id":"-ZQfIRtViZowsgaBZfsG4Q","name":"Villa Pancho Taqueria","cuisine":"Mexican","address":"472 Myrtle Ave","coordinates":{"latitude":40.6933447063192,"longitude":-73.9664311287236},"review_count":26,"rating":4,"zip_code":"11205"},{"id":"Fdef_OQU2h9cCu9wsDA9tw","name":"Habana To Go","cuisine":"Mexican","address":"690 Fulton St","coordinates":{"latitude":40.686004,"longitude":-73.974182},"review_count":49,"rating":3.5,"zip_code":"11217"},{"id":"5VjJtOBOOnZRx4KC71IpXQ","name":"Cruz Mexican Deli","cuisine":"Mexican","address":"3211 41st St","coordinates":{"latitude":40.75824,"longitude":-73.91822},"review_count":8,"rating":4.5,"zip_code":"11103"},{"id":"UmFhqdkv1cgUifxSP5KN9Q","name":"El Mole Poblano","cuisine":"Mexican","address":"4316 New York Ave","coordinates":{"latitude":40.77794,"longitude":-74.02301},"review_count":7,"rating":4.5,"zip_code":"07087"},{"id":"-FT-wCObDQJaXns_l8b5fw","name":"Mex 'N Roll","cuisine":"Mexican","address":"154 North 7th St","coordinates":{"latitude":40.7174719202704,"longitude":-73.9585864853214},"review_count":10,"rating":4.5,"zip_code":"11249"},{"id":"GsMmzzzGATnAnMP-HmYSqQ","name":"Leo's Restaurant","cuisine":"Mexican","address":"207 Knickerbocker Ave","coordinates":{"latitude":40.703573,"longitude":-73.926227},"review_count":43,"rating":3.5,"zip_code":"11237"},{"id":"LYDx1mo23fYTIUOpi7UojA","name":"Lucio Angelita Taco","cuisine":"Mexican","address":"E 50th St 3rd Ave","coordinates":{"latitude":40.7558553459013,"longitude":-73.970935231277},"review_count":2,"rating":5,"zip_code":"10022"},{"id":"go9fTb59h5WJ_e5Guw-Y8g","name":"Chipotle Mexican Grill","cuisine":"Mexican","address":"150 E 44th St","coordinates":{"latitude":40.7521286010742,"longitude":-73.974235534668},"review_count":18,"rating":2.5,"zip_code":"10017"},{"id":"-SYHh9DWvYuBZxkA4gfzHg","name":"Calabrije's Margaritas & Tacos","cuisine":"Mexican","address":"234 Starr St","coordinates":{"latitude":40.7055429619569,"longitude":-73.9225539192783},"review_count":24,"rating":4.5,"zip_code":"11237"},{"id":"g2LFwlFjAd9RdGC3zxwkYQ","name":"El Alto  Deli Mexican Food","cuisine":"Mexican","address":"60-01 Metropolitan Ave","coordinates":{"latitude":40.7131291,"longitude":-73.9053307},"review_count":12,"rating":5,"zip_code":"11385"},{"id":"tQDQ_hR2NNXuvkgNDc0obw","name":"A La Carte Burritos","cuisine":"Mexican","address":"","coordinates":{"latitude":40.7441062927246,"longitude":-74.0053863525391},"review_count":2,"rating":5,"zip_code":"10011"},{"id":"TC61f2--clpc5stluHkBJw","name":"Oaxaca Taqueria","cuisine":"Mexican","address":"478 Halsey St","coordinates":{"latitude":40.68334,"longitude":-73.93497},"review_count":63,"rating":3,"zip_code":"11233"},{"id":"oYmpJ1OXiYGr5IYSxlmGcw","name":"Seis Vecinos","cuisine":"Mexican","address":"640 Prospect Ave","coordinates":{"latitude":40.81533,"longitude":-73.90317},"review_count":30,"rating":3.5,"zip_code":"10455"},{"id":"V_5IS9PY4tjmYk95lDWfgg","name":"Tequilas Mexican Grill","cuisine":"Mexican","address":"245 W 14th St","coordinates":{"latitude":40.7396011352539,"longitude":-74.0014419555664},"review_count":7,"rating":3.5,"zip_code":"10011"},{"id":"oXyPSK-GWPNv4W5ARFchMg","name":"El Trancazo","cuisine":"Mexican","address":"365 Fairview Ave","coordinates":{"latitude":40.8107373,"longitude":-74.0010692},"review_count":12,"rating":4,"zip_code":"07022"},{"id":"JRiHG5F7Dc3Ce1YKBet3wA","name":"Abajo","cuisine":"Mexican","address":"301 Church St","coordinates":{"latitude":40.7192916423082,"longitude":-74.0044393390417},"review_count":7,"rating":3.5,"zip_code":"10013"},{"id":"529zJk9IcMZt4txd6ITTCA","name":"Hungry Burrito","cuisine":"Mexican","address":"510 Morgan Ave","coordinates":{"latitude":40.72167,"longitude":-73.93824},"review_count":12,"rating":4,"zip_code":"11222"},{"id":"KAxcJeeSVuJwiCACjlLnrA","name":"Quesadilla Stand","cuisine":"Mexican","address":"E 116th St","coordinates":{"latitude":40.7971822943219,"longitude":-73.938363611084},"review_count":3,"rating":4.5,"zip_code":"10029"},{"id":"zwi1iX5X6fCWCKl3wt75fA","name":"La Barbona","cuisine":"Mexican","address":"139 W 10th St","coordinates":{"latitude":40.7348019839623,"longitude":-74.0007938817143},"review_count":8,"rating":3,"zip_code":"10014"},{"id":"EHdC-1lUdVCzUgcQus4wNQ","name":"Tacos Hidalgo","cuisine":"Mexican","address":"154 Bleecker St","coordinates":{"latitude":40.728352637419,"longitude":-73.99962635664},"review_count":2,"rating":5,"zip_code":"10012"},{"id":"8MuksQTgBH-cm39lgD_OYQ","name":"Chipotle Mexican Grill","cuisine":"Mexican","address":"87-10 Northern Blvd","coordinates":{"latitude":40.7558099,"longitude":-73.88018},"review_count":42,"rating":3.5,"zip_code":"11372"},{"id":"k9UJIxW7MX9do7RZH2a9fw","name":"La Cocina Mexicana","cuisine":"Mexican","address":"217 W 85th St","coordinates":{"latitude":40.78754,"longitude":-73.9765199},"review_count":14,"rating":2.5,"zip_code":"10024"},{"id":"jYRhiPw2qCSWxZTcp3DzIg","name":"Chicazapa Mexican Restaurant","cuisine":"Mexican","address":"617 New York Ave","coordinates":{"latitude":40.7560016,"longitude":-74.0384836},"review_count":6,"rating":4.5,"zip_code":"07087"},{"id":"AGwgDMaC6m4CjOohQRIBcQ","name":"Tacos Morelos","cuisine":"Mexican","address":"75 Wall St","coordinates":{"latitude":40.7053992525685,"longitude":-74.007755112878},"review_count":2,"rating":5,"zip_code":"10005"},{"id":"Zabcg5u2MH9NLxkSuGpeNQ","name":"Surf Taco","cuisine":"Mexican","address":"62 Newark St","coordinates":{"latitude":40.7369651,"longitude":-74.0306597},"review_count":37,"rating":3,"zip_code":"07030"},{"id":"h6av58AtWYPrMf5V72Kdug","name":"Cholula Deli","cuisine":"Mexican","address":"222 Wyckoff Ave","coordinates":{"latitude":40.70095,"longitude":-73.91416},"review_count":11,"rating":4.5,"zip_code":"11237"},{"id":"LadVV0-x3FK7yIagrezX9A","name":"Elmhurst Deli & Juice Bar","cuisine":"Mexican","address":"80-03 Broadway","coordinates":{"latitude":40.7437352,"longitude":-73.8845266},"review_count":29,"rating":3.5,"zip_code":"11373"},{"id":"IgP8nLnoAroZUlc4PL-Bng","name":"El Picosito","cuisine":"Mexican","address":"8277 Broadway","coordinates":{"latitude":40.7416173,"longitude":-73.8804444},"review_count":21,"rating":4,"zip_code":"11373"},{"id":"YuBLRUuQ7J9rGZzrC91Qmg","name":"Jicama NYC","cuisine":"Mexican","address":"","coordinates":{"latitude":40.71424,"longitude":-74.00642},"review_count":13,"rating":2.5,"zip_code":"10001"},{"id":"YfU-jCv6Ea87OrL6SIeIUw","name":"Chipotle Mexican Grill","cuisine":"Mexican","address":"140 Ct St","coordinates":{"latitude":40.68922,"longitude":-73.993016},"review_count":65,"rating":3,"zip_code":"11201"},{"id":"Fb2T7vWtlVeSPR-gA5zQaw","name":"Guadalupana Deli And Victoria Restaurant","cuisine":"Mexican","address":"3789 Broadway","coordinates":{"latitude":40.8344,"longitude":-73.94496},"review_count":20,"rating":4,"zip_code":"10032"},{"id":"TV_rsstsxdcFh_YmaSSv_g","name":"Jalisco Tacos","cuisine":"Mexican","address":"214 St Anns Ave","coordinates":{"latitude":40.806244,"longitude":-73.917508},"review_count":14,"rating":4.5,"zip_code":"10454"},{"id":"bx6z2FgYUxElWDvGyeFKiw","name":"Tacos Lupita","cuisine":"Mexican","address":"1802 65th St","coordinates":{"latitude":40.6189964711666,"longitude":-73.9900372177362},"review_count":28,"rating":4.5,"zip_code":"11204"},{"id":"FWdRzK7aclibC-opHuKWYw","name":"Mi Mexico Lindo Tacos","cuisine":"Mexican","address":"Roosevelt Ave And 84th St","coordinates":{"latitude":40.7478276085227,"longitude":-73.8820692675094},"review_count":19,"rating":3.5,"zip_code":"11372"},{"id":"o5fBZCGs2HCkibIxQ2-2ig","name":"Las Margaritas Restaurant & Bar","cuisine":"Mexican","address":"6712 Fresh Pond Rd","coordinates":{"latitude":40.70541,"longitude":-73.89673},"review_count":31,"rating":4,"zip_code":"11385"},{"id":"QcyaduBa1llS3LlLfVKjZg","name":"Taco Bell","cuisine":"Mexican","address":"785 Flushing Ave","coordinates":{"latitude":40.700852,"longitude":-73.941219},"review_count":26,"rating":3.5,"zip_code":"11206"},{"id":"bfINnLLGe9sIe8rdbkZkUw","name":"Restaurante Lechonera & Pollo Sabroso","cuisine":"Mexican","address":"3326 3rd Ave 164 St","coordinates":{"latitude":40.826142342656,"longitude":-73.9077866079099},"review_count":22,"rating":4.5,"zip_code":"10456"},{"id":"q8YAM38nAsVoRcWOER9I9A","name":"Parrilladas Sunrise","cuisine":"Mexican","address":"83-11 Northern Blvd","coordinates":{"latitude":40.75597,"longitude":-73.88396},"review_count":21,"rating":4,"zip_code":"11372"},{"id":"0MqKMvDvmw6s3mnycYLcog","name":"Josefina's Restaurant","cuisine":"Mexican","address":"8440 Grand Ave","coordinates":{"latitude":40.73425,"longitude":-73.88252},"review_count":12,"rating":4.5,"zip_code":"11373"},{"id":"CNC-a__YJBBukOwLYgDp-Q","name":"Taco Bell","cuisine":"Mexican","address":"12 E. 125th Street","coordinates":{"latitude":40.806272,"longitude":-73.941829},"review_count":10,"rating":2.5,"zip_code":"10035"},{"id":"azzY-Z_inGaS3ymEh50vwA","name":"The Whiskey Annex","cuisine":"Mexican","address":"44 Berry St","coordinates":{"latitude":40.721141,"longitude":-73.956733},"review_count":8,"rating":4,"zip_code":"11249"},{"id":"ZWSFufrJhmmplm0YoFL9cw","name":"Chipotle Mexican Grill","cuisine":"Mexican","address":"130 North 4th St","coordinates":{"latitude":40.7164692878723,"longitude":-73.9601158350706},"review_count":13,"rating":4,"zip_code":"11249"},{"id":"GszV6jjdoiNCgsiIhLnSmg","name":"El Pabellon De Oro","cuisine":"Mexican","address":"1501 Westchester Ave","coordinates":{"latitude":40.8286545,"longitude":-73.8799436},"review_count":38,"rating":4,"zip_code":"10472"},{"id":"4vvi0-0o0-v2WYBx3ZwAIQ","name":"Taqueria Acatlan","cuisine":"Mexican","address":"298 Irving Ave","coordinates":{"latitude":40.6989841,"longitude":-73.9145874},"review_count":34,"rating":3.5,"zip_code":"11237"},{"id":"HDDYiEkZpVgHpCDLP4FEFw","name":"Waheyo","cuisine":"Mexican","address":"27-16 Queens Plz S","coordinates":{"latitude":40.7499503,"longitude":-73.9396376},"review_count":10,"rating":3.5,"zip_code":"11101"},{"id":"s3VRd36vPO4RNrm4XNQDWg","name":"San José Tulcingo Deli Grocery","cuisine":"Mexican","address":"109 E 153rd St","coordinates":{"latitude":40.8241674799833,"longitude":-73.9279800807582},"review_count":13,"rating":4.5,"zip_code":"10451"},{"id":"1RH0vDVLgWrzJ2T0-PGM3w","name":"Casa Imelda","cuisine":"Mexican","address":"82 S 4th St","coordinates":{"latitude":40.712414,"longitude":-73.964873},"review_count":6,"rating":5,"zip_code":"11249"},{"id":"ywQzvW5TT6hj1tbiwE4M9w","name":"Mex Carroll's Diner","cuisine":"Mexican","address":"192 Columbia St","coordinates":{"latitude":40.68556,"longitude":-74.00276},"review_count":26,"rating":3.5,"zip_code":"11231"},{"id":"pbRgb9o3hegZxWeu6wAtHw","name":"El Porton","cuisine":"Mexican","address":"576 Southern Blvd","coordinates":{"latitude":40.8123321379273,"longitude":-73.9024218544364},"review_count":20,"rating":4.5,"zip_code":"10455"},{"id":"iPgQbVC8EQWSpCR9DepCiA","name":"Taco Express","cuisine":"Mexican","address":"518 W 145th St","coordinates":{"latitude":40.8256667606842,"longitude":-73.9489048721569},"review_count":23,"rating":4,"zip_code":"10030"},{"id":"v9BMwe8sEBBZYsJAFOY7Zg","name":"Zefe's","cuisine":"Mexican","address":"1224 Myrtle Ave","coordinates":{"latitude":40.69756,"longitude":-73.92904},"review_count":43,"rating":3.5,"zip_code":"11221"},{"id":"zOAI1w8SK7snYmYMXZ0bsA","name":"Taquerias Veracruz","cuisine":"Mexican","address":"3418 Bergenline Ave","coordinates":{"latitude":40.7732719,"longitude":-74.0281401},"review_count":17,"rating":3,"zip_code":"07087"},{"id":"0XuJtcq9nMdAWyhJ_fZC-w","name":"Virgin Mary Tacos","cuisine":"Mexican","address":"370 E 28th St","coordinates":{"latitude":40.7400398,"longitude":-73.9766541},"review_count":2,"rating":4.5,"zip_code":"10016"},{"id":"GVc1Eh-Welogn5qgaK-PFA","name":"Tamale Lady","cuisine":"Mexican","address":"37 E 39th St","coordinates":{"latitude":40.750843,"longitude":-73.9801865},"review_count":2,"rating":4.5,"zip_code":"10016"},{"id":"9xilo7n2piVaOUxwlpVedA","name":"Authentic Mexican Cuisine & American Fast Food Cart","cuisine":"Mexican","address":"Metropolitan Ave And Bedford Ave","coordinates":{"latitude":40.71531,"longitude":-73.96043},"review_count":8,"rating":4,"zip_code":"11211"},{"id":"IQDOLcLk3XOV9C8l6f0Jcg","name":"Fresco Tortillas","cuisine":"Mexican","address":"819 2nd Ave","coordinates":{"latitude":40.75105,"longitude":-73.97167},"review_count":10,"rating":2.5,"zip_code":"10017"},{"id":"9ZHWNeyuUvlMKfHWbZOPjw","name":"Taco Bell","cuisine":"Mexican","address":"2020 Tonnelle Avenue","coordinates":{"latitude":40.769198,"longitude":-74.044749},"review_count":24,"rating":3,"zip_code":"07047"},{"id":"mBFnE5EDUwpZiEsSf_1piA","name":"Los Taco City Habanero","cuisine":"Mexican","address":"","coordinates":{"latitude":40.75036,"longitude":-73.94478},"review_count":7,"rating":4.5,"zip_code":"11101"},{"id":"PcYk7wz_SINkWuLNwfEzHA","name":"Chipotle Mexican Grill","cuisine":"Mexican","address":"One Metrotech Ctr","coordinates":{"latitude":40.6935204981126,"longitude":-73.9864610787331},"review_count":93,"rating":2.5,"zip_code":"11201"},{"id":"vEMveTHn23hdT2_FhV7ctQ","name":"Las Panteras Negras","cuisine":"Mexican","address":"2130 2nd Ave","coordinates":{"latitude":40.7928279303579,"longitude":-73.9406054466963},"review_count":9,"rating":3,"zip_code":"10029"},{"id":"ONUgIihg-ROELPgKiWfs7A","name":"Bushwick Taco Company","cuisine":"Mexican","address":"839 Knickerbocker Ave","coordinates":{"latitude":40.6920207,"longitude":-73.9061497},"review_count":39,"rating":4,"zip_code":"11207"},{"id":"f6mK_GJvrY8PJo-Ni1IGkQ","name":"Giovanni Pizza Restaurant","cuisine":"Mexican","address":"45-59 47th St","coordinates":{"latitude":40.7411792167517,"longitude":-73.9180011701606},"review_count":14,"rating":3.5,"zip_code":"11377"},{"id":"xD9EBKPYwBpjuIIXg4Z0Qg","name":"Freshco Burrito Taco","cuisine":"Mexican","address":"235 Sullivan St","coordinates":{"latitude":40.72977,"longitude":-73.999389},"review_count":9,"rating":2.5,"zip_code":"10012"},{"id":"Jvy_dhGSmiQM3Thf571FxA","name":"Vista Hermosa Restaurant","cuisine":"Mexican","address":"1201 Evergreen Ave","coordinates":{"latitude":40.8287,"longitude":-73.88123},"review_count":37,"rating":4,"zip_code":"10472"},{"id":"fz-d4WXR59kq42a-Lgmb7A","name":"Aldys Restaurant","cuisine":"Mexican","address":"804 8th St","coordinates":{"latitude":40.7590884,"longitude":-74.0436112},"review_count":6,"rating":4.5,"zip_code":"07087"},{"id":"kj1rtdt2Omf56nHO0CObxQ","name":"Nice Tamale Lady","cuisine":"Mexican","address":"145TH And Broadway","coordinates":{"latitude":40.82640713513,"longitude":-73.9503653707317},"review_count":9,"rating":5,"zip_code":"10031"},{"id":"lufU8ekWvTy4SBuHRnkAqg","name":"Best Buds Burritos","cuisine":"Mexican","address":"90 Kent Ave","coordinates":{"latitude":40.7213227450848,"longitude":-73.9606811106205},"review_count":4,"rating":5,"zip_code":"11249"},{"id":"OICgilPNwolv00z7d1Y37w","name":"Charritos Midtown","cuisine":"Mexican","address":"518 Washington St","coordinates":{"latitude":40.74287,"longitude":-74.02957},"review_count":50,"rating":2.5,"zip_code":"07030"},{"id":"6gl5cTB4mqpIbN2pIwD6hA","name":"City Tamale","cuisine":"Mexican","address":"1316 Oakpoint Ave","coordinates":{"latitude":40.8101615905762,"longitude":-73.884651184082},"review_count":11,"rating":4.5,"zip_code":"10474"},{"id":"OcFTc4WuaiZvpTWYQKYpXw","name":"Taco Bell","cuisine":"Mexican","address":"3509 Kennedy Blvd","coordinates":{"latitude":40.7755100558397,"longitude":-74.0304005840267},"review_count":17,"rating":3.5,"zip_code":"07087"},{"id":"HrrJ1OdstzLJCC5JQrHWGA","name":"Good Move","cuisine":"Mexican","address":"167 Nassau Ave","coordinates":{"latitude":40.7253043200226,"longitude":-73.9465199000016},"review_count":11,"rating":4.5,"zip_code":"11222"},{"id":"zWelM101EncAmJQsJjreDw","name":"Taco Bell","cuisine":"Mexican","address":"8301 37th Ave","coordinates":{"latitude":40.7499840737784,"longitude":-73.8832534647006},"review_count":22,"rating":3.5,"zip_code":"11372"},{"id":"cpQjc79sAyMJtk0VirufHA","name":"Gabriela's Tacqueria","cuisine":"Mexican","address":"700 8th Ave","coordinates":{"latitude":40.7586328147499,"longitude":-73.9884533435756},"review_count":10,"rating":2,"zip_code":"10036"},{"id":"Kwyu67VBZAFHva6t1vVbdg","name":"Los Amigos Restaurant","cuisine":"Mexican","address":"395 Central Ave","coordinates":{"latitude":40.7483041,"longitude":-74.0479536},"review_count":28,"rating":3,"zip_code":"07307"},{"id":"nHqiBVlknr_LB5A00ynijQ","name":"Fresca Tortilla","cuisine":"Mexican","address":"7009 Grand Ave","coordinates":{"latitude":40.72776,"longitude":-73.89284},"review_count":28,"rating":3,"zip_code":"11378"},{"id":"6oH3qLZrBEeSp35ols195g","name":"The Deep End","cuisine":"Mexican","address":"1080 Wyckoff Ave","coordinates":{"latitude":40.6943930345841,"longitude":-73.902355909787},"review_count":16,"rating":4.5,"zip_code":"11385"},{"id":"xP3sGOzcyK56mY0cnOXU8w","name":"Las Estrellas De Mexico","cuisine":"Mexican","address":"2421 West St","coordinates":{"latitude":40.768711,"longitude":-74.033576},"review_count":21,"rating":3,"zip_code":"07087"},{"id":"jBoNOzf-EMPrVv-wdiE77g","name":"Chipotle Mexican Grill","cuisine":"Mexican","address":"26-14 Jackson Ave","coordinates":{"latitude":40.74707,"longitude":-73.94162},"review_count":27,"rating":2,"zip_code":"11101"},{"id":"v9T2kTz50v8lAFTXYVyf6w","name":"The Mexican Culture","cuisine":"Mexican","address":"2017 Amsterdam Ave","coordinates":{"latitude":40.83476,"longitude":-73.94044},"review_count":23,"rating":3,"zip_code":"10032"},{"id":"X5sTOOvtKgZHd5F6-Usr6g","name":"Taqueria El Sinaloense","cuisine":"Mexican","address":"40-08 Case St","coordinates":{"latitude":40.7481136,"longitude":-73.8767633},"review_count":7,"rating":5,"zip_code":"11373"},{"id":"9JdDABBoWrTT24TGa9czTw","name":"Guadalajara De Dia 1","cuisine":"Mexican","address":"134 Wyckoff Ave","coordinates":{"latitude":40.7030411,"longitude":-73.9176712},"review_count":13,"rating":4,"zip_code":"11237"},{"id":"OvOtKZKydo0kmdnYpi-wHg","name":"Fresco Tortilla","cuisine":"Mexican","address":"36 Lexington Ave","coordinates":{"latitude":40.74004,"longitude":-73.98453},"review_count":13,"rating":2,"zip_code":"10010"},{"id":"9Uz4-RJQ0diKc7VyJwMCNw","name":"La Colonia","cuisine":"Mexican","address":"594 Morris Ave","coordinates":{"latitude":40.8183719982828,"longitude":-73.9222443848848},"review_count":6,"rating":4.5,"zip_code":"10451"},{"id":"7lyRdXsBq0Xo3G_RSK0q_w","name":"El Burro Mexican Grill","cuisine":"Mexican","address":"324 Suydam St","coordinates":{"latitude":40.703308,"longitude":-73.922203},"review_count":25,"rating":3,"zip_code":"11237"},{"id":"y42mG4JhfDHoy1nxqoH8eg","name":"Jesus Taco","cuisine":"Mexican","address":"501 W 145th St","coordinates":{"latitude":40.82549,"longitude":-73.94781},"review_count":63,"rating":2.5,"zip_code":"10031"},{"id":"582H9C_Udx1YUXoIj1HLdA","name":"Mexican Tortas & Tacos","cuisine":"Mexican","address":"34th St & Broadway","coordinates":{"latitude":40.7608526950241,"longitude":-73.922997088148},"review_count":10,"rating":3.5,"zip_code":"11106"},{"id":"zpWUEmDryr4_jxCu9bD5Hw","name":"The Original Fresco Tortillas","cuisine":"Mexican","address":"113 Court St","coordinates":{"latitude":40.6906,"longitude":-73.99178},"review_count":32,"rating":3,"zip_code":"11201"},{"id":"N_pegMIVbOqulhRWpLk2pQ","name":"Tacos Azteca","cuisine":"Mexican","address":"3468 Bdwy","coordinates":{"latitude":40.8272113930405,"longitude":-73.9496753681795},"review_count":15,"rating":3.5,"zip_code":"10031"},{"id":"GBTP3RPsZblxgv6-E890CQ","name":"Mexican Cart","cuisine":"Mexican","address":"2143 3rd Ave","coordinates":{"latitude":40.79866,"longitude":-73.93929},"review_count":4,"rating":4,"zip_code":"10035"},{"id":"ojvCJLGES0OyTDMN-sPU2A","name":"Azteca Mexican Food Truck","cuisine":"Mexican","address":"83-93 Park Ave","coordinates":{"latitude":40.7503664276145,"longitude":-73.9793021693897},"review_count":2,"rating":4,"zip_code":"10016"},{"id":"X_AM_wFPAjwdDnsg9VAF8A","name":"Chipotle Mexican Grill","cuisine":"Mexican","address":"1400 Broadway","coordinates":{"latitude":40.752956,"longitude":-73.986686},"review_count":16,"rating":1.5,"zip_code":"10018"},{"id":"IekPENHdWgzObg3zKfEeYQ","name":"Mike & Jen's CAMION - Modern Mexican","cuisine":"Mexican","address":"Front St","coordinates":{"latitude":40.7064006,"longitude":-74.0045771},"review_count":7,"rating":2.5,"zip_code":"10004"},{"id":"Rftb0GjAxtG1imaTofwBwQ","name":"Tacos, Twins and Trains Taco Cart","cuisine":"Mexican","address":"64 Bogart St","coordinates":{"latitude":40.7056431,"longitude":-73.9333922},"review_count":13,"rating":4.5,"zip_code":"11206"},{"id":"vWYUAjj2D1TbbhlB5-q9Fw","name":"Gloria's Mexican Food Cart","cuisine":"Mexican","address":"Nassau St At Cedar St","coordinates":{"latitude":40.7082793124574,"longitude":-74.0096247196198},"review_count":3,"rating":3.5,"zip_code":"10271"},{"id":"bly3jHNlMEiNCDTYB-qbrQ","name":"Flats Fix","cuisine":"Mexican","address":"14 E 23rd St","coordinates":{"latitude":40.74073,"longitude":-73.98839},"review_count":7,"rating":4.5,"zip_code":"10010"},{"id":"VJxfEs_j0hV5OvG5AUj9zg","name":"136th and Broadway Taco Cart","cuisine":"Mexican","address":"Broadway & W 136th St","coordinates":{"latitude":40.8208131948207,"longitude":-73.9540495845744},"review_count":4,"rating":5,"zip_code":"10031"}]}
