{"businesses":[{"id":"ogCC-lJJYnwXDvKGmKZ6Sw","name":"Woorijip Authentic Korean Food","cuisine":"Korean","address":"12 W 32nd St","coordinates":{"latitude":40.74747,"longitude":-73.98648},"review_count":2354,"rating":4,"zip_code":"10001"},{"id":"fVbUVAiLiGgLA_nxBFxyww","name":"Thursday Kitchen","cuisine":"Korean","address":"424 E 9th St","coordinates":{"latitude":40.7275,"longitude":-73.9838},"review_count":834,"rating":4.5,"zip_code":"10009"},{"id":"FZpm4_fbd6P984foOUejWg","name":"Jongro BBQ","cuisine":"Korean","address":"22 W 32nd St","coordinates":{"latitude":40.7475339,"longitude":-73.9869275},"review_count":1174,"rating":4,"zip_code":"10001"},{"id":"JeCtYANe0eqW8xe1SN3lWg","name":"Turntable Chicken Jazz","cuisine":"Korean","address":"20W 33rd St","coordinates":{"latitude":40.74828,"longitude":-73.98649},"review_count":1675,"rating":4,"zip_code":"10001"},{"id":"gXnC_aZR09BvqEQKGKFjBg","name":"BCD Tofu House","cuisine":"Korean","address":"5W 32nd St","coordinates":{"latitude":40.747503631444,"longitude":-73.9862447208321},"review_count":1558,"rating":4,"zip_code":"10001"},{"id":"6qzNc9Z9DHYYleKqrW_K3g","name":"Takashi","cuisine":"Korean","address":"456 Hudson St","coordinates":{"latitude":40.7313524,"longitude":-74.0065048},"review_count":875,"rating":4,"zip_code":"10014"},{"id":"xZ96vaoL-cQjfotmUKtjJQ","name":"Barn Joo 35","cuisine":"Korean","address":"34 W 35th St","coordinates":{"latitude":40.74964,"longitude":-73.98582},"review_count":844,"rating":4,"zip_code":"10001"},{"id":"qY1o1MhoRyN84RRhUJtvpQ","name":"Her Name Is Han","cuisine":"Korean","address":"17 E 31st St","coordinates":{"latitude":40.7462615966797,"longitude":-73.984733581543},"review_count":811,"rating":4,"zip_code":"10016"},{"id":"xWUL-j6TQyKQHIfOtetu-Q","name":"Hangawi","cuisine":"Korean","address":"12 E 32nd St","coordinates":{"latitude":40.746737,"longitude":-73.984662},"review_count":989,"rating":4,"zip_code":"10016"},{"id":"fVsH6QIJPzXpVbgmeiolsA","name":"Jungsik","cuisine":"Korean","address":"2 Harrison St","coordinates":{"latitude":40.7185910158738,"longitude":-74.0088844299316},"review_count":466,"rating":4.5,"zip_code":"10013"},{"id":"FizBsTIAJwNrImIG1mPDcg","name":"Barn Joo","cuisine":"Korean","address":"35 Union Sq W","coordinates":{"latitude":40.73684,"longitude":-73.99069},"review_count":1198,"rating":4,"zip_code":"10003"},{"id":"_saXnBy0Wq2Gb3YusWZhqw","name":"Five Senses","cuisine":"Korean","address":"9 W 32nd St","coordinates":{"latitude":40.747573158626,"longitude":-73.9863122632311},"review_count":956,"rating":4,"zip_code":"10001"},{"id":"GDWVTV11eq92ElXD9mstBw","name":"Boka","cuisine":"Korean","address":"9 St Marks Pl","coordinates":{"latitude":40.729519,"longitude":-73.989104},"review_count":1363,"rating":3.5,"zip_code":"10003"},{"id":"xe9qWNyYmsRvNGRPgW-ZcA","name":"Dons Bogam BBQ & Wine Bar","cuisine":"Korean","address":"17 E 32nd St","coordinates":{"latitude":40.74678,"longitude":-73.98437},"review_count":892,"rating":4,"zip_code":"10016"},{"id":"FeSynfcDT4qB2kDixHUQCA","name":"Danji","cuisine":"Korean","address":"346 W 52nd St","coordinates":{"latitude":40.764,"longitude":-73.98686},"review_count":842,"rating":4,"zip_code":"10019"},{"id":"x9ADy3a--S_6Oqn_1KLipA","name":"Kang Ho Dong Baekjeong","cuisine":"Korean","address":"1 E 32nd St","coordinates":{"latitude":40.747173576622,"longitude":-73.9852144232788},"review_count":925,"rating":4,"zip_code":"10016"},{"id":"KaBw8UEm8uZTV6YLsshYrQ","name":"Pocha 32","cuisine":"Korean","address":"15 W 32nd St","coordinates":{"latitude":40.747524574399,"longitude":-73.9862626791},"review_count":1279,"rating":3.5,"zip_code":"10001"},{"id":"SdESb_kSAV6b0WD813J4WQ","name":"Red Poke","cuisine":"Korean","address":"600 9th Ave","coordinates":{"latitude":40.75895,"longitude":-73.99204},"review_count":371,"rating":4.5,"zip_code":"10036"},{"id":"LjBKkUSpMwrpo99hXgtHYw","name":"Franchia Vegan Cafe","cuisine":"Korean","address":"12 Park Ave","coordinates":{"latitude":40.7474712051298,"longitude":-73.9812423408763},"review_count":759,"rating":4,"zip_code":"10016"},{"id":"lSQAmoQtmciUld36ogOoOw","name":"Cho Dang Gol Korean Restaurant","cuisine":"Korean","address":"55 W 35th St","coordinates":{"latitude":40.7502365112305,"longitude":-73.986198425293},"review_count":847,"rating":4,"zip_code":"10001"},{"id":"FsuJ7VC5vxX3wcLhFrb97Q","name":"Oiji","cuisine":"Korean","address":"119 1st Ave","coordinates":{"latitude":40.72727,"longitude":-73.98585},"review_count":382,"rating":4.5,"zip_code":"10003"},{"id":"IjQ2yGUKkvP0JIldT9vRFQ","name":"Take31","cuisine":"Korean","address":"15 E 31st St","coordinates":{"latitude":40.7463,"longitude":-73.984809},"review_count":414,"rating":4,"zip_code":"10016"},{"id":"eIPiRkf6KCo9A9Ok-Nr_ow","name":"Miss KOREA BBQ","cuisine":"Korean","address":"10 W 32nd St","coordinates":{"latitude":40.747452,"longitude":-73.986336},"review_count":1388,"rating":3.5,"zip_code":"10001"},{"id":"VbUy299ch56p4GYZTNDbvA","name":"New Wonjo Restaurant","cuisine":"Korean","address":"23 W 32nd St","coordinates":{"latitude":40.74788,"longitude":-73.98665},"review_count":1104,"rating":3.5,"zip_code":"10001"},{"id":"wfGFM8zvdw9Zs-jxsTdjww","name":"Soju Haus","cuisine":"Korean","address":"315 5th Ave","coordinates":{"latitude":40.746899,"longitude":-73.985474},"review_count":425,"rating":4,"zip_code":"10016"},{"id":"h881bFbXCIZdI99-mPOoyA","name":"Cup & Cup","cuisine":"Korean","address":"15 E 31st St","coordinates":{"latitude":40.74629,"longitude":-73.9848},"review_count":305,"rating":4,"zip_code":"10016"},{"id":"wx5XkAsviabyZdQma64Fyw","name":"Gaonnuri","cuisine":"Korean","address":"1250 Broadway","coordinates":{"latitude":40.74757,"longitude":-73.98802},"review_count":659,"rating":3.5,"zip_code":"10001"},{"id":"iXmDaPsgylG1kHPLli15MQ","name":"Fat Buddha","cuisine":"Korean","address":"212 Ave A","coordinates":{"latitude":40.7298105,"longitude":-73.9805949},"review_count":575,"rating":4,"zip_code":"10009"},{"id":"_YsHeAEyCYY03zGqlDdj-Q","name":"E-Mo","cuisine":"Korean","address":"2 W 32nd St","coordinates":{"latitude":40.7471961975098,"longitude":-73.9861907958984},"review_count":307,"rating":4,"zip_code":"10001"},{"id":"igcUHNvsKc-s-RtvUmkg2w","name":"K'OOK","cuisine":"Korean","address":"324 E 6th St","coordinates":{"latitude":40.726699,"longitude":-73.987457},"review_count":340,"rating":4,"zip_code":"10003"},{"id":"NJ7zULzFvPxrt_ILMvV7gA","name":"Mandoo Bar","cuisine":"Korean","address":"2 W 32nd St","coordinates":{"latitude":40.7472,"longitude":-73.98619},"review_count":753,"rating":3.5,"zip_code":"10001"},{"id":"5AD9nY8UrYlCVMb3Y6KeWg","name":"Bonchon Chicken - NYC 38th St","cuisine":"Korean","address":"207 W 38th St","coordinates":{"latitude":40.7537928,"longitude":-73.9891703},"review_count":927,"rating":3.5,"zip_code":"10018"},{"id":"8Si3qLOfN70ixYPhoDYr3w","name":"Kori Tribeca","cuisine":"Korean","address":"253 Church St","coordinates":{"latitude":40.7179238927678,"longitude":-74.0055401190491},"review_count":433,"rating":4,"zip_code":"10013"},{"id":"0FOE_TW-91b9wN661lZMyQ","name":"mokbar","cuisine":"Korean","address":"75 9th Ave","coordinates":{"latitude":40.74222,"longitude":-74.00466},"review_count":469,"rating":3.5,"zip_code":"10011"},{"id":"RYoc4EBUNOtgbg7c32OG9A","name":"Atoboy","cuisine":"Korean","address":"43 E 28th St","coordinates":{"latitude":40.74364,"longitude":-73.98456},"review_count":186,"rating":4.5,"zip_code":"10016"},{"id":"FPuOTMD-dmXTFz3rUsEkMg","name":"IchiUmi","cuisine":"Korean","address":"6 E 32nd St","coordinates":{"latitude":40.7465376026852,"longitude":-73.9849521865082},"review_count":1248,"rating":3,"zip_code":"10016"},{"id":"Ntm_eH5TtVsofqL6BA7f9w","name":"MADANGSUI","cuisine":"Korean","address":"35 W 35th St","coordinates":{"latitude":40.75003,"longitude":-73.985679},"review_count":600,"rating":3.5,"zip_code":"10001"},{"id":"5hUV9RDTi-DvjU_OpIit7g","name":"Bann Restaurant","cuisine":"Korean","address":"350 W 50th St","coordinates":{"latitude":40.7628273031386,"longitude":-73.9878592313522},"review_count":554,"rating":3.5,"zip_code":"10019"},{"id":"N0cfNApqwrPEqXgcf3NWmg","name":"Bonchon Chicken - New York","cuisine":"Korean","address":"325 5th Ave","coordinates":{"latitude":40.747436,"longitude":-73.985027},"review_count":848,"rating":3.5,"zip_code":"10016"},{"id":"x7vJOXizWpJPl5A7jrl1Dg","name":"Korilla BBQ","cuisine":"Korean","address":"23 3rd Ave","coordinates":{"latitude":40.7295858631617,"longitude":-73.9896542417335},"review_count":378,"rating":4,"zip_code":"10003"},{"id":"5ZCvexz7_WHJCRgC3yGczw","name":"Third Floor Cafe","cuisine":"Korean","address":"315 5th Ave","coordinates":{"latitude":40.7469,"longitude":-73.98519},"review_count":495,"rating":3.5,"zip_code":"10016"},{"id":"X8yEmEDD9ZTkHoIRFqzcRw","name":"Osamil","cuisine":"Korean","address":"5 West 31st St","coordinates":{"latitude":40.74697,"longitude":-73.9864},"review_count":199,"rating":4,"zip_code":"10001"},{"id":"vWoT1h8E2eWvIdJqpuxfdg","name":"Tofu Tofu","cuisine":"Korean","address":"96 Bowery","coordinates":{"latitude":40.7176299520983,"longitude":-73.9954301342368},"review_count":151,"rating":4.5,"zip_code":"10013"},{"id":"28CNHYULci66pJAz-0_pOg","name":"Cote","cuisine":"Korean","address":"16 W 22nd St","coordinates":{"latitude":40.7412996949476,"longitude":-73.9912893251312},"review_count":326,"rating":4,"zip_code":"10010"},{"id":"YvL7_ZXp-VAhrOCy1mb-cQ","name":"BBQ Olive Chicken","cuisine":"Korean","address":"25 W 32nd St","coordinates":{"latitude":40.7472671229607,"longitude":-73.9862868189812},"review_count":432,"rating":3.5,"zip_code":"10001"},{"id":"jSUUcyV76hlCBAyHWAOm0w","name":"Hanjan","cuisine":"Korean","address":"36 W 26th St","coordinates":{"latitude":40.7441830642509,"longitude":-73.9905130318771},"review_count":322,"rating":3.5,"zip_code":"10010"},{"id":"pcb8yK9_28uWz5CyokjwSg","name":"Bangia","cuisine":"Korean","address":"11 E 32nd St","coordinates":{"latitude":40.746854,"longitude":-73.9845201},"review_count":240,"rating":4,"zip_code":"10016"},{"id":"24me8lxwpZS1QWGf57bAqw","name":"DO Hwa","cuisine":"Korean","address":"55 Carmine St","coordinates":{"latitude":40.7299,"longitude":-74.0042},"review_count":341,"rating":3.5,"zip_code":"10014"},{"id":"J94ABP6EutD7jE3KSLM36w","name":"Hell's Chicken","cuisine":"Korean","address":"641 10th Ave","coordinates":{"latitude":40.7618612989506,"longitude":-73.9940421852417},"review_count":267,"rating":4,"zip_code":"10036"},{"id":"R18bhjYmKxpwfkwGFlWW2g","name":"Hanbat Restaurant","cuisine":"Korean","address":"53 W 35th St","coordinates":{"latitude":40.75015,"longitude":-73.9863},"review_count":427,"rating":3.5,"zip_code":"10001"},{"id":"iPc-zPgcpgeSo76xl5Jbpw","name":"The Maze","cuisine":"Korean","address":"32 W 32nd St","coordinates":{"latitude":40.74764,"longitude":-73.98724},"review_count":245,"rating":4,"zip_code":"10001"},{"id":"z28cRtpdfiJfzIp1vkMAwQ","name":"Koko Wings","cuisine":"Korean","address":"248 W 106th St","coordinates":{"latitude":40.8008499,"longitude":-73.96742},"review_count":250,"rating":3.5,"zip_code":"10025"},{"id":"YKyU0Na38C3pzemGOxlrHw","name":"Hee Korean BBQ Grill","cuisine":"Korean","address":"793 6th Ave","coordinates":{"latitude":40.7454185,"longitude":-73.9912872},"review_count":217,"rating":4,"zip_code":"10001"},{"id":"t_UObgQX6M_ZRn3tk2cXYQ","name":"Let's Meat","cuisine":"Korean","address":"307 5th Ave","coordinates":{"latitude":40.74662,"longitude":-73.98539},"review_count":113,"rating":4.5,"zip_code":"10016"},{"id":"zrjxk9o02-fs-hMcrAyaRQ","name":"Glaze Teriyaki","cuisine":"Korean","address":"139 4th Ave","coordinates":{"latitude":40.7337264,"longitude":-73.9897411},"review_count":254,"rating":3.5,"zip_code":"10003"},{"id":"-oj8yGjD32mIKQEOou-cKQ","name":"New York Kimchi","cuisine":"Korean","address":"16 W 48th St","coordinates":{"latitude":40.7577797722264,"longitude":-73.9792332050324},"review_count":242,"rating":3.5,"zip_code":"10036"},{"id":"0GN6l4FAknTFSWZhEan45A","name":"GunBae","cuisine":"Korean","address":"67 Murray St","coordinates":{"latitude":40.714683,"longitude":-74.010223},"review_count":163,"rating":4,"zip_code":"10007"},{"id":"bWRGDbQHe6alt54Acdg5ZQ","name":"K Town Chicken & Hof","cuisine":"Korean","address":"34 W 32nd St","coordinates":{"latitude":40.7477685727933,"longitude":-73.9872914067459},"review_count":286,"rating":3.5,"zip_code":"10001"},{"id":"_nywvJGzmWJEH2FceAvRbQ","name":"Purple Rice Korean Kitchen","cuisine":"Korean","address":"263 W 30th St","coordinates":{"latitude":40.74964,"longitude":-73.99466},"review_count":119,"rating":4,"zip_code":"10001"},{"id":"55jx0bYJ-odyqKKSrDXtPA","name":"MIGHTY Bowl","cuisine":"Korean","address":"817 2nd Ave","coordinates":{"latitude":40.75101,"longitude":-73.9717},"review_count":81,"rating":4,"zip_code":"10017"},{"id":"v2dtG37r1ThqtfEfiFsAUg","name":"Shanghai Mong","cuisine":"Korean","address":"30 W 32nd St","coordinates":{"latitude":40.7476119995117,"longitude":-73.9871597290039},"review_count":429,"rating":3,"zip_code":"10001"},{"id":"rtFGv0F-GBfsS-cViu-3hA","name":"Gammeeok","cuisine":"Korean","address":"9 W 32nd St","coordinates":{"latitude":40.747653,"longitude":-73.986114},"review_count":262,"rating":3.5,"zip_code":"10001"},{"id":"_FAh31lob7Dnn4iGiLIwng","name":"MUI","cuisine":"Korean","address":"10 W 32nd St","coordinates":{"latitude":40.74732,"longitude":-73.98646},"review_count":161,"rating":3.5,"zip_code":"10001"},{"id":"xtxcAUvrD4dWHJd0cwvW1A","name":"JeJu Noodle Bar","cuisine":"Korean","address":"679 Greenwich St","coordinates":{"latitude":40.73304,"longitude":-74.00734},"review_count":144,"rating":4,"zip_code":"10014"},{"id":"WlRZ4JEAVqtemQ5WQhFAFg","name":"Maru 2","cuisine":"Korean","address":"267 W 17th St","coordinates":{"latitude":40.7416362670334,"longitude":-74.0007360062909},"review_count":87,"rating":4.5,"zip_code":"10011"},{"id":"3GYAtJo-YgEQpFDQBX0dJg","name":"The Kunjip","cuisine":"Korean","address":"32 W 32nd St","coordinates":{"latitude":40.74764,"longitude":-73.98724},"review_count":709,"rating":2.5,"zip_code":"10001"},{"id":"OHuqBlHuokOviNMEy50-9w","name":"Space Mabi","cuisine":"Korean","address":"67 1st Ave","coordinates":{"latitude":40.7253733460128,"longitude":-73.9870559656067},"review_count":51,"rating":4.5,"zip_code":"10003"},{"id":"Ycz0lIQObftqCnJJvln2WQ","name":"HanaMichi","cuisine":"Korean","address":"28 W 32nd St","coordinates":{"latitude":40.7477154132864,"longitude":-73.9870278625656},"review_count":393,"rating":3,"zip_code":"10001"},{"id":"PQ2ZlhuTlJpvMUgvsAwtmQ","name":"Dong Chun Hong","cuisine":"Korean","address":"312 5th Ave","coordinates":{"latitude":40.7470559,"longitude":-73.985959},"review_count":253,"rating":3.5,"zip_code":"10001"},{"id":"xSY8MI449l9HvKJKBSlVHA","name":"Korean Express","cuisine":"Korean","address":"807 Lexington Ave","coordinates":{"latitude":40.76423,"longitude":-73.96654},"review_count":241,"rating":3.5,"zip_code":"10065"},{"id":"psqD5se4A0sv9Zn3PyUlcg","name":"K-Bap","cuisine":"Korean","address":"62 W 56th St","coordinates":{"latitude":40.7632179260254,"longitude":-73.9772415161133},"review_count":196,"rating":4,"zip_code":"10019"},{"id":"pb_cHcy8D8UC-jQ-Q524ug","name":"Som Bo","cuisine":"Korean","address":"143 8th Ave","coordinates":{"latitude":40.74192,"longitude":-74.00136},"review_count":80,"rating":4,"zip_code":"10011"},{"id":"1ozuYD1HTa4u2F_NR9uUJg","name":"Gomi","cuisine":"Korean","address":"186 Ave A","coordinates":{"latitude":40.72886,"longitude":-73.9813},"review_count":66,"rating":4.5,"zip_code":"10009"},{"id":"xTtFw7NKqzyuEFjBzvmdwA","name":"To Two Boonsik","cuisine":"Korean","address":"97 Canal St","coordinates":{"latitude":40.7155194,"longitude":-73.9939288},"review_count":95,"rating":4,"zip_code":"10002"},{"id":"p48PIvlZDQvDQJH-qnwAuw","name":"Bunn","cuisine":"Korean","address":"11 W 32nd St","coordinates":{"latitude":40.7476713,"longitude":-73.9862736},"review_count":156,"rating":3.5,"zip_code":"10001"},{"id":"186fNhLP6ymshr5-CA0Lfg","name":"GOGI 37","cuisine":"Korean","address":"252 West 37th St","coordinates":{"latitude":40.7535849,"longitude":-73.9914546},"review_count":131,"rating":4,"zip_code":"10018"},{"id":"leYx3XTNEDLn9ezoXjlA5g","name":"Krush","cuisine":"Korean","address":"2 W 32nd St","coordinates":{"latitude":40.7472,"longitude":-73.9861908},"review_count":159,"rating":3.5,"zip_code":"10001"},{"id":"6fYGuJZXiFb282D1qJzWSQ","name":"Mokja","cuisine":"Korean","address":"852 Amsterdam","coordinates":{"latitude":40.797744938993,"longitude":-73.9678908884525},"review_count":107,"rating":4,"zip_code":"10025"},{"id":"7hqT-a4DsckGJr-Mg7IztQ","name":"Glaze Teriyaki","cuisine":"Korean","address":"60 W 56th St","coordinates":{"latitude":40.763187,"longitude":-73.977183},"review_count":108,"rating":3.5,"zip_code":"10019"},{"id":"855mJPqW_Z8NbN-IagOhRQ","name":"Kraverie","cuisine":"Korean","address":"24 Mercer St","coordinates":{"latitude":40.7182269,"longitude":-74.0431363},"review_count":657,"rating":4,"zip_code":"07302"},{"id":"q4zgRy2Z-j-KUtq5tT7JzA","name":"Maroo","cuisine":"Korean","address":"1640 3rd Ave","coordinates":{"latitude":40.7824759,"longitude":-73.9513328},"review_count":108,"rating":3.5,"zip_code":"10128"},{"id":"gvUSss0MIPnNC-rph2e3vQ","name":"Mokja","cuisine":"Korean","address":"1663 1st Ave","coordinates":{"latitude":40.7774361,"longitude":-73.9492703},"review_count":88,"rating":4,"zip_code":"10028"},{"id":"2Bg8Jfl2FvH1unmvxNS0dQ","name":"Sik Gaek","cuisine":"Korean","address":"49-11 Roosevelt Ave","coordinates":{"latitude":40.743485,"longitude":-73.9148356},"review_count":496,"rating":4,"zip_code":"11377"},{"id":"l7RpTuovYPl2GsJiopIaBg","name":"BarKogi Korean Fried Chicken","cuisine":"Korean","address":"957 2nd Ave","coordinates":{"latitude":40.7554222,"longitude":-73.9684579},"review_count":457,"rating":2.5,"zip_code":"10022"},{"id":"Lw3JXLqb-OqwpxoXEi7DJw","name":"WABar Kitchen","cuisine":"Korean","address":"28 W 32nd St","coordinates":{"latitude":40.7475813,"longitude":-73.9870976},"review_count":149,"rating":3.5,"zip_code":"10001"},{"id":"yDjdbWy6x2a98e6GzXZ5yQ","name":"Topokee","cuisine":"Korean","address":"68 W 39th St","coordinates":{"latitude":40.75269,"longitude":-73.98518},"review_count":74,"rating":4,"zip_code":"10018"},{"id":"er9ZbwbNiJtb25c0ogCRdA","name":"Bread & Butter","cuisine":"Korean","address":"419 Park Ave S","coordinates":{"latitude":40.74373,"longitude":-73.98356},"review_count":219,"rating":3,"zip_code":"10016"},{"id":"j9tAoiEsgSS85QV04pY3lQ","name":"Kimchi Taco","cuisine":"Korean","address":"","coordinates":{"latitude":40.7112121582031,"longitude":-74.0148391723633},"review_count":224,"rating":3,"zip_code":"10281"},{"id":"jmniGiJ9b0P6QQiaGRUCIg","name":"Galbi Q","cuisine":"Korean","address":"W 52nd St","coordinates":{"latitude":40.7614560391404,"longitude":-73.9794576733518},"review_count":32,"rating":4.5,"zip_code":""},{"id":"bWhnp47BIgQsahhMW13utA","name":"Bowllin'","cuisine":"Korean","address":"27 Waverly Pl","coordinates":{"latitude":40.73063,"longitude":-73.99515},"review_count":86,"rating":4,"zip_code":"10003"},{"id":"DgHEzcSBotbfxW-IJPAMuQ","name":"Mill Korean","cuisine":"Korean","address":"2895 Broadway","coordinates":{"latitude":40.8060225608803,"longitude":-73.9656521669528},"review_count":291,"rating":3,"zip_code":"10025"},{"id":"Lm8_nGWG8CJM6PZYzZzvug","name":"Pelicana Chicken","cuisine":"Korean","address":"11 W 32nd St","coordinates":{"latitude":40.74761,"longitude":-73.98631},"review_count":72,"rating":4,"zip_code":"10001"},{"id":"QPTxlH9KxraVczH-Ckntxg","name":"Delicacy","cuisine":"Korean","address":"12 E 44th St","coordinates":{"latitude":40.754207,"longitude":-73.979179},"review_count":59,"rating":3.5,"zip_code":"10017"},{"id":"KEBKGGGkDhnuYdKrjzZblw","name":"Samwon Garden BBQ","cuisine":"Korean","address":"37 W 32nd St","coordinates":{"latitude":40.74811,"longitude":-73.9872},"review_count":68,"rating":4,"zip_code":"10001"},{"id":"GpV5O0ag7BPW50tp66bz3A","name":"Natural Tofu Restaurant","cuisine":"Korean","address":"40-06 Queens Blvd","coordinates":{"latitude":40.7434257,"longitude":-73.9235566},"review_count":313,"rating":3.5,"zip_code":"11104"},{"id":"6p1hVVBEXd8jtRULoRUW5g","name":"Dons Bogam Black","cuisine":"Korean","address":"276 5th Ave","coordinates":{"latitude":40.7458773458956,"longitude":-73.9866652214984},"review_count":39,"rating":4.5,"zip_code":"10001"},{"id":"Ab-oC8Wm_R73gWQYOUW_xA","name":"Unidentified Flying Chickens","cuisine":"Korean","address":"71-22 Roosevelt Ave","coordinates":{"latitude":40.746559,"longitude":-73.8940372},"review_count":565,"rating":3.5,"zip_code":"11372"},{"id":"_riKxC9lqWhUyEyU8K1ESA","name":"Kobeque","cuisine":"Korean","address":"11 W 32nd St","coordinates":{"latitude":40.7475453147469,"longitude":-73.986284328775},"review_count":65,"rating":4,"zip_code":"10001"},{"id":"iIWMaISFp4K50oHFfq2Oxw","name":"The Cast Iron Pot","cuisine":"Korean","address":"356 Bergen Blvd","coordinates":{"latitude":40.82128,"longitude":-73.99911},"review_count":303,"rating":4,"zip_code":"07022"},{"id":"8y8_xwiaBtCVYA4Jjx-5AQ","name":"Pokébāb","cuisine":"Korean","address":"209 Bedford Ave","coordinates":{"latitude":40.71683,"longitude":-73.95866},"review_count":84,"rating":4.5,"zip_code":"11211"},{"id":"2C1hZNqiWWfQJAIvS9rvDQ","name":"Ms Yoo","cuisine":"Korean","address":"163 Allen St","coordinates":{"latitude":40.72121,"longitude":-73.98978},"review_count":67,"rating":4,"zip_code":"10002"},{"id":"ojohwZNdrLMFVfRnw1nMew","name":"Ichi Cellar","cuisine":"Korean","address":"6 E 32nd St","coordinates":{"latitude":40.7467294,"longitude":-73.9848598},"review_count":77,"rating":3.5,"zip_code":"10016"},{"id":"-n5zd4kpmJdqKzvar-5v8g","name":"Gogi Grill - Hoboken","cuisine":"Korean","address":"79 Hudson St","coordinates":{"latitude":40.7362061117704,"longitude":-74.0300041437149},"review_count":138,"rating":4,"zip_code":"07030"},{"id":"ScnFqJ8J-u-tCbdNJRZb0Q","name":"OPPA New Korean BBQ","cuisine":"Korean","address":"353 W 14th St","coordinates":{"latitude":40.7408261,"longitude":-74.0047136},"review_count":41,"rating":4,"zip_code":"10014"},{"id":"UirL6YzIxgLcQtvFoHKlKA","name":"KBBQ by Korilla","cuisine":"Korean","address":"55 Spring St","coordinates":{"latitude":40.72235,"longitude":-73.99662},"review_count":40,"rating":4,"zip_code":"10012"},{"id":"pehKHPaU7Zgqf5SQ0MZmLA","name":"Bread & Butter","cuisine":"Korean","address":"303 5th Ave.","coordinates":{"latitude":40.74661,"longitude":-73.98568},"review_count":170,"rating":3,"zip_code":"10001"},{"id":"TBhTGB4PLpoKhYK8tz8vqw","name":"The Green Street","cuisine":"Korean","address":"10-39 47th Rd","coordinates":{"latitude":40.744610301821,"longitude":-73.9518984804847},"review_count":179,"rating":3.5,"zip_code":"11101"},{"id":"Q6zl1s-qLgDO6XokApuvVQ","name":"Unidentified Flying Chickens Hell's Kitchen","cuisine":"Korean","address":"528 9th Ave","coordinates":{"latitude":40.75665,"longitude":-73.99372},"review_count":61,"rating":4,"zip_code":"10018"},{"id":"5cxNrIaZFmcCzP2NKTf7vg","name":"New York Kimchi","cuisine":"Korean","address":"102 Macdougal St","coordinates":{"latitude":40.72934,"longitude":-74.00093},"review_count":83,"rating":3.5,"zip_code":"10012"},{"id":"FJ9TKLHeDoLXkk1uOwTMwg","name":"KoFoo","cuisine":"Korean","address":"67 W 23rd St","coordinates":{"latitude":40.7428284,"longitude":-73.9919281},"review_count":72,"rating":3.5,"zip_code":"10010"},{"id":"IIM-dzbOvg4x7h-AjHsq9Q","name":"Bulbap Grill","cuisine":"Korean","address":"646 Manhattan Ave","coordinates":{"latitude":40.7243,"longitude":-73.9509099},"review_count":103,"rating":4.5,"zip_code":"11222"},{"id":"QwOXPf0qBy9OYi0KLbvMew","name":"Ambrosia","cuisine":"Korean","address":"8 W 45th St","coordinates":{"latitude":40.755542755127,"longitude":-73.9803848266602},"review_count":73,"rating":3.5,"zip_code":"10036"},{"id":"Q4n9sIofNcwZ4y-3swaKKg","name":"Bapcha Korean Cuisine Cart","cuisine":"Korean","address":"W 49th St","coordinates":{"latitude":40.75856,"longitude":-73.97927},"review_count":58,"rating":3.5,"zip_code":"10020"},{"id":"vn4rgAzSoUxf_juu9nCvlw","name":"Mahji","cuisine":"Korean","address":"617 Grand St","coordinates":{"latitude":40.7114433254982,"longitude":-73.9476156974959},"review_count":127,"rating":4.5,"zip_code":"11211"},{"id":"oE0gOeRyjDU6Me0zNAsz_Q","name":"BARO by Chefs Society","cuisine":"Korean","address":"34 West 32nd St","coordinates":{"latitude":40.74769,"longitude":-73.98735},"review_count":71,"rating":3.5,"zip_code":"10001"},{"id":"UxHZhGV6Rmw9c_NMD83jvw","name":"The Starry Night","cuisine":"Korean","address":"28 W 33rd St","coordinates":{"latitude":40.7482704,"longitude":-73.9866149},"review_count":57,"rating":3.5,"zip_code":"10001"},{"id":"BIjqonwpbOqn-YRxFqcNPg","name":"Dokebi Bar & Grill","cuisine":"Korean","address":"199 Grand St","coordinates":{"latitude":40.71421,"longitude":-73.9603},"review_count":317,"rating":3.5,"zip_code":"11211"},{"id":"ADJ-QWT0eeq3ZzKz_oSCQg","name":"Seoul Garden","cuisine":"Korean","address":"34 W 32nd St","coordinates":{"latitude":40.748112,"longitude":-73.987791},"review_count":635,"rating":3.5,"zip_code":"10001"},{"id":"GyGET9rFn-0MlHY1tTOfdg","name":"Honey Bakery","cuisine":"Korean","address":"673 Bergen Ave","coordinates":{"latitude":40.7234006288634,"longitude":-74.0707274333163},"review_count":175,"rating":4.5,"zip_code":"07304"},{"id":"PV5AgWdZuropMe7nbgz2FA","name":"Noodle 32","cuisine":"Korean","address":"11 W 32nd St","coordinates":{"latitude":40.74761,"longitude":-73.98631},"review_count":54,"rating":3.5,"zip_code":"10001"},{"id":"q-QEwZi32JCnjb7zbY-PQw","name":"Soogil","cuisine":"Korean","address":"108 E 4th St","coordinates":{"latitude":40.72551,"longitude":-73.98838},"review_count":31,"rating":4,"zip_code":"10003"},{"id":"-26Q-LXjwqgY4Q47ZplfOw","name":"Mama","cuisine":"Korean","address":"11 W 32nd St","coordinates":{"latitude":40.7477035522461,"longitude":-73.9862289428711},"review_count":41,"rating":3.5,"zip_code":"10001"},{"id":"HKlcHprrOCbwMw6x71zYLg","name":"Mokja","cuisine":"Korean","address":"3519 Broadway","coordinates":{"latitude":40.7602569466645,"longitude":-73.9214469280272},"review_count":198,"rating":3.5,"zip_code":"11106"},{"id":"NfadEbrrs12TAxLVkCXgRQ","name":"Korilla BBQ - Midtown East","cuisine":"Korean","address":"672 Lexington Ave","coordinates":{"latitude":40.7601182,"longitude":-73.9699062},"review_count":47,"rating":3.5,"zip_code":"10022"},{"id":"30pqvzHrCNmnodJCRyzrTg","name":"Snacky","cuisine":"Korean","address":"187 Grand St","coordinates":{"latitude":40.71439,"longitude":-73.9607},"review_count":166,"rating":4,"zip_code":"11211"},{"id":"q1gZLXETOCkRrOESCcjdqw","name":"Doma","cuisine":"Korean","address":"43-43 41st St","coordinates":{"latitude":40.7446884,"longitude":-73.922957},"review_count":107,"rating":4,"zip_code":"11104"},{"id":"emw7TKdn-NXKOSAeETPr-A","name":"88 Kimbap","cuisine":"Korean","address":"88 Elizabeth St","coordinates":{"latitude":40.71817,"longitude":-73.99571},"review_count":42,"rating":4,"zip_code":"10013"},{"id":"zcWxZaC7pnIVe2ON4uUEDw","name":"Pelicana Chicken","cuisine":"Korean","address":"47-08 Greenpoint Ave","coordinates":{"latitude":40.74236,"longitude":-73.91755},"review_count":181,"rating":4,"zip_code":"11104"},{"id":"EKkHfSYTm266-ZBve3SdgA","name":"Yoon Haeundae Galbi","cuisine":"Korean","address":"8 W 36th St","coordinates":{"latitude":40.74997,"longitude":-73.98442},"review_count":40,"rating":4.5,"zip_code":"10018"},{"id":"KS0aRZlR9j4IwlsFo1_VkQ","name":"Ahri's Kitchen","cuisine":"Korean","address":"227 7th St","coordinates":{"latitude":40.725925,"longitude":-74.043793},"review_count":235,"rating":4,"zip_code":"07302"},{"id":"LxwwqCCIhRamlIykyG18uA","name":"Chicken Factory","cuisine":"Korean","address":"529 Washington St","coordinates":{"latitude":40.74304,"longitude":-74.02883},"review_count":142,"rating":3.5,"zip_code":"07030"},{"id":"MrFEQaMci5d7OkMLqEq-tw","name":"BBQ Chicken & Beer","cuisine":"Korean","address":"651 Anderson Ave","coordinates":{"latitude":40.82661,"longitude":-73.98751},"review_count":147,"rating":4,"zip_code":"07010"},{"id":"d6vs1a7nVwhRVk4Ld89_hQ","name":"Roll & Katsu Kitchen","cuisine":"Korean","address":"11 W 32nd St","coordinates":{"latitude":40.7477035522461,"longitude":-73.9862289428711},"review_count":49,"rating":3.5,"zip_code":"10001"},{"id":"TlgASrwWFlnx9D1ZiKjJbA","name":"Dotory","cuisine":"Korean","address":"353 Broadway","coordinates":{"latitude":40.7077639892315,"longitude":-73.9556983116741},"review_count":130,"rating":4,"zip_code":"11211"},{"id":"iYjIBo73l5UHRfQGBaZaEg","name":"Little Dokebi","cuisine":"Korean","address":"85 Driggs Ave","coordinates":{"latitude":40.723048,"longitude":-73.942335},"review_count":105,"rating":4,"zip_code":"11222"},{"id":"cOXYWZ_GTX-_ue_kveguRg","name":"SSAM","cuisine":"Korean","address":"170 Smith St","coordinates":{"latitude":40.68594,"longitude":-73.991274},"review_count":283,"rating":4,"zip_code":"11201"},{"id":"ufBkr8JaT5rP-ndrGydasg","name":"Frame Gourmet Eatery","cuisine":"Korean","address":"552 7th Ave","coordinates":{"latitude":40.754638,"longitude":-73.98838},"review_count":56,"rating":3,"zip_code":"10018"},{"id":"87C1A7TyutLNCZxBPCdWsQ","name":"Cafe Hestia","cuisine":"Korean","address":"513 7th Ave","coordinates":{"latitude":40.753127852035,"longitude":-73.988746209787},"review_count":88,"rating":3,"zip_code":"10018"},{"id":"D8HgGDbL5dvkAtq6O0zTpw","name":"Bonchon Chicken - Astoria","cuisine":"Korean","address":"25-30 Broadway","coordinates":{"latitude":40.762719,"longitude":-73.927572},"review_count":140,"rating":3.5,"zip_code":"11106"},{"id":"eZ2eaBKoeqaY7C-_ZbKgPg","name":"The Gochujang","cuisine":"Korean","address":"11 W 32nd St","coordinates":{"latitude":40.7478744,"longitude":-73.9867252},"review_count":45,"rating":3,"zip_code":"10001"},{"id":"YxCLC_Jv5svNgfJdwu9rJg","name":"Cafe De Novo","cuisine":"Korean","address":"94 1/2 Greenwich St","coordinates":{"latitude":40.7081208335465,"longitude":-74.0138110214958},"review_count":75,"rating":3,"zip_code":"10006"},{"id":"BurPcTWDBckKCs9jUXHk-Q","name":"Hmart","cuisine":"Korean","address":"321 Broad Ave.","coordinates":{"latitude":40.82457,"longitude":-74.01068},"review_count":123,"rating":4,"zip_code":"07657"},{"id":"ZtjF2N3eYOjtnI3cES2fpw","name":"Duke Eatery","cuisine":"Korean","address":"300 Park Ave","coordinates":{"latitude":40.7569688575924,"longitude":-73.9750746534424},"review_count":22,"rating":4,"zip_code":"10022"},{"id":"2HpXUFgnQPxsUYPDXJ8E7g","name":"Bulgogi & Kimchi Street Cart","cuisine":"Korean","address":"49TH St And 6th Ave","coordinates":{"latitude":40.7592712341372,"longitude":-73.9808887692688},"review_count":32,"rating":3.5,"zip_code":"10020"},{"id":"NVq6ZTNnQucOBNn5m6ubow","name":"Grace Cafe","cuisine":"Korean","address":"572 8th Ave","coordinates":{"latitude":40.7547799,"longitude":-73.99135},"review_count":21,"rating":4,"zip_code":"10018"},{"id":"L7_siqDfU4-ZA17YtA-SBg","name":"SilverFactory","cuisine":"Korean","address":"270 South 5th St","coordinates":{"latitude":40.70933,"longitude":-73.95854},"review_count":50,"rating":4.5,"zip_code":"11211"},{"id":"0zcgBHXbaJn0ZxgpcTJ1aQ","name":"Nostrand Cafe","cuisine":"Korean","address":"261 Nostrand Ave","coordinates":{"latitude":40.68978,"longitude":-73.95114},"review_count":74,"rating":4.5,"zip_code":"11216"},{"id":"Wt306odjwl9oRhN04IMLNw","name":"Essen","cuisine":"Korean","address":"519 8th Ave","coordinates":{"latitude":40.75341,"longitude":-73.99302},"review_count":66,"rating":2.5,"zip_code":"10018"},{"id":"2jkR9i54loLxuaowoPX5Fw","name":"Kimbap Lab","cuisine":"Korean","address":"238 Bedford Ave","coordinates":{"latitude":40.7160796970129,"longitude":-73.9596880227327},"review_count":25,"rating":5,"zip_code":"11249"},{"id":"a72Ef9G4VV1i-POTZJvbHg","name":"Kim Na Food Truck","cuisine":"Korean","address":"E 25th St Lexington Ave","coordinates":{"latitude":40.7408026524036,"longitude":-73.9838092822248},"review_count":19,"rating":3.5,"zip_code":""},{"id":"wN-hoadc2CeK9yDJVud_OA","name":"New York Kimchi","cuisine":"Korean","address":"160 E 23rd St","coordinates":{"latitude":40.7388617479947,"longitude":-73.9836484472087},"review_count":30,"rating":3.5,"zip_code":"10010"},{"id":"47r2XzhXKcbPIb785mvK3g","name":"Bada Story","cuisine":"Korean","address":"799 Abbott Blvd","coordinates":{"latitude":40.831231,"longitude":-73.9827123},"review_count":112,"rating":4,"zip_code":"07024"},{"id":"N-85msuK0HE5qOp3BpPPEA","name":"Cafe Arte","cuisine":"Korean","address":"75 Wall St","coordinates":{"latitude":40.7053062780755,"longitude":-74.0077696334368},"review_count":31,"rating":3.5,"zip_code":"10005"},{"id":"oKd02vbJ5jvseMR8YdsG9w","name":"Korea House","cuisine":"Korean","address":"17 W 32nd St","coordinates":{"latitude":40.7476631904446,"longitude":-73.9862516747779},"review_count":44,"rating":3,"zip_code":"10001"},{"id":"SwydWCzIZ_bSp-8HeM4DTA","name":"GoGo-Gi","cuisine":"Korean","address":"3908 Broadway","coordinates":{"latitude":40.83794,"longitude":-73.94171},"review_count":146,"rating":4,"zip_code":"10032"},{"id":"XXD9wgu9ns4_BFKubKJ5eQ","name":"Kini","cuisine":"Korean","address":"42-27 35th Ave","coordinates":{"latitude":40.7541609,"longitude":-73.9196942},"review_count":50,"rating":4,"zip_code":"11101"},{"id":"OMF0rN7FHM2KovR8hJVbKA","name":"Kimchee Market","cuisine":"Korean","address":"191 Greenpoint Ave","coordinates":{"latitude":40.73063,"longitude":-73.95195},"review_count":29,"rating":4,"zip_code":"11222"},{"id":"6cmqR1QpSFmkwchD3Gwurw","name":"Korilla BBQ","cuisine":"Korean","address":"237 Park Ave","coordinates":{"latitude":40.818878,"longitude":-73.991317},"review_count":28,"rating":3.5,"zip_code":"10029"},{"id":"J0V2C6wAkHMLD9j7I50_ZQ","name":"So Gong Dong","cuisine":"Korean","address":"725 River Rd","coordinates":{"latitude":40.8187806209541,"longitude":-73.9768947349182},"review_count":98,"rating":4,"zip_code":"07020"},{"id":"uJJGpuvwCComknuHj8AKbQ","name":"Chung Ki Wa Restaurant","cuisine":"Korean","address":"4006 74th St","coordinates":{"latitude":40.746494,"longitude":-73.891639},"review_count":145,"rating":3.5,"zip_code":"11373"},{"id":"D4QotfnCpx1zgafuKoN5QQ","name":"Obaltan","cuisine":"Korean","address":"799 Abbot Blvd","coordinates":{"latitude":40.8314694,"longitude":-73.9829498},"review_count":49,"rating":4.5,"zip_code":"07024"},{"id":"goiC5SOda-HPDEx6YwvPgQ","name":"Bob & Jo","cuisine":"Korean","address":"47 St Madison Ave","coordinates":{"latitude":40.742883,"longitude":-73.9863104},"review_count":49,"rating":3,"zip_code":"10019"},{"id":"g-Fe-czz3PrpZkb0U88R2w","name":"232 Taste Korea","cuisine":"Korean","address":"232 Taaffe Pl","coordinates":{"latitude":40.691081049956,"longitude":-73.959718469777},"review_count":156,"rating":3.5,"zip_code":"11205"},{"id":"FAALx4s7PBtCZWKFqRNPNQ","name":"Tiger Box","cuisine":"Korean","address":"169 Park Ave","coordinates":{"latitude":40.6963379,"longitude":-73.972758},"review_count":39,"rating":4.5,"zip_code":"11205"},{"id":"yEpkPwO6uLfmzp1BMJBUFg","name":"Hae Woon Dae","cuisine":"Korean","address":"7532 Broadway","coordinates":{"latitude":40.745693,"longitude":-73.889588},"review_count":145,"rating":3.5,"zip_code":"11373"},{"id":"fIt-pfNt3YQz7nHgqJHUqg","name":"Chingu New Korean","cuisine":"Korean","address":"1107 Broadway","coordinates":{"latitude":40.7426893581315,"longitude":-73.9891366685257},"review_count":15,"rating":4,"zip_code":"10010"},{"id":"XtuJ1t5EI1QHxs7rZOPytA","name":"Hanok","cuisine":"Korean","address":"11 W 32nd St","coordinates":{"latitude":40.747682,"longitude":-73.986108},"review_count":36,"rating":2.5,"zip_code":"10001"},{"id":"5NyOV1yaipv9FpiHRriDwg","name":"Jin Jja Roo","cuisine":"Korean","address":"11 W 32nd St","coordinates":{"latitude":40.7478790283203,"longitude":-73.9875183105469},"review_count":16,"rating":3.5,"zip_code":"10016"},{"id":"D8STvGfz5CjczxmEhbJz_Q","name":"P S Plus Deli","cuisine":"Korean","address":"666 Sixth Ave","coordinates":{"latitude":40.7413814,"longitude":-73.9938844},"review_count":10,"rating":4,"zip_code":"10010"},{"id":"WbZhH2j8i3GhNsOsviM1VQ","name":"Bonchon Chicken - Jersey City","cuisine":"Korean","address":"172 Newark Ave","coordinates":{"latitude":40.72137,"longitude":-74.045},"review_count":202,"rating":3,"zip_code":"07302"},{"id":"v6RjG3uaY7QkXdNLsHB5jA","name":"Yogi Korean Grill","cuisine":"Korean","address":"47TH And 3rd","coordinates":{"latitude":40.7539406,"longitude":-73.9721375},"review_count":6,"rating":4.5,"zip_code":"10017"},{"id":"MGnPEB_q0DICnIRR0ulSzA","name":"Daeji Ssonday Bbq Restaurant","cuisine":"Korean","address":"321 Broad Ave","coordinates":{"latitude":40.82457,"longitude":-74.0106799},"review_count":60,"rating":4,"zip_code":"07657"},{"id":"cCqnycFCGIEiJJm3-A_BTg","name":"Wich- One","cuisine":"Korean","address":"529 Anderson Ave","coordinates":{"latitude":40.82267,"longitude":-73.99023},"review_count":28,"rating":5,"zip_code":"07010"},{"id":"_vQugjzPLr-4udYpiISieA","name":"Gopchang Story BBQ","cuisine":"Korean","address":"312 W 5th Ave","coordinates":{"latitude":40.74707,"longitude":-73.98597},"review_count":25,"rating":4,"zip_code":"10001"},{"id":"vuccqiNbe1nDqajthJR-KQ","name":"Bonchon","cuisine":"Korean","address":"267 W 23rd St","coordinates":{"latitude":40.7453339140814,"longitude":-73.9978394302478},"review_count":29,"rating":3,"zip_code":"10011"},{"id":"Op43gk4VHEhENJGs-FKi3g","name":"Garlic To the Chicken","cuisine":"Korean","address":"66-92 Forest Ave","coordinates":{"latitude":40.7049523,"longitude":-73.9022751},"review_count":52,"rating":4,"zip_code":"11385"},{"id":"YK-7Ajz_IpVpblX1kqWsNg","name":"Soram","cuisine":"Korean","address":"321 Broad Ave","coordinates":{"latitude":40.82457,"longitude":-74.01068},"review_count":52,"rating":4,"zip_code":"07657"},{"id":"8Fij9sx69MUc5iQl-5PzMw","name":"Fire Belly Korean Bbq","cuisine":"Korean","address":"2-4 W 25th St","coordinates":{"latitude":40.7427943262379,"longitude":-73.9889753165311},"review_count":16,"rating":3,"zip_code":"10010"},{"id":"l5RfUiZkTArExQxaiH0IcA","name":"K-Town BBQ","cuisine":"Korean","address":"2 West 32nd St","coordinates":{"latitude":40.7472,"longitude":-73.98619},"review_count":11,"rating":4,"zip_code":"10001"},{"id":"ly_nBcTHykqWvaP-vdZ2lg","name":"Bob's Lunch Box","cuisine":"Korean","address":"1-9 West 32nd St","coordinates":{"latitude":40.7476616,"longitude":-73.9861069},"review_count":22,"rating":2.5,"zip_code":"10001"},{"id":"PV3y67SO_Z9Z7rYqLIdTMg","name":"Boon Sik Zip","cuisine":"Korean","address":"11 W 32nd St","coordinates":{"latitude":40.74761,"longitude":-73.98631},"review_count":6,"rating":4,"zip_code":"10001"},{"id":"5WxJpbVulMGpr80XFwiRkQ","name":"OPPA New Korean BBQ","cuisine":"Korean","address":"265 Canal St","coordinates":{"latitude":40.7189760361914,"longitude":-74.000948898184},"review_count":20,"rating":3,"zip_code":"10013"},{"id":"8p7Z3TaJCQWoCz5iBmMLWQ","name":"Kimchi Smoke","cuisine":"Korean","address":"70 Kent Ave","coordinates":{"latitude":40.7211273950579,"longitude":-73.9619713048818},"review_count":9,"rating":4.5,"zip_code":"11249"},{"id":"9GEPKXerLoWIKefSvfnurw","name":"Duri Pocha","cuisine":"Korean","address":"441 Broad Ave","coordinates":{"latitude":40.8288801,"longitude":-74.0104649},"review_count":21,"rating":4,"zip_code":"07657"},{"id":"sN5DM0aBacVUZ1uCrODJbw","name":"Cuisine K","cuisine":"Korean","address":"242-258 Greenwich St","coordinates":{"latitude":40.7145575491987,"longitude":-74.0115081595686},"review_count":6,"rating":3.5,"zip_code":"10007"},{"id":"JVNH3KfshX0ZcAe7_UJFAw","name":"Glaze Teriyaki","cuisine":"Korean","address":"145 N 4th St","coordinates":{"latitude":40.7161521911621,"longitude":-73.959098815918},"review_count":36,"rating":3.5,"zip_code":"11211"},{"id":"ucO0J9f1m7bIs1nQclzSeQ","name":"Pan-Tastic Q","cuisine":"Korean","address":"4202 Northern Blvd","coordinates":{"latitude":40.7522769,"longitude":-73.9212728},"review_count":23,"rating":3.5,"zip_code":"11101"},{"id":"iOP5--ysHdx8tllieeSsig","name":"Sushi Jun","cuisine":"Korean","address":"875 3rd Ave","coordinates":{"latitude":40.75722,"longitude":-73.96919},"review_count":11,"rating":2.5,"zip_code":"10022"},{"id":"VNfodDUNKTJgD1jQJMDc8A","name":"Food Avenue","cuisine":"Korean","address":"321 Broad Ave","coordinates":{"latitude":40.8249466325985,"longitude":-74.0096468478441},"review_count":11,"rating":4,"zip_code":"07657"},{"id":"2v7QGK9pwtWmtSEcmYGPog","name":"madnoodle","cuisine":"Korean","address":"11 West 32nd St","coordinates":{"latitude":40.747668860844,"longitude":-73.9860774000823},"review_count":9,"rating":3.5,"zip_code":"10001"},{"id":"0VlqmEkR6HSXvDi1po99XQ","name":"DoShe Korean BBQ & Bar","cuisine":"Korean","address":"8 Erie St","coordinates":{"latitude":40.72128,"longitude":-74.04407},"review_count":75,"rating":3,"zip_code":"07302"},{"id":"uzB0NlKpOzspK3RV9Eitww","name":"Deli Manjoo","cuisine":"Korean","address":"Korea Way","coordinates":{"latitude":40.7502799,"longitude":-73.99687},"review_count":7,"rating":3,"zip_code":"10001"},{"id":"3oKGId6hWg3x-zGmhlStLg","name":"Korilla BBQ","cuisine":"Korean","address":"2 MetroTech Ctr","coordinates":{"latitude":40.6935414945595,"longitude":-73.9858423383398},"review_count":22,"rating":4,"zip_code":"11201"},{"id":"YXlsstkOKxt2SaOgxUXj1Q","name":"H Mart","cuisine":"Korean","address":"2828 Broadway","coordinates":{"latitude":40.8042765057153,"longitude":-73.9663750978919},"review_count":7,"rating":3.5,"zip_code":"10025"},{"id":"e4V1FyyinsugJiNYlPbjRA","name":"Sushi Citi","cuisine":"Korean","address":"2501 Jackson Ave","coordinates":{"latitude":40.7470588684082,"longitude":-73.9440612792969},"review_count":6,"rating":4,"zip_code":"11101"},{"id":"qD7B0my-e0A0JjdDv6vaFw","name":"Pro Bagel & Deli","cuisine":"Korean","address":"62 W 56th St","coordinates":{"latitude":40.76332,"longitude":-73.97717},"review_count":6,"rating":3,"zip_code":"10019"},{"id":"VdmaD1hWf944YEnlM-EGmA","name":"Belly at Gansevoort Market","cuisine":"Korean","address":"353 W 14th St","coordinates":{"latitude":40.7408261,"longitude":-74.0047136},"review_count":3,"rating":4.5,"zip_code":"10014"},{"id":"NDNdv06TUHhvQV1VYgrr3w","name":"Brasserie Séoul","cuisine":"Korean","address":"300 Schermerhorn St","coordinates":{"latitude":40.6874899,"longitude":-73.98258},"review_count":15,"rating":4,"zip_code":"11217"},{"id":"u6pOaAP5NwJXXXwykVrGvA","name":"Kimbobs Little Asia","cuisine":"Korean","address":"347 1st Ave","coordinates":{"latitude":40.7352867126465,"longitude":-73.9800338745117},"review_count":7,"rating":2.5,"zip_code":"10010"},{"id":"toqDpg0qMq-TOxJ2n7FbPQ","name":"Bang Ga Nae","cuisine":"Korean","address":"518 Broad Ave","coordinates":{"latitude":40.8339181186311,"longitude":-74.0092921257019},"review_count":8,"rating":4.5,"zip_code":"07657"},{"id":"46uJ0Im-ZLJNd-FZDB_H8g","name":"Han Chon Food Court","cuisine":"Korean","address":"321 Broad Ave","coordinates":{"latitude":40.8245697021484,"longitude":-74.0106811523438},"review_count":7,"rating":4.5,"zip_code":"07657"},{"id":"NiMLFWCL65B_YFUAW3yo_Q","name":"Korean Food Cart","cuisine":"Korean","address":"49TH And 6th Ave","coordinates":{"latitude":40.7592712341372,"longitude":-73.9808887692688},"review_count":2,"rating":4,"zip_code":"10020"},{"id":"zuWYbnkzlWrNYTRFFduMug","name":"Bang Family Restaurant","cuisine":"Korean","address":"320 Bergen Blvd","coordinates":{"latitude":40.82018,"longitude":-73.99984},"review_count":12,"rating":4,"zip_code":"07022"},{"id":"YM_nO8jUEfrKwIycDYfvjA","name":"Stop & Eat","cuisine":"Korean","address":"39 West 31st St","coordinates":{"latitude":40.7473052235336,"longitude":-73.9874237403274},"review_count":2,"rating":5,"zip_code":"10001"},{"id":"GazJ5_JArwtAacygzxqDIQ","name":"Nadoori","cuisine":"Korean","address":"105 E 9th St","coordinates":{"latitude":40.7305374145508,"longitude":-73.9900512695312},"review_count":5,"rating":3,"zip_code":"10003"},{"id":"q5rN0Ygl0Zoq6cyWfcDwvA","name":"Wing Club","cuisine":"Korean","address":"353 W 14th St","coordinates":{"latitude":40.7408498,"longitude":-74.0046958},"review_count":4,"rating":4.5,"zip_code":"10014"},{"id":"wCyWSffnFvbeJJg5tfZ5iA","name":"Hanshin","cuisine":"Korean","address":"261 Broad Ave","coordinates":{"latitude":40.8229026794434,"longitude":-74.009147644043},"review_count":8,"rating":3,"zip_code":"07022"},{"id":"Jd9ouBzQ5Lm8wmrS77DUGQ","name":"O-de-ppang!","cuisine":"Korean","address":"11 W 32nd St","coordinates":{"latitude":40.74761,"longitude":-73.98631},"review_count":4,"rating":2.5,"zip_code":"10001"},{"id":"7tblaphsFxRp298WUCxBCg","name":"Moya","cuisine":"Korean","address":"793 6th Ave","coordinates":{"latitude":40.7453536987305,"longitude":-73.9912185668945},"review_count":5,"rating":2,"zip_code":"10001"},{"id":"aAphwh1iYl3oCk5eHgs_yg","name":"Myung Ga Tofu and B.B.Q. Restaurant","cuisine":"Korean","address":"261 Broad Ave","coordinates":{"latitude":40.822902,"longitude":-74.009147},"review_count":10,"rating":3.5,"zip_code":"07022"},{"id":"dj_MzBCMIwDOTvW3kWIC8g","name":"EJEN Korean Comfort Food","cuisine":"Korean","address":"5-25 46th Ave","coordinates":{"latitude":40.7473221,"longitude":-73.9543266},"review_count":2,"rating":5,"zip_code":"11101"},{"id":"9rA-5zXQFxkuhCdui3NX1A","name":"Maru Kitchen","cuisine":"Korean","address":"631 Anderson Ave","coordinates":{"latitude":40.82577,"longitude":-73.9879},"review_count":5,"rating":4,"zip_code":"07010"},{"id":"ZvKv8yEEadrdxuhlZ2nyiw","name":"Kosofresh","cuisine":"Korean","address":"5-25 46th Ave","coordinates":{"latitude":40.7503860860431,"longitude":-73.9436618469007},"review_count":3,"rating":4.5,"zip_code":"11101"},{"id":"ROd1-BIqaW0HDDZtyoUgbQ","name":"Chingu's New Korean","cuisine":"Korean","address":"1107 Broadway","coordinates":{"latitude":40.7488436855265,"longitude":-73.9880524849005},"review_count":1,"rating":3,"zip_code":"10001"},{"id":"vihqZLKtAy7QDPuzpZ6iOg","name":"Book Chang Dong","cuisine":"Korean","address":"17 W 32nd St","coordinates":{"latitude":40.7478218078613,"longitude":-73.9865112304688},"review_count":1,"rating":3,"zip_code":"10001"},{"id":"Tckrv_g2Ncx0OkYmIa-sJQ","name":"Na Rae Mi Restaurant","cuisine":"Korean","address":"11 W 32nd St","coordinates":{"latitude":40.74761,"longitude":-73.98631},"review_count":1,"rating":3,"zip_code":"10001"},{"id":"LATqi_HwR2KoM9BeqVuXyQ","name":"Natural Tofu","cuisine":"Korean","address":"34 W 32nd St","coordinates":{"latitude":40.747688293457,"longitude":-73.9873504638672},"review_count":1,"rating":3,"zip_code":"10001"},{"id":"AOv3W98NlagTNKP2zxKkLQ","name":"Koritori","cuisine":"Korean","address":"253 Church St","coordinates":{"latitude":40.7178612,"longitude":-74.0053406},"review_count":3,"rating":4.5,"zip_code":"10013"},{"id":"tObU6_Ey12p-lgVUxxqZeA","name":"Kimchi Bowl","cuisine":"Korean","address":"","coordinates":{"latitude":40.7492790222168,"longitude":-73.9925918579102},"review_count":2,"rating":3,"zip_code":"10001"},{"id":"GUtsAB1ewGhfBfyYsT4GOg","name":"Yu Chon","cuisine":"Korean","address":null,"coordinates":{"latitude":40.7391624450684,"longitude":-73.9829483032227},"review_count":1,"rating":2,"zip_code":"10010"},{"id":"fu1VdOQv6ISAi26nhvgxZg","name":"Keun Jip Bang Ga Ne","cuisine":"Korean","address":"320 Bergen Blvd","coordinates":{"latitude":40.820179,"longitude":-73.9998398},"review_count":1,"rating":5,"zip_code":"07022"},{"id":"DMqyqYGmgthNo-_g15SYaw","name":"SandoBap","cuisine":"Korean","address":"918 Broadway","coordinates":{"latitude":40.697154,"longitude":-73.936241},"review_count":3,"rating":3.5,"zip_code":"11206"},{"id":"JDTgsd-sEcCoENDe8W2VVw","name":"Café 232","cuisine":"Korean","address":"232 Taaffe Pl","coordinates":{"latitude":40.6909146742084,"longitude":-73.9595839827104},"review_count":1,"rating":5,"zip_code":"11205"},{"id":"HDoJIH-qW9FqJ5WB-bKTqA","name":"MIGHTY Bowl","cuisine":"Korean","address":"1109 Lexington Ave","coordinates":{"latitude":40.7738,"longitude":-73.95945},"review_count":2,"rating":5,"zip_code":"10075"},{"id":"MwqkDr31rsHV31IqFRruDw","name":"R Music Bistro Bar","cuisine":"Korean","address":"314 5th Ave","coordinates":{"latitude":40.747127,"longitude":-73.985923},"review_count":1,"rating":5,"zip_code":"10001"},{"id":"dT29Lc-VVb8EQ9b78ztTLA","name":"Gogi Grill - Chelsea","cuisine":"Korean","address":"599 6th Ave","coordinates":{"latitude":40.73959,"longitude":-73.99556},"review_count":2,"rating":5,"zip_code":"10011"},{"id":"wlHbvHCKexLnrRaqDn-INg","name":"Cafe Water","cuisine":"Korean","address":"519 6th Ave","coordinates":{"latitude":40.73715,"longitude":-73.99732},"review_count":1,"rating":5,"zip_code":"10011"},{"id":"W8klIp0hw6lbrqpIar5AKg","name":"The Bari","cuisine":"Korean","address":"417 Lafayette St","coordinates":{"latitude":40.72862,"longitude":-73.99227},"review_count":2,"rating":5,"zip_code":"10003"},{"id":"1CY0Mk1PXIUoVLsLhPq75A","name":"KALBI","cuisine":"Korean","address":"117TH ST & BROADWAY","coordinates":{"latitude":40.8088083994982,"longitude":-73.9631333202124},"review_count":2,"rating":5,"zip_code":"10026"},{"id":"P289ym2atWI1Gb9xaEie9A","name":"Pelicana Chicken","cuisine":"Korean","address":"941 Manhattan Ave","coordinates":{"latitude":40.731408,"longitude":-73.954702},"review_count":2,"rating":3.5,"zip_code":"11222"},{"id":"NeokAVr_On12_Qz3qy40yQ","name":"Kichin at Baby's All Right","cuisine":"Korean","address":"146 Broadway","coordinates":{"latitude":40.709999,"longitude":-73.963494},"review_count":3,"rating":3.5,"zip_code":"11211"}]}
