{"businesses":[{"id":"KvLrI20Abz6F9WzAIHmyWQ","name":"Cafe R","cuisine":"American","address":"116 W 32nd St","coordinates":{"latitude":40.74883,"longitude":-73.98972},"review_count":240,"rating":3,"zip_code":"10001"},{"id":"BFhqkWaninG54vhiX8ppVw","name":"Freud","cuisine":"American","address":"506 Laguardia Pl","coordinates":{"latitude":40.727733,"longitude":-73.999557},"review_count":69,"rating":4,"zip_code":"10012"},{"id":"-_4i_FQ1Tt_aMU904O82Ow","name":"Crompton Ale House","cuisine":"American","address":"159 W 26th St","coordinates":{"latitude":40.7459087,"longitude":-73.9937093},"review_count":130,"rating":3.5,"zip_code":"10001"},{"id":"idyZhq9vMaYxQ40hYH2x5g","name":"Cafe Bari","cuisine":"American","address":"276 Canal St","coordinates":{"latitude":40.71909,"longitude":-74.00173},"review_count":65,"rating":4,"zip_code":"10013"},{"id":"E3MkTTS4ZDjWV9YT5i6eUg","name":"Houseman","cuisine":"American","address":"508 Greenwich St","coordinates":{"latitude":40.7256288347129,"longitude":-74.0092368030346},"review_count":73,"rating":4,"zip_code":"10013"},{"id":"IrlANmmvYynVviRwvOqNxg","name":"The Bailey Pub & Brasserie","cuisine":"American","address":"52 William And Wall St","coordinates":{"latitude":40.7068041,"longitude":-74.0089388},"review_count":165,"rating":3.5,"zip_code":"10005"},{"id":"wua1Rw6xlIm6VYVy44G87g","name":"Temple Court","cuisine":"American","address":"5 Beekman St","coordinates":{"latitude":40.711288,"longitude":-74.006803},"review_count":116,"rating":3.5,"zip_code":"10038"},{"id":"-78KGJqSFFNnlN6B0ptung","name":"M Wells Dinette","cuisine":"American","address":"22-25 Jackson Ave","coordinates":{"latitude":40.7455907393276,"longitude":-73.9471544576721},"review_count":168,"rating":4,"zip_code":"11101"},{"id":"Dl6gScTjYKyF7e1aU0NflA","name":"Michael's","cuisine":"American","address":"24 W 55th St","coordinates":{"latitude":40.7620314,"longitude":-73.9764479},"review_count":91,"rating":3.5,"zip_code":"10019"},{"id":"DMOwfdP0Va1QI_KNefD8kg","name":"Berry Park","cuisine":"American","address":"4 Berry St","coordinates":{"latitude":40.7224719,"longitude":-73.9552526},"review_count":582,"rating":3.5,"zip_code":"11211"},{"id":"350F7vZ8gWh3ojxEWbxA3Q","name":"The Distillery","cuisine":"American","address":"785 9th Ave","coordinates":{"latitude":40.76509,"longitude":-73.98818},"review_count":61,"rating":4,"zip_code":"10019"},{"id":"t4hGjbQaZtBqDAEoqdCJoA","name":"Richie's Burger Joint","cuisine":"American","address":"2665 Broadway","coordinates":{"latitude":40.7982592975529,"longitude":-73.9695739619898},"review_count":69,"rating":4,"zip_code":"10025"},{"id":"zVs1YR-iQCdo8uESHqDtFg","name":"Inside Park at St Bart's","cuisine":"American","address":"325 Park Ave","coordinates":{"latitude":40.7572278,"longitude":-73.9735876},"review_count":163,"rating":3,"zip_code":"10022"},{"id":"92vOHinyRpz2GI_clH8-uQ","name":"Sticky's Finger Joint","cuisine":"American","address":"21 Maiden Ln","coordinates":{"latitude":40.7093087362013,"longitude":-74.0090160288361},"review_count":87,"rating":4,"zip_code":"10038"},{"id":"f5Tgam-3aZSUT-jqQdLw-w","name":"The Cutting Room","cuisine":"American","address":"44 E 32nd St","coordinates":{"latitude":40.7458115,"longitude":-73.9829483},"review_count":192,"rating":3,"zip_code":"10016"},{"id":"6AC4yhUdnh64zE6b5-n6OQ","name":"Renaissance Harlem","cuisine":"American","address":"2245 Adam Clayton Powell","coordinates":{"latitude":40.8133399,"longitude":-73.94467},"review_count":41,"rating":4.5,"zip_code":"10027"},{"id":"VWXd8B0luWhb7-qsedOw9g","name":"West End Hall","cuisine":"American","address":"2756 Broadway","coordinates":{"latitude":40.800968020998,"longitude":-73.9676212147285},"review_count":175,"rating":3.5,"zip_code":"10025"},{"id":"gbq-eZAEzygjCpKBJt9g8A","name":"The Stagecoach Tavern","cuisine":"American","address":"834 7th Ave","coordinates":{"latitude":40.7633859318908,"longitude":-73.9817308062547},"review_count":100,"rating":3.5,"zip_code":"10019"},{"id":"Vs2IM_3Hyhh7FrzagM_9cQ","name":"Mar's","cuisine":"American","address":"34-21 34th Ave","coordinates":{"latitude":40.7583169449012,"longitude":-73.9241287461118},"review_count":212,"rating":4,"zip_code":"11106"},{"id":"5AXAhpW6PvcYFo2ZOWhECg","name":"Barleycorn Craft Bar & Grill","cuisine":"American","address":"23 Park Pl","coordinates":{"latitude":40.7135851443008,"longitude":-74.0084612067231},"review_count":149,"rating":3.5,"zip_code":"10007"},{"id":"HXqpZ5Sq7eeDoxAeZI3nTw","name":"The DL","cuisine":"American","address":"95 Delancey St","coordinates":{"latitude":40.7185899,"longitude":-73.9893704},"review_count":484,"rating":2.5,"zip_code":"10002"},{"id":"4C1xt5pAosW9lvgygnjTwA","name":"David Burke Garden and Treehouse Bar","cuisine":"American","address":"23 Grand St","coordinates":{"latitude":40.72279,"longitude":-74.00491},"review_count":80,"rating":3.5,"zip_code":"10013"},{"id":"UgDmmZ0viDlLD7MOhL2iDA","name":"Peacock Alley","cuisine":"American","address":"301 Park Ave","coordinates":{"latitude":40.756648,"longitude":-73.97394},"review_count":119,"rating":3.5,"zip_code":"10022"},{"id":"7AkS0QtUcnyGvObJpLlDtQ","name":"Charc","cuisine":"American","address":"316 East 84th St","coordinates":{"latitude":40.77602,"longitude":-73.95201},"review_count":37,"rating":4.5,"zip_code":"10028"},{"id":"6ov60pYmUAjpuiMv-OsDzQ","name":"Reade Street Pub & Kitchen","cuisine":"American","address":"135 Reade St","coordinates":{"latitude":40.716224,"longitude":-74.00975},"review_count":81,"rating":3.5,"zip_code":"10013"},{"id":"p78LDlztKCqlZT_90lDFYA","name":"Fuku","cuisine":"American","address":"110 Wall St","coordinates":{"latitude":40.70478,"longitude":-74.00652},"review_count":100,"rating":3.5,"zip_code":"10005"},{"id":"vELB-YD3_jdRHvRVXJScRA","name":"Tempest Bar","cuisine":"American","address":"407 8th Ave","coordinates":{"latitude":40.74998,"longitude":-73.99531},"review_count":102,"rating":3.5,"zip_code":"10001"},{"id":"BglFB3mkuo_PVtxdok4v3A","name":"Vinegar Hill House","cuisine":"American","address":"72 Hudson Ave","coordinates":{"latitude":40.70275,"longitude":-73.98124},"review_count":589,"rating":3.5,"zip_code":"11201"},{"id":"IhY6ZCZ8neZ1RfjBjkYBPQ","name":"Fields Good Chicken","cuisine":"American","address":"148 Madison Ave","coordinates":{"latitude":40.746471,"longitude":-73.984245},"review_count":53,"rating":4,"zip_code":"10016"},{"id":"3RzOtG3BmPaZy7NtlbGfsg","name":"The Crosby Bar","cuisine":"American","address":"79 Crosby St","coordinates":{"latitude":40.7230581,"longitude":-73.9975402},"review_count":127,"rating":3.5,"zip_code":"10012"},{"id":"8wMJdpw2R_4VfS55itB_gQ","name":"Sweetwater Restaurant","cuisine":"American","address":"105 N 6th St","coordinates":{"latitude":40.7184736,"longitude":-73.9600178},"review_count":302,"rating":4,"zip_code":"11249"},{"id":"7o6AIJ4gAHxvwLNQ1PUtvQ","name":"Huckleberry Bar","cuisine":"American","address":"588 Grand St","coordinates":{"latitude":40.7111,"longitude":-73.9483},"review_count":294,"rating":4,"zip_code":"11211"},{"id":"nw5_0jb_u2a6nUt4Je09Xg","name":"Casa Del Chef","cuisine":"American","address":"39-06 64th St","coordinates":{"latitude":40.7461139,"longitude":-73.9001368},"review_count":182,"rating":4.5,"zip_code":"11377"},{"id":"nkT08Tewf6TLaysiuiF8Ow","name":"Pig n Whistle","cuisine":"American","address":"202 W 36th St","coordinates":{"latitude":40.7523995,"longitude":-73.9901114},"review_count":145,"rating":3.5,"zip_code":"10018"},{"id":"sX1YVKCSXqp03HdUm7iBZg","name":"SubCulture Dining","cuisine":"American","address":"119 W 72nd St","coordinates":{"latitude":40.7779554,"longitude":-73.9793544},"review_count":28,"rating":4.5,"zip_code":"10023"},{"id":"5sTcJ4QDxE8ieVz2dLpjtQ","name":"OLMA Restaurant & Bar","cuisine":"American","address":"420 Amsterdam Ave","coordinates":{"latitude":40.7838387,"longitude":-73.9778271},"review_count":69,"rating":4,"zip_code":"10024"},{"id":"TdtXe9qwRrPZpB5MxjVCug","name":"Grand Tier Restaurant","cuisine":"American","address":"30 Lincoln Center Plz","coordinates":{"latitude":40.7725829,"longitude":-73.9828269},"review_count":59,"rating":4,"zip_code":"10023"},{"id":"3axYlGbF2M-rHjz0uhKFcg","name":"Whitmans Hudson Yards","cuisine":"American","address":"331 10th Ave","coordinates":{"latitude":40.75172,"longitude":-74.0015899},"review_count":71,"rating":4,"zip_code":"10001"},{"id":"JCpgDuXd8_rV3GwgiO-rFQ","name":"Farmhouse Restaurant","cuisine":"American","address":"81 Ludlow St","coordinates":{"latitude":40.71809,"longitude":-73.98949},"review_count":95,"rating":3.5,"zip_code":"10002"},{"id":"vkQSMwAf5yqDw9HfEQYgzw","name":"The Flower Shop","cuisine":"American","address":"107 Eldridge St","coordinates":{"latitude":40.71807,"longitude":-73.99213},"review_count":59,"rating":4,"zip_code":"10002"},{"id":"mXN9tmuDHZIfCeUBYqSRuQ","name":"John Doe","cuisine":"American","address":"253 5th Ave","coordinates":{"latitude":40.74477,"longitude":-73.98701},"review_count":68,"rating":3.5,"zip_code":"10016"},{"id":"ej_pg-wc-ZtexQKPPiQ_5w","name":"The Edge Harlem","cuisine":"American","address":"101 Edgecombe Ave","coordinates":{"latitude":40.8199158,"longitude":-73.9460373},"review_count":351,"rating":4,"zip_code":"10030"},{"id":"TBDP4awPY4OVF2wsx2JI-g","name":"Flo Urban Kitchen & Bar","cuisine":"American","address":"3720 30th Ave","coordinates":{"latitude":40.7641986429894,"longitude":-73.9160379660944},"review_count":540,"rating":3.5,"zip_code":"11103"},{"id":"3gqKLANaXNsHZnPDjKrcTg","name":"Win Son","cuisine":"American","address":"159 Graham Ave","coordinates":{"latitude":40.70747,"longitude":-73.94339},"review_count":230,"rating":4.5,"zip_code":"11206"},{"id":"krXmBjEgDId8ve7zUqXmDA","name":"Mae Mae Café","cuisine":"American","address":"68 Vandam St","coordinates":{"latitude":40.7264277004215,"longitude":-74.0070685006814},"review_count":77,"rating":3.5,"zip_code":"10013"},{"id":"sBL7J7s4Rnul40-MB0hXbA","name":"Perrine","cuisine":"American","address":"2 E 61st St","coordinates":{"latitude":40.7654920296738,"longitude":-73.9720146746754},"review_count":38,"rating":4,"zip_code":"10065"},{"id":"_lYYTMno4OAvGQHml37LGw","name":"Two Door Tavern","cuisine":"American","address":"1576 3rd Ave","coordinates":{"latitude":40.780635,"longitude":-73.953071},"review_count":87,"rating":3.5,"zip_code":"10128"},{"id":"Hvi-M6bNWhueA4GZ5PcOTQ","name":"Mathews Food & Drink","cuisine":"American","address":"351 Grove St","coordinates":{"latitude":40.72085,"longitude":-74.04299},"review_count":281,"rating":4,"zip_code":"07302"},{"id":"lcI9kOcRqxxMhM4b5pHqsg","name":"Dawa's","cuisine":"American","address":"51-18 Skillman Ave","coordinates":{"latitude":40.7456869,"longitude":-73.9126859},"review_count":157,"rating":4.5,"zip_code":"11377"},{"id":"bb7jcDQOwQ79aOXhKwwvMQ","name":"William Hallet","cuisine":"American","address":"36-10 30th Ave","coordinates":{"latitude":40.7648383,"longitude":-73.9169948},"review_count":351,"rating":3.5,"zip_code":"11103"},{"id":"b_R7IsGb9Fi6QzjADMSaww","name":"Tri Tip Grill","cuisine":"American","address":"89 E 42nd St","coordinates":{"latitude":40.7523287198863,"longitude":-73.9769661426544},"review_count":87,"rating":3.5,"zip_code":"10017"},{"id":"AlStrNBqyH6WB9QGMEtcTw","name":"Quality Eats","cuisine":"American","address":"3 E 28th St","coordinates":{"latitude":40.7446,"longitude":-73.98653},"review_count":36,"rating":4.5,"zip_code":"10016"},{"id":"xhuDOqY9G5mPuSqBnMCaYw","name":"Henry's End","cuisine":"American","address":"44 Henry St","coordinates":{"latitude":40.6997,"longitude":-73.99217},"review_count":307,"rating":4,"zip_code":"11201"},{"id":"7szsAtxOkGJ2ady3Qx7v4w","name":"The Hideaway Seaport","cuisine":"American","address":"22 Peck Slip","coordinates":{"latitude":40.7080634,"longitude":-74.002083},"review_count":54,"rating":4,"zip_code":"10038"},{"id":"ZgpmuOHlmuvXO7uwLtkkFw","name":"The Regal","cuisine":"American","address":"163 Hope St","coordinates":{"latitude":40.71179,"longitude":-73.9517},"review_count":289,"rating":4,"zip_code":"11211"},{"id":"4j_4tNy7pzYsEkvGTyRCzA","name":"Dinner on Ludlow","cuisine":"American","address":"95 Delancey St","coordinates":{"latitude":40.7186583890008,"longitude":-73.9892859285346},"review_count":132,"rating":3,"zip_code":"10002"},{"id":"JS8CHl_6QvpRm5AbUue3ZA","name":"Five Iron Golf","cuisine":"American","address":"138 5th Ave","coordinates":{"latitude":40.7389238418137,"longitude":-73.9917182922363},"review_count":25,"rating":5,"zip_code":"10011"},{"id":"uq5rHbGtBFwCwPkokIkKvQ","name":"JoJo","cuisine":"American","address":"160 E 64th St","coordinates":{"latitude":40.76506,"longitude":-73.96571},"review_count":24,"rating":4,"zip_code":"10065"},{"id":"iigqtLntqUS18cXmEXofIQ","name":"The Lowery Bar & Kitchen","cuisine":"American","address":"43-02 43rd Ave","coordinates":{"latitude":40.7451454550028,"longitude":-73.9208489656448},"review_count":162,"rating":4.5,"zip_code":"11104"},{"id":"8o3j29PwIO1lzBLEbhvJlA","name":"Carpe Diem Pub & Restaurant","cuisine":"American","address":"1405 Grand St","coordinates":{"latitude":40.7544589,"longitude":-74.0312859},"review_count":174,"rating":4,"zip_code":"07030"},{"id":"dzlhiEg7nE49iReUC10w_A","name":"Jack the Horse Tavern","cuisine":"American","address":"66 Hicks St","coordinates":{"latitude":40.6999740600586,"longitude":-73.993782043457},"review_count":337,"rating":4,"zip_code":"11201"},{"id":"dfh4IK_KOa_giRjrRaHg0Q","name":"White Star Bar","cuisine":"American","address":"230 Brunswick St","coordinates":{"latitude":40.72794,"longitude":-74.04991},"review_count":353,"rating":4,"zip_code":"07302"},{"id":"ojohwZNdrLMFVfRnw1nMew","name":"Ichi Cellar","cuisine":"American","address":"6 E 32nd St","coordinates":{"latitude":40.7467294,"longitude":-73.9848598},"review_count":77,"rating":3.5,"zip_code":"10016"},{"id":"oRCbrbLqvOcBuWPzSjOllQ","name":"Alameda","cuisine":"American","address":"195 Franklin St","coordinates":{"latitude":40.733494,"longitude":-73.958484},"review_count":106,"rating":4,"zip_code":"11222"},{"id":"Ubjy_YwMiU69kdSaXC9bgw","name":"Madison & Vine","cuisine":"American","address":"299 Madison Ave","coordinates":{"latitude":40.75218,"longitude":-73.97954},"review_count":152,"rating":3,"zip_code":"10017"},{"id":"xI0H0K1MAq1U6NTp1xFreA","name":"Midnights","cuisine":"American","address":"149 N 6th St","coordinates":{"latitude":40.71748,"longitude":-73.95843},"review_count":160,"rating":4.5,"zip_code":"11249"},{"id":"JZpn_AGb99d7XETnntvKMg","name":"The Iridium","cuisine":"American","address":"1650 Broadway","coordinates":{"latitude":40.7618103,"longitude":-73.9835968},"review_count":139,"rating":3,"zip_code":"10019"},{"id":"MA3t_z0VwzTbPTq9O3mbyg","name":"Dutch Kills Centraal","cuisine":"American","address":"3840 29th St","coordinates":{"latitude":40.753745,"longitude":-73.934617},"review_count":266,"rating":3.5,"zip_code":"11101"},{"id":"W0sXHSSpkiMEDJiBmSLNYQ","name":"Trestle","cuisine":"American","address":"34-02 Broadway","coordinates":{"latitude":40.7606154,"longitude":-73.9229562},"review_count":181,"rating":4,"zip_code":"11106"},{"id":"5_NQ6FS8D5EcjX2V_x4Mmw","name":"Bobby Van's CPS","cuisine":"American","address":"40 Central Park S","coordinates":{"latitude":40.76523,"longitude":-73.97557},"review_count":55,"rating":4,"zip_code":"10019"},{"id":"rSJSZwkKN7UvcWkkRHsYjQ","name":"The Madison Bar & Grill","cuisine":"American","address":"1316 Washington St","coordinates":{"latitude":40.7531247,"longitude":-74.0264495},"review_count":345,"rating":3.5,"zip_code":"07030"},{"id":"W1GdZLkOWkrjuQCeXW79vw","name":"The Wright","cuisine":"American","address":"1071 5th Ave","coordinates":{"latitude":40.78301,"longitude":-73.95912},"review_count":67,"rating":3.5,"zip_code":"10128"},{"id":"K2IG-jUEGURqX-gYdQ6wZg","name":"Raise New York","cuisine":"American","address":"416 3rd Ave","coordinates":{"latitude":40.7431,"longitude":-73.98032},"review_count":39,"rating":4.5,"zip_code":"10016"},{"id":"WOpTvQVROHDtAUR5esM0fg","name":"Oldcastle Pub & Restaurant","cuisine":"American","address":"160 W 54th St","coordinates":{"latitude":40.7632550409373,"longitude":-73.980892927578},"review_count":137,"rating":3,"zip_code":"10019"},{"id":"I4i0ZpoMDmQSNnHOtml0wA","name":"Maggie's Place","cuisine":"American","address":"21 E 47th St","coordinates":{"latitude":40.7562942504883,"longitude":-73.9771194458008},"review_count":108,"rating":3.5,"zip_code":"10017"},{"id":"zooS5ms4-vz3evQ3Cn6tmA","name":"Mulberry & Vine","cuisine":"American","address":"155 E 44th St","coordinates":{"latitude":40.75233,"longitude":-73.97386},"review_count":54,"rating":4,"zip_code":"10017"},{"id":"JXsHJfBAKZT0fG8XkA9Kzw","name":"Sweet Science","cuisine":"American","address":"135 Graham Ave","coordinates":{"latitude":40.7063841819763,"longitude":-73.9431119710207},"review_count":444,"rating":3.5,"zip_code":"11206"},{"id":"fAQVVgDt88mW739YJgKQdQ","name":"Charlie's Bar & Kitchen","cuisine":"American","address":"112 Lincoln Ave","coordinates":{"latitude":40.807874991887,"longitude":-73.9291545436554},"review_count":239,"rating":4,"zip_code":"10454"},{"id":"rgAj05ov6HLAECdE39wMVg","name":"Light Horse Tavern","cuisine":"American","address":"199 Washington St","coordinates":{"latitude":40.71401,"longitude":-74.03831},"review_count":559,"rating":3.5,"zip_code":"07302"},{"id":"qD7Ttf8FSL6bplLBwjvXXg","name":"Finnegan's Wake","cuisine":"American","address":"1361 1st Ave","coordinates":{"latitude":40.76867,"longitude":-73.9556},"review_count":91,"rating":3.5,"zip_code":"10021"},{"id":"WgueEVoymiaZJVIsRCk8_w","name":"The Breakfast Shack","cuisine":"American","address":"30th St & 30th Ave","coordinates":{"latitude":40.7671641442994,"longitude":-73.9224709424561},"review_count":92,"rating":4.5,"zip_code":"11102"},{"id":"zcwxdBaofN3EFcSjo4OdXg","name":"Cafe Colette","cuisine":"American","address":"79 Berry St","coordinates":{"latitude":40.7196769714355,"longitude":-73.9574890136719},"review_count":306,"rating":3.5,"zip_code":"11249"},{"id":"DXKhwBPxshCfbLxsO0xF_g","name":"The Pavilion","cuisine":"American","address":"20 Union Square W","coordinates":{"latitude":40.7364579171557,"longitude":-73.9898957986725},"review_count":241,"rating":2.5,"zip_code":"10003"},{"id":"rOZZKSRUKj3JIIWdw_5fBQ","name":"Tea NJ","cuisine":"American","address":"262 Newark Ave","coordinates":{"latitude":40.7232,"longitude":-74.0489},"review_count":190,"rating":4.5,"zip_code":"07302"},{"id":"gvfzWzBbltmBE5Y3_iQhHA","name":"World Yacht","cuisine":"American","address":"Pier 81","coordinates":{"latitude":40.7625767148966,"longitude":-74.0042066574097},"review_count":76,"rating":3.5,"zip_code":"10036"},{"id":"CEOm_NF7EeDZR4ozRZvCSg","name":"Bedford Falls","cuisine":"American","address":"206 E 67th St","coordinates":{"latitude":40.7661503,"longitude":-73.9625243},"review_count":48,"rating":4,"zip_code":"10065"},{"id":"XTLV-dDxS27AmY7I9Er68Q","name":"Extra Fancy","cuisine":"American","address":"302 Metropolitan Ave","coordinates":{"latitude":40.7144643419191,"longitude":-73.9579174570699},"review_count":304,"rating":3.5,"zip_code":"11211"},{"id":"dadH6POPTxSGzLGQR93rIw","name":"The Chester","cuisine":"American","address":"18 9th Ave","coordinates":{"latitude":40.7398532,"longitude":-74.0057335},"review_count":197,"rating":2.5,"zip_code":"10014"},{"id":"MIfL21SRRxCvFedAv6CtWg","name":"3 Decker Restaurant","cuisine":"American","address":"1746 2nd Ave","coordinates":{"latitude":40.780849,"longitude":-73.949211},"review_count":106,"rating":3.5,"zip_code":"10128"},{"id":"8AMEjzaPVE8wDcEgI3_OEA","name":"Hemlock","cuisine":"American","address":"65 Rivington St","coordinates":{"latitude":40.72052,"longitude":-73.9901},"review_count":28,"rating":4.5,"zip_code":"10002"},{"id":"Py_oBQpNR8kMI3GbH-71Yg","name":"Ltauha Restaurant","cuisine":"American","address":"55-50 Myrtle Ave","coordinates":{"latitude":40.6998889,"longitude":-73.9067463},"review_count":303,"rating":4.5,"zip_code":"11385"},{"id":"1x9_jjlGWfBguOpq4FnL8A","name":"Sly Fox","cuisine":"American","address":"142 2nd Ave","coordinates":{"latitude":40.728873,"longitude":-73.987257},"review_count":78,"rating":3.5,"zip_code":"10003"},{"id":"Orbsfc3nI21mQ8cwSPahhg","name":"The Four Horsemen","cuisine":"American","address":"295 Grand St","coordinates":{"latitude":40.7131386,"longitude":-73.9572525},"review_count":126,"rating":4.5,"zip_code":"11211"},{"id":"oBAxfAeF6OBukPg3WLmiRg","name":"Treadwell Downtown","cuisine":"American","address":"301 S End Ave","coordinates":{"latitude":40.7102746,"longitude":-74.0164863},"review_count":72,"rating":3.5,"zip_code":"10280"},{"id":"moaPtBNbQ5VNu2Z0ilCVGQ","name":"Walter's","cuisine":"American","address":"166 DeKalb Ave","coordinates":{"latitude":40.6894111633301,"longitude":-73.973258972168},"review_count":449,"rating":4,"zip_code":"11217"},{"id":"NdvmQ8VoLUIZyFpApZOXUA","name":"Allswell","cuisine":"American","address":"124 Bedford Ave","coordinates":{"latitude":40.71967,"longitude":-73.955996},"review_count":327,"rating":3.5,"zip_code":"11211"},{"id":"0yMlU3xbdawYFXmjNc0dhw","name":"The Harrow New York","cuisine":"American","address":"720 10th Ave","coordinates":{"latitude":40.76419,"longitude":-73.99182},"review_count":43,"rating":4.5,"zip_code":"10019"},{"id":"or0Op4EDk95L0vhLwSATcQ","name":"Montagu's Gusto","cuisine":"American","address":"645 2nd Ave","coordinates":{"latitude":40.74571,"longitude":-73.97553},"review_count":38,"rating":4.5,"zip_code":"10016"},{"id":"BBszjdL8z21T9JpnNYgGiw","name":"Cherry Point","cuisine":"American","address":"664 Manhattan Ave","coordinates":{"latitude":40.7244954175426,"longitude":-73.9511575076571},"review_count":90,"rating":4.5,"zip_code":"11222"},{"id":"2Edq66lsiO17FSAVAlVVkA","name":"Café  Standard","cuisine":"American","address":"25 Cooper Sq","coordinates":{"latitude":40.72782,"longitude":-73.99077},"review_count":71,"rating":3.5,"zip_code":"10003"},{"id":"45hQHMdFxw0mh7ZTU--cDQ","name":"The Grange Bar and Eatery","cuisine":"American","address":"1635 Amsterdam Ave","coordinates":{"latitude":40.8225233274899,"longitude":-73.949358447155},"review_count":527,"rating":3.5,"zip_code":"10031"},{"id":"I31pIFClX7xdaFkjM2a83g","name":"Pig 'N' Whistle","cuisine":"American","address":"144 W 46th St","coordinates":{"latitude":40.75795,"longitude":-73.98417},"review_count":56,"rating":3.5,"zip_code":"10036"},{"id":"wXCb19BZ1xEcd8JnYh-h3w","name":"Mile 17 Bar & Restaurant","cuisine":"American","address":"1446 1st Ave","coordinates":{"latitude":40.769802,"longitude":-73.9542},"review_count":62,"rating":4,"zip_code":"10021"},{"id":"yxsIwFMq5beQBRJD3yyKPw","name":"Fairway Cafe","cuisine":"American","address":"2127 Broadway 2nd Fl","coordinates":{"latitude":40.7806854,"longitude":-73.9816971},"review_count":108,"rating":3,"zip_code":"10023"},{"id":"obBh14Cy3hp0AbriMPefzg","name":"Rider","cuisine":"American","address":"80 N 6th St","coordinates":{"latitude":40.71887,"longitude":-73.96136},"review_count":115,"rating":4.5,"zip_code":"11249"},{"id":"k5bGHJbAXDw9g_uP42QqDw","name":"The Highwater","cuisine":"American","address":"34-20 Broadway","coordinates":{"latitude":40.76033,"longitude":-73.92245},"review_count":99,"rating":4.5,"zip_code":"11106"},{"id":"DhBhEWMVLDxYF14a1znUvA","name":"Lighthouse","cuisine":"American","address":"145 Borinquen Pl","coordinates":{"latitude":40.7108676812019,"longitude":-73.9537052347366},"review_count":211,"rating":4,"zip_code":"11211"},{"id":"1ExwosnCMtb7D3SF5ovo6w","name":"The Pomeroy","cuisine":"American","address":"36-12 Ditmars Blvd","coordinates":{"latitude":40.7739,"longitude":-73.908},"review_count":174,"rating":4,"zip_code":"11105"},{"id":"R2jPgO4AtV7-h-UDI6pQrw","name":"Sekend Sun","cuisine":"American","address":"32-11 Broadway","coordinates":{"latitude":40.7614641707533,"longitude":-73.9241551235318},"review_count":203,"rating":3.5,"zip_code":"11106"},{"id":"YTthTM3FZIbQKmnnYzM_Nw","name":"The Counting Room","cuisine":"American","address":"44 Berry St","coordinates":{"latitude":40.7210284353333,"longitude":-73.9567896387259},"review_count":196,"rating":4,"zip_code":"11211"},{"id":"hu2bo4hZueedSKBimTAqOw","name":"Humboldt and Jackson","cuisine":"American","address":"434 Humboldt St","coordinates":{"latitude":40.7166749128013,"longitude":-73.9431685939692},"review_count":93,"rating":4.5,"zip_code":"11211"},{"id":"pKWWUT8mpvhMdOr4X383KA","name":"Abracadabra Brooklyn","cuisine":"American","address":"347 Bedford Ave","coordinates":{"latitude":40.71202,"longitude":-73.96274},"review_count":113,"rating":4.5,"zip_code":"11211"},{"id":"Ei4UyR1_mMFwuunv8gRUWw","name":"Atrio Wine Bar & Restaurant","cuisine":"American","address":"102 N End Ave","coordinates":{"latitude":40.7149956,"longitude":-74.01521},"review_count":75,"rating":3.5,"zip_code":"10282"},{"id":"XhiB1Cb0BKQwQHB9T3ZVHA","name":"The Juice Shop","cuisine":"American","address":"688 Sixth Ave","coordinates":{"latitude":40.74199,"longitude":-73.99312},"review_count":201,"rating":2.5,"zip_code":"10010"},{"id":"eV_lsSEAjRWAxdlX44Omcw","name":"Quaint","cuisine":"American","address":"46-10 Skillman Ave","coordinates":{"latitude":40.74626,"longitude":-73.91761},"review_count":227,"rating":4,"zip_code":"11104"},{"id":"Vyq_AKX1k7M8CLH4Qq1maA","name":"Del Frisco's Grille","cuisine":"American","address":"221 River St","coordinates":{"latitude":40.7386060423225,"longitude":-74.0276491641998},"review_count":267,"rating":3.5,"zip_code":"07030"},{"id":"8qBy2-x0i9P7eigcwIGuQA","name":"Latham House","cuisine":"American","address":"299 Marin Blvd","coordinates":{"latitude":40.7186723130924,"longitude":-74.0419214298909},"review_count":252,"rating":4,"zip_code":"07302"},{"id":"sqbSuwMNFg76ys2yNpbgVg","name":"Bouley at Home","cuisine":"American","address":"31 W 21st St","coordinates":{"latitude":40.7410869985191,"longitude":-73.9921929272335},"review_count":30,"rating":4,"zip_code":"10010"},{"id":"mojQ_3WMhHzrSYpWJQlwkQ","name":"East Wick","cuisine":"American","address":"112 Graham Ave","coordinates":{"latitude":40.705051,"longitude":-73.9425849},"review_count":234,"rating":4,"zip_code":"11206"},{"id":"77-Sk9wXLi5Ii5M3Drf4rQ","name":"Battersby","cuisine":"American","address":"255 Smith St","coordinates":{"latitude":40.68341,"longitude":-73.992734},"review_count":285,"rating":4,"zip_code":"11231"},{"id":"2YPmpAaue_v1t0tb1PoHWw","name":"The Brass Rail","cuisine":"American","address":"135 Washington St","coordinates":{"latitude":40.73855,"longitude":-74.03019},"review_count":385,"rating":3.5,"zip_code":"07030"},{"id":"W9jvfWo198fX_kmYptnh1g","name":"Lighthouse Outpost","cuisine":"American","address":"241 Mulberry St","coordinates":{"latitude":40.72289,"longitude":-73.99617},"review_count":14,"rating":5,"zip_code":"10012"},{"id":"7NFnAxUjfiYg8QrGsjMJKw","name":"Amused","cuisine":"American","address":"142 W 83rd St","coordinates":{"latitude":40.7850341796875,"longitude":-73.9754409790039},"review_count":30,"rating":4,"zip_code":"10024"},{"id":"LmjIvh6gRGzxFBI99doR9w","name":"Liberty Prime Steakhouse","cuisine":"American","address":"111 Montgomery St","coordinates":{"latitude":40.7168985,"longitude":-74.0399027},"review_count":284,"rating":4,"zip_code":"07302"},{"id":"iUqWxpmnobBfFFVMraK0tw","name":"Fire & Oak","cuisine":"American","address":"479 Washington Blvd","coordinates":{"latitude":40.7247114807437,"longitude":-74.0361959485045},"review_count":380,"rating":3.5,"zip_code":"07310"},{"id":"wGOudLgKj7H3StstxNKPCA","name":"Amelia's Bistro","cuisine":"American","address":"187 Warren St","coordinates":{"latitude":40.7139088425379,"longitude":-74.0398549674591},"review_count":431,"rating":3.5,"zip_code":"07302"},{"id":"bVkavwJ8OgU4yPiUMoEOPg","name":"Jia Nyc","cuisine":"American","address":"23 Essex St","coordinates":{"latitude":40.715434,"longitude":-73.9900831},"review_count":29,"rating":4.5,"zip_code":"10002"},{"id":"escMR9M42UsHQIglAz1pJw","name":"Bubba's Bistro","cuisine":"American","address":"31-13 Ditmars Blvd","coordinates":{"latitude":40.775832308033,"longitude":-73.9100879056678},"review_count":291,"rating":4,"zip_code":"11105"},{"id":"u0LPiLIDrL6kl2ZoNDYlSw","name":"Gatsby's Bar & Restaurant","cuisine":"American","address":"53 Spring St","coordinates":{"latitude":40.72232,"longitude":-73.99654},"review_count":247,"rating":2.5,"zip_code":"10012"},{"id":"1Jjg8-vQVRQqqtL4sODi5g","name":"Mekelburg's","cuisine":"American","address":"293 Grand Ave","coordinates":{"latitude":40.6875419616699,"longitude":-73.9623336791992},"review_count":192,"rating":4.5,"zip_code":"11238"},{"id":"zHqDuMznom7CLp2lqV8q0g","name":"Forrest Point","cuisine":"American","address":"970 Flushing Ave","coordinates":{"latitude":40.70319,"longitude":-73.93229},"review_count":273,"rating":4,"zip_code":"11206"},{"id":"0VYAqXbYRcyiQU8QS-SG_g","name":"Plaza Deli","cuisine":"American","address":"127 John St","coordinates":{"latitude":40.7072761570924,"longitude":-74.0050033514853},"review_count":60,"rating":3.5,"zip_code":"10038"},{"id":"bSKehScpedP2eMA5pGkTxg","name":"City Bistro","cuisine":"American","address":"56-58 14th St","coordinates":{"latitude":40.75331,"longitude":-74.02552},"review_count":282,"rating":3.5,"zip_code":"07030"},{"id":"dHFI6gF6P3egnQUSHUNIBg","name":"Reynard","cuisine":"American","address":"80 Wythe Ave","coordinates":{"latitude":40.722084,"longitude":-73.9578552},"review_count":239,"rating":3.5,"zip_code":"11211"},{"id":"Q_bI2gY7LtMCXkzkakPUkg","name":"Henry's Rooftop Bar","cuisine":"American","address":"501 Lexington Ave","coordinates":{"latitude":40.754799,"longitude":-73.97314},"review_count":40,"rating":3.5,"zip_code":"10017"},{"id":"bV_RI0zlJkq3XWS7FGmOzg","name":"Dig Inn","cuisine":"American","address":"70 Prince St","coordinates":{"latitude":40.72377,"longitude":-73.9969},"review_count":50,"rating":4,"zip_code":"10012"},{"id":"64SxMs06-IJSc2I-YsnDTQ","name":"Teddy's Bar & Grill","cuisine":"American","address":"96 Berry St","coordinates":{"latitude":40.7193481,"longitude":-73.9585056},"review_count":310,"rating":3.5,"zip_code":"11249"},{"id":"ybAfKElsgVcm60sS-39zyA","name":"Clark's Restaurant","cuisine":"American","address":"80 Clark St","coordinates":{"latitude":40.69740294105,"longitude":-73.993250079407},"review_count":356,"rating":3.5,"zip_code":"11201"},{"id":"mXLrVoEi80WZaZ3agBP5Jw","name":"Bijan's","cuisine":"American","address":"81 Hoyt St","coordinates":{"latitude":40.68803,"longitude":-73.98671},"review_count":387,"rating":4,"zip_code":"11211"},{"id":"CC_HUPioTi2Fm4Mc5bp3HQ","name":"The Cannibal Liquor House","cuisine":"American","address":"111 E 29th St","coordinates":{"latitude":40.7437194,"longitude":-73.9827825},"review_count":40,"rating":4,"zip_code":"10010"},{"id":"X_fIYLkGw71zYYK0apXDHw","name":"Speakeasy Dollhouse -  Ziegfeld's Midnight Frolic","cuisine":"American","address":"234 W 42nd St","coordinates":{"latitude":40.75658,"longitude":-73.98865},"review_count":59,"rating":3.5,"zip_code":"10036"},{"id":"8ERDirrcagy6XNfVmeJt-g","name":"The Hideaway","cuisine":"American","address":"185 Duane St","coordinates":{"latitude":40.717575,"longitude":-74.010276},"review_count":91,"rating":3.5,"zip_code":"10013"},{"id":"aDsUZs-esGEJVBFgAatucQ","name":"Terrace 5","cuisine":"American","address":"11 W 53rd St","coordinates":{"latitude":40.7614327,"longitude":-73.9776216},"review_count":65,"rating":3,"zip_code":"10019"},{"id":"9kCcNKe7z9GZFU3NhkoExA","name":"Julia's","cuisine":"American","address":"818 Woodward Ave","coordinates":{"latitude":40.7032166,"longitude":-73.9031296},"review_count":158,"rating":4.5,"zip_code":"11385"},{"id":"i66wTfSG50VEMvzJNYm8Sw","name":"The Sound Bite","cuisine":"American","address":"737 9th Ave","coordinates":{"latitude":40.76341,"longitude":-73.98923},"review_count":32,"rating":4.5,"zip_code":"10019"},{"id":"BnSeJ9yRfJ09RoQ0euR34A","name":"Trufa Restaurant","cuisine":"American","address":"3431 Broadway","coordinates":{"latitude":40.82315,"longitude":-73.95318},"review_count":259,"rating":4,"zip_code":"10031"},{"id":"5yhoa5zPI-zSZswrG1TpSA","name":"Mikie Squared Bar & Grill","cuisine":"American","address":"616 Washington St","coordinates":{"latitude":40.74405,"longitude":-74.02921},"review_count":194,"rating":3.5,"zip_code":"07030"},{"id":"_OdmajwtXXQwz-RhFUUxFw","name":"Trophy Bar","cuisine":"American","address":"351 Broadway","coordinates":{"latitude":40.707908,"longitude":-73.95565},"review_count":159,"rating":4,"zip_code":"11211"},{"id":"X3ToKHjzofO8EzfiHYewWg","name":"Brooklyn Blend","cuisine":"American","address":"194 Tompkins Ave","coordinates":{"latitude":40.6923440819487,"longitude":-73.9458492169658},"review_count":153,"rating":4.5,"zip_code":"11206"},{"id":"BPhA6SS2SaTtnFvpT3grIw","name":"Wolfgang Puck","cuisine":"American","address":"27 Barclay St","coordinates":{"latitude":40.712952228608,"longitude":-74.0093746800914},"review_count":61,"rating":3.5,"zip_code":"10007"},{"id":"AenVV_JJLVclWBNPZgXiRA","name":"The Blue Box Cafe","cuisine":"American","address":"727 5th Ave","coordinates":{"latitude":40.76267,"longitude":-73.97396},"review_count":107,"rating":3,"zip_code":"10022"},{"id":"W83Dpm-rKABQ3rnfIq_xwQ","name":"Hello Bklyn","cuisine":"American","address":"234 Union Ave","coordinates":{"latitude":40.707473897527,"longitude":-73.9503831043839},"review_count":213,"rating":4,"zip_code":"11211"},{"id":"o3l8CcisNgu10SQB-rRATw","name":"Beckett's Bar & Grill","cuisine":"American","address":"81 Pearl St","coordinates":{"latitude":40.70413,"longitude":-74.01034},"review_count":175,"rating":3,"zip_code":"10004"},{"id":"s5j_749h_250VZY2NXQC1Q","name":"Old John's Luncheonette","cuisine":"American","address":"148 W 67th St","coordinates":{"latitude":40.7751442740886,"longitude":-73.983650655047},"review_count":88,"rating":3.5,"zip_code":"10023"},{"id":"h--B7M-Sfs1Y8hhlPay0Qw","name":"My Belly's Playlist","cuisine":"American","address":"218 West 35th St","coordinates":{"latitude":40.751792,"longitude":-73.991027},"review_count":32,"rating":4,"zip_code":"10001"},{"id":"Uhrv97bXuw6NCkdC66Fhng","name":"Bonefish Grill","cuisine":"American","address":"200 Mill Creek Dr","coordinates":{"latitude":40.7912074629423,"longitude":-74.0499105917623},"review_count":280,"rating":3.5,"zip_code":"07094"},{"id":"cq3QvbtK1B9Cxa15iyK56g","name":"Black Bear Bar & Grill","cuisine":"American","address":"205 Washington St","coordinates":{"latitude":40.73889,"longitude":-74.03009},"review_count":314,"rating":3.5,"zip_code":"07030"},{"id":"P07uKcnA9gkk7B6exFtuYg","name":"The Ainsworth - Midtown","cuisine":"American","address":"45 E 33rd St","coordinates":{"latitude":40.74686,"longitude":-73.9823},"review_count":115,"rating":3,"zip_code":"10016"},{"id":"3GP-tY5GWuOsiYRsycm7Lg","name":"White Star Warren","cuisine":"American","address":"179 Warren St","coordinates":{"latitude":40.71318,"longitude":-74.03998},"review_count":250,"rating":4,"zip_code":"07302"},{"id":"L5iUBm_rH6cmjNyNVQV62A","name":"Upper Story by Charlie Palmer","cuisine":"American","address":"979 3rd Ave","coordinates":{"latitude":40.76096,"longitude":-73.96626},"review_count":30,"rating":4.5,"zip_code":"10022"},{"id":"vAYL2UurccAGceZQNRGW1Q","name":"The Dining Room at The Met","cuisine":"American","address":"1000 Fifth Ave","coordinates":{"latitude":40.7791655,"longitude":-73.9629278},"review_count":49,"rating":3.5,"zip_code":"10028"},{"id":"EcV9K6snM0dK7iBY_hJH2g","name":"Randolph's Bar & Lounge","cuisine":"American","address":"65 W 54th St","coordinates":{"latitude":40.7622824233204,"longitude":-73.978067790969},"review_count":75,"rating":3,"zip_code":"10019"},{"id":"fnfSx8MI_GoNxzOueN64UA","name":"Guy & Gallard","cuisine":"American","address":"240 W 40th St","coordinates":{"latitude":40.75522,"longitude":-73.98957},"review_count":100,"rating":3,"zip_code":"10018"},{"id":"shBSpp2CQ3fnOvdUe2dNRA","name":"Pete's Grill","cuisine":"American","address":"3914 Queens Blvd","coordinates":{"latitude":40.7436113457571,"longitude":-73.9255882291161},"review_count":319,"rating":3.5,"zip_code":"11104"},{"id":"mlwzynq9ofUHLx2hCL70dQ","name":"The Wooly Public","cuisine":"American","address":"9 Barclay St","coordinates":{"latitude":40.7121984612156,"longitude":-74.0084869030238},"review_count":46,"rating":4,"zip_code":"10007"},{"id":"iJUoxnxbCtVDMek4keHJFQ","name":"Pokito","cuisine":"American","address":"155 S 4th St","coordinates":{"latitude":40.71162,"longitude":-73.96184},"review_count":78,"rating":4.5,"zip_code":"11211"},{"id":"GpWXEpVyehmKP2WQsD_Y8g","name":"OTB","cuisine":"American","address":"141 Broadway","coordinates":{"latitude":40.710506439209,"longitude":-73.9633941650391},"review_count":100,"rating":4,"zip_code":"11211"},{"id":"I4LSdJd2Z8M6VNLhbX3aLA","name":"Superfine","cuisine":"American","address":"126 Front St","coordinates":{"latitude":40.70237,"longitude":-73.98741},"review_count":389,"rating":3.5,"zip_code":"11201"},{"id":"3Q4FMHLSTM8sATaEHeZ6Tg","name":"Blanca","cuisine":"American","address":"261 Moore St","coordinates":{"latitude":40.7050708681994,"longitude":-73.933581},"review_count":145,"rating":4,"zip_code":"11206"},{"id":"yVNwo4dnGssgd45s0IHdvw","name":"Liberty House Restaurant","cuisine":"American","address":"76 Audrey Zapp Dr","coordinates":{"latitude":40.7092002302021,"longitude":-74.0399466756692},"review_count":379,"rating":3.5,"zip_code":"07305"},{"id":"t0r8AFKb1kiVRnBtvZoO1Q","name":"Hudson Cafeteria","cuisine":"American","address":"356 W 58th St","coordinates":{"latitude":40.7680535316467,"longitude":-73.9840344339609},"review_count":52,"rating":3.5,"zip_code":"10019"},{"id":"UUIKdOylovTfXGvvKTN_yQ","name":"One Dine","cuisine":"American","address":"285 Fulton St","coordinates":{"latitude":40.7131299423307,"longitude":-74.0135986290232},"review_count":97,"rating":3,"zip_code":"10007"},{"id":"HjIce8mnXrudmf_CkBxYiA","name":"Bocca Bliss","cuisine":"American","address":"725 3rd Ave","coordinates":{"latitude":40.752794,"longitude":-73.972624},"review_count":61,"rating":3.5,"zip_code":"10017"},{"id":"lv6smQdVYEtW9CKUtXnw_w","name":"Trix","cuisine":"American","address":"145 Bedford Ave","coordinates":{"latitude":40.718891,"longitude":-73.956227},"review_count":190,"rating":3.5,"zip_code":"11211"},{"id":"GxMhN2PEttvw7CRGIzB6Gg","name":"Baron's","cuisine":"American","address":"564 Dekalb Ave","coordinates":{"latitude":40.6908116,"longitude":-73.953915},"review_count":165,"rating":4.5,"zip_code":"11205"},{"id":"fl2DWaG9ydlsGxcs9AiG1w","name":"Hoboken Turtle Club","cuisine":"American","address":"936 Park Ave","coordinates":{"latitude":40.748998050527,"longitude":-74.030320630749},"review_count":175,"rating":3.5,"zip_code":"07030"},{"id":"njDA4ALbcnjLloNC_y0E9w","name":"Gantry Bar & Kitchen","cuisine":"American","address":"47-02 Vernon Blvd","coordinates":{"latitude":40.7453953419365,"longitude":-73.9532279223204},"review_count":90,"rating":3.5,"zip_code":"11101"},{"id":"tJE_W03jUfwl9QtQhy-8Yg","name":"Redcork","cuisine":"American","address":"330 W 58th St","coordinates":{"latitude":40.7679232725189,"longitude":-73.9834850105591},"review_count":59,"rating":3.5,"zip_code":"10019"},{"id":"-ry1ti7hInsrR5dC2wZ0TA","name":"Waterside Restaurant & Catering","cuisine":"American","address":"7800 B River Rd","coordinates":{"latitude":40.7949102652933,"longitude":-73.9938927635112},"review_count":319,"rating":3,"zip_code":"07047"},{"id":"7Xx775uJdWDSXlzbsdV54w","name":"Riverview Restaurant & Lounge","cuisine":"American","address":"2-01 50th Ave","coordinates":{"latitude":40.7435693867402,"longitude":-73.9581999037655},"review_count":284,"rating":3,"zip_code":"11101"},{"id":"56qlj1cYlqNzmG0xllGg-w","name":"Westville Dumbo","cuisine":"American","address":"81 Washington St","coordinates":{"latitude":40.70181,"longitude":-73.98954},"review_count":137,"rating":4,"zip_code":"11201"},{"id":"D4f6htB176SAxS1q0rZX3A","name":"Avo's Grill","cuisine":"American","address":"720 Anderson Ave","coordinates":{"latitude":40.829251,"longitude":-73.986013},"review_count":148,"rating":4.5,"zip_code":"07010"},{"id":"bSE1Wnh6tWk9hkzkYVLaJw","name":"Dig Inn","cuisine":"American","address":"1407 Broadway","coordinates":{"latitude":40.75353,"longitude":-73.98777},"review_count":20,"rating":4.5,"zip_code":"10018"},{"id":"9TvM7Wt5KgJcl57pGob0Yg","name":"Muscle Maker Grill Midtown East","cuisine":"American","address":"1099 2nd Ave","coordinates":{"latitude":40.759941,"longitude":-73.965156},"review_count":66,"rating":3.5,"zip_code":"10022"},{"id":"oXnJEg_AScyrR1lO4dnAfw","name":"The Wheelhouse","cuisine":"American","address":"165 Wilson Ave","coordinates":{"latitude":40.700122,"longitude":-73.924188},"review_count":184,"rating":4,"zip_code":"11237"},{"id":"ArfL-sU2FaB73WV1qQ4c6Q","name":"Simple Cafe & Restaurant","cuisine":"American","address":"346 Bedford Ave","coordinates":{"latitude":40.71244,"longitude":-73.96275},"review_count":139,"rating":4,"zip_code":"11249"},{"id":"toxwdOCz37bX5dJ_O1h2Ew","name":"Sugarcane Raw Bar Grill","cuisine":"American","address":"55 Water St","coordinates":{"latitude":40.7033991,"longitude":-73.9914091},"review_count":139,"rating":4,"zip_code":"11201"},{"id":"vPS-IytpPE6-N4q38lw7_g","name":"Auden Bistro & Bar","cuisine":"American","address":"The Ritz-Carlton New York Central Park","coordinates":{"latitude":40.765386,"longitude":-73.9760747},"review_count":28,"rating":3.5,"zip_code":"10019"},{"id":"WVCzrF5V03m00fSn0Tmm5w","name":"Gilligan's at Soho Grand","cuisine":"American","address":"310 W Broadway","coordinates":{"latitude":40.722017,"longitude":-74.004306},"review_count":51,"rating":3.5,"zip_code":"10013"},{"id":"kymVzyHbzyuLZEyu6zx1yA","name":"T45","cuisine":"American","address":"135 W 45th St","coordinates":{"latitude":40.75756,"longitude":-73.98416},"review_count":50,"rating":3.5,"zip_code":"10036"},{"id":"bHQbqSRY8FDp7fQXPPzx1g","name":"Tads Steaks","cuisine":"American","address":"761 7th Ave","coordinates":{"latitude":40.7610421753423,"longitude":-73.9827114287282},"review_count":107,"rating":3,"zip_code":"10036"},{"id":"BfhICClikxU7AG01nOOeCA","name":"Prospect","cuisine":"American","address":"773 Fulton St","coordinates":{"latitude":40.686279,"longitude":-73.973701},"review_count":206,"rating":4,"zip_code":"11217"},{"id":"JrNMzlTtUnmcfX_RoIuJnA","name":"2west Restaurant","cuisine":"American","address":"2 West St","coordinates":{"latitude":40.7055498631585,"longitude":-74.0173342915202},"review_count":62,"rating":3.5,"zip_code":"10004"},{"id":"tGBSU8KobmANg_3CEV4ZMg","name":"Island","cuisine":"American","address":"1305 Madison Ave","coordinates":{"latitude":40.78494,"longitude":-73.95563},"review_count":66,"rating":3.5,"zip_code":"10128"},{"id":"EY5ot4Z1tgbDC-TZXIcRjQ","name":"Putnam's Pub & Cooker","cuisine":"American","address":"419 Myrtle Ave","coordinates":{"latitude":40.693321,"longitude":-73.969045},"review_count":349,"rating":3.5,"zip_code":"11205"},{"id":"gt-0HkY2DC-NscmhOsKOWw","name":"The Hutton","cuisine":"American","address":"225 Hutton St","coordinates":{"latitude":40.746707841754,"longitude":-74.0555749833584},"review_count":111,"rating":4.5,"zip_code":"07307"},{"id":"fmrtc7AsD7GS3BAfJ8QQHQ","name":"Gentleman Farmer - Fort Greene","cuisine":"American","address":"378 Myrtle Ave","coordinates":{"latitude":40.692995,"longitude":-73.971074},"review_count":99,"rating":4.5,"zip_code":"11205"},{"id":"ZRN7RNNfH-tUF0uqSLgxsA","name":"The Monarch Room","cuisine":"American","address":"408 W 15th St","coordinates":{"latitude":40.741779,"longitude":-74.005791},"review_count":51,"rating":3,"zip_code":"10011"},{"id":"0D4a1adz96Gxnfd0JqwrEg","name":"The Whitby Bar and Restaurant","cuisine":"American","address":"18 W 56th St","coordinates":{"latitude":40.76271,"longitude":-73.97566},"review_count":22,"rating":4,"zip_code":"10019"},{"id":"k8iVVuYic-fCgmzzfDkGNA","name":"MOLOKO","cuisine":"American","address":"705 Myrtle Ave","coordinates":{"latitude":40.6949690078622,"longitude":-73.954842},"review_count":126,"rating":4.5,"zip_code":"11205"},{"id":"PXqpYoL5xTLOH_r-ajCmsA","name":"Raven's Head Public House","cuisine":"American","address":"3804 Broadway","coordinates":{"latitude":40.759257,"longitude":-73.91966},"review_count":207,"rating":3.5,"zip_code":"11103"},{"id":"f-WkzzSaAA_mdDmsKlJ4sw","name":"21 Greenpoint","cuisine":"American","address":"21 Greenpoint Ave","coordinates":{"latitude":40.72978,"longitude":-73.95992},"review_count":65,"rating":4,"zip_code":"11222"},{"id":"YHXsmYfxbgczsq8Ie1_C5w","name":"Concord Hill","cuisine":"American","address":"374 Graham Ave","coordinates":{"latitude":40.71558,"longitude":-73.94428},"review_count":117,"rating":4,"zip_code":"11211"},{"id":"_BsM67A1_JqAmgXA3SznKg","name":"La Fusta Restaurant","cuisine":"American","address":"80-32 Baxter Ave","coordinates":{"latitude":40.7446937,"longitude":-73.8843894},"review_count":227,"rating":4,"zip_code":"11373"},{"id":"Om6KGbN524K6pu9IkPT0Rg","name":"Maite","cuisine":"American","address":"159 Central Ave","coordinates":{"latitude":40.69924,"longitude":-73.926797},"review_count":147,"rating":4,"zip_code":"11221"},{"id":"7nlSryFlkqzfd-n0iRm2Vg","name":"'Wichcraft - Tribeca","cuisine":"American","address":"397 Greenwich St","coordinates":{"latitude":40.7206009,"longitude":-74.0097825},"review_count":90,"rating":3,"zip_code":"10013"},{"id":"vOIlzW-0LPGWVvRurdzDWQ","name":"LITM","cuisine":"American","address":"140 Newark Ave","coordinates":{"latitude":40.720429,"longitude":-74.043648},"review_count":289,"rating":3.5,"zip_code":"07302"},{"id":"RbMC9zD11aB3kgrXi6O3BQ","name":"The Narrows","cuisine":"American","address":"1037 Flushing Ave","coordinates":{"latitude":40.704114,"longitude":-73.930878},"review_count":162,"rating":4,"zip_code":"11237"},{"id":"ZXQrskaUKj4_5jgFdBnD_w","name":"Troost","cuisine":"American","address":"1011 Manhattan Ave","coordinates":{"latitude":40.73348,"longitude":-73.95496},"review_count":77,"rating":4,"zip_code":"11222"},{"id":"_EvMuZ9HDTdEZeRf-IJlQQ","name":"Taphaus","cuisine":"American","address":"2 2nd St","coordinates":{"latitude":40.721593,"longitude":-74.031772},"review_count":412,"rating":3,"zip_code":"07302"},{"id":"2GAdXrhCfUZOULND6afoCw","name":"Houlihan's","cuisine":"American","address":"1200 Harbor Blvd","coordinates":{"latitude":40.760012,"longitude":-74.0222447},"review_count":216,"rating":3,"zip_code":"07086"},{"id":"unJelornHwKdx24Rl-rEMA","name":"Northern Territory","cuisine":"American","address":"12 Franklin St","coordinates":{"latitude":40.7258849410803,"longitude":-73.9571600407362},"review_count":235,"rating":3,"zip_code":"11222"},{"id":"N-R0J3o7cmbd2ZwtLWHntQ","name":"Chop Chop Grub Shop","cuisine":"American","address":"3507 Ditmars Blvd","coordinates":{"latitude":40.77484,"longitude":-73.90841},"review_count":64,"rating":4.5,"zip_code":"11105"},{"id":"0j19wA2-Mct1XizDKN2uQA","name":"Blu Restaurant","cuisine":"American","address":"127 W 28th St","coordinates":{"latitude":40.74679,"longitude":-73.99172},"review_count":55,"rating":3,"zip_code":"10001"},{"id":"e8pGWlIqfUtWbSVwnqzAtA","name":"The Stewed Cow","cuisine":"American","address":"400 Adams St","coordinates":{"latitude":40.742416,"longitude":-74.0362335},"review_count":185,"rating":3.5,"zip_code":"07030"},{"id":"FCms-eFFxnpMLm09AJridQ","name":"Peaches Shrimp and Crab","cuisine":"American","address":"285 Grand Ave","coordinates":{"latitude":40.687997,"longitude":-73.962681},"review_count":166,"rating":4,"zip_code":"11238"},{"id":"pjoUbRK5kKkXKHuAsvDkjQ","name":"Egg Shop","cuisine":"American","address":"138 N 8th St","coordinates":{"latitude":40.7188237833334,"longitude":-73.9581152424216},"review_count":82,"rating":4,"zip_code":"11249"},{"id":"RXX8EgFdSFl_uEyq7FhcNg","name":"Skytown","cuisine":"American","address":"921 Broadway","coordinates":{"latitude":40.6976048354338,"longitude":-73.9360729407192},"review_count":224,"rating":4,"zip_code":"11206"},{"id":"yGQT6OZ-nNIhTKj32wRlmA","name":"Bar Bolinas","cuisine":"American","address":"455 Myrtle Ave","coordinates":{"latitude":40.69342,"longitude":-73.9673},"review_count":97,"rating":4,"zip_code":"11205"},{"id":"4W0qF6C0KDmGDOc4pR3CkQ","name":"The Spot Mix Grill","cuisine":"American","address":"5310 Park Ave","coordinates":{"latitude":40.78193,"longitude":-74.01243},"review_count":25,"rating":5,"zip_code":"07093"},{"id":"5mCpnWF5W6zJ4esmxg7hsg","name":"Norman","cuisine":"American","address":"29 Norman Ave","coordinates":{"latitude":40.7246841,"longitude":-73.9548224},"review_count":58,"rating":4,"zip_code":"11222"},{"id":"Om90JRI_GNJ4J3ulEcGuNw","name":"Fat Goose","cuisine":"American","address":"125 Wythe Ave","coordinates":{"latitude":40.720037,"longitude":-73.959617},"review_count":143,"rating":3.5,"zip_code":"11249"},{"id":"4SdvTwFkW3Qx0f_3zBN_ZA","name":"Bareli's","cuisine":"American","address":"219 Rte 3 E","coordinates":{"latitude":40.7912822,"longitude":-74.0548778},"review_count":109,"rating":4.5,"zip_code":"07094"},{"id":"6G0urbBDz_CnYnGXApgUcw","name":"Boutros","cuisine":"American","address":"185 Atlantic Ave","coordinates":{"latitude":40.6901481293837,"longitude":-73.9935445412993},"review_count":73,"rating":4.5,"zip_code":"11201"},{"id":"RfxOtJ4SQmEeVX_XjFLWUQ","name":"OTIS","cuisine":"American","address":"18 Harrison Pl","coordinates":{"latitude":40.706019,"longitude":-73.932604},"review_count":52,"rating":5,"zip_code":"11206"},{"id":"eEMUnRqhLKHMIw-TIQhAzg","name":"Robert's Steakhouse","cuisine":"American","address":"603 W 45th St","coordinates":{"latitude":40.7630271911621,"longitude":-73.9971313476562},"review_count":20,"rating":4,"zip_code":"10036"},{"id":"xzSCmIvmLjgXm2x3epuorQ","name":"Colador Cafe","cuisine":"American","address":"1000 Bedford Ave","coordinates":{"latitude":40.6906394958496,"longitude":-73.9556045532227},"review_count":263,"rating":3.5,"zip_code":"11205"},{"id":"eybrq-0U5suwVtjWJPCaqw","name":"No 7","cuisine":"American","address":"7 Greene Ave","coordinates":{"latitude":40.6861000061035,"longitude":-73.9730529785156},"review_count":335,"rating":3.5,"zip_code":"11238"},{"id":"-8DN9JN07jLnDEPi19cSzw","name":"Building on Bond","cuisine":"American","address":"112 Bond St","coordinates":{"latitude":40.686466067969,"longitude":-73.985258116561},"review_count":358,"rating":3.5,"zip_code":"11217"},{"id":"qgPYGl1Nuie2XBF1YqJHSA","name":"The Market","cuisine":"American","address":"372 Lafayette Ave","coordinates":{"latitude":40.6887759766071,"longitude":-73.9604237030468},"review_count":116,"rating":4,"zip_code":"11238"},{"id":"3y_-DwmoM198umnZHSOmKQ","name":"Yves","cuisine":"American","address":"385 Greenwich St","coordinates":{"latitude":40.7202,"longitude":-74.00986},"review_count":31,"rating":4,"zip_code":"10013"},{"id":"F0xWRSEu-w4pIqFl-c7uIg","name":"The Morgan Dining Room","cuisine":"American","address":"225 Madison Ave","coordinates":{"latitude":40.7493652403355,"longitude":-73.9817237108946},"review_count":16,"rating":4,"zip_code":"10016"},{"id":"6gxAuRoZnEFERnIrtE6BAg","name":"Little King","cuisine":"American","address":"749 Metropolitan Ave","coordinates":{"latitude":40.7146009312125,"longitude":-73.944029109973},"review_count":55,"rating":4.5,"zip_code":"11211"},{"id":"y1192qiuwi3m0tqdt1Dh7g","name":"Sugar Momma","cuisine":"American","address":"15 Cliff St","coordinates":{"latitude":40.70837,"longitude":-74.00563},"review_count":20,"rating":5,"zip_code":"10038"},{"id":"ZtjF2N3eYOjtnI3cES2fpw","name":"Duke Eatery","cuisine":"American","address":"300 Park Ave","coordinates":{"latitude":40.7569688575924,"longitude":-73.9750746534424},"review_count":22,"rating":4,"zip_code":"10022"},{"id":"aBquN4JMP8GSJ6s91Ms9UQ","name":"Ainsworth Hoboken","cuisine":"American","address":"310 Sinatra Dr","coordinates":{"latitude":40.7397749,"longitude":-74.0271229},"review_count":297,"rating":3,"zip_code":"07030"},{"id":"93C1xqdTGHyGtoZ9vwn3KA","name":"Ketch Brewhouse","cuisine":"American","address":"6 Platt St","coordinates":{"latitude":40.7073900260528,"longitude":-74.0063956752419},"review_count":53,"rating":3.5,"zip_code":"10038"},{"id":"rhXVz4mtPVkJeObowGTKMg","name":"Eli's Table","cuisine":"American","address":"1413 3rd Ave","coordinates":{"latitude":40.7750198,"longitude":-73.9565473},"review_count":32,"rating":3.5,"zip_code":"10028"},{"id":"nrvCwPbCpYL_jtaKd7tGfQ","name":"Charlie Palmer at the Knick","cuisine":"American","address":"6 Times Square","coordinates":{"latitude":40.755599,"longitude":-73.9862681},"review_count":47,"rating":3,"zip_code":"10037"},{"id":"hlQWGwlAu_b5BAXMF7Ihbw","name":"Out Latin Food","cuisine":"American","address":"710 9th Ave","coordinates":{"latitude":40.76244,"longitude":-73.98932},"review_count":39,"rating":3.5,"zip_code":"10019"},{"id":"6LQeH2JwTD3Rskyog8lKng","name":"Gotham Lounge","cuisine":"American","address":"700 5th Ave","coordinates":{"latitude":40.7616,"longitude":-73.9752},"review_count":38,"rating":3.5,"zip_code":"10019"},{"id":"CjSLDlOGzyHcJPwYXZQsWw","name":"Clinton Hall","cuisine":"American","address":"230 E 51st St","coordinates":{"latitude":40.7558,"longitude":-73.96905},"review_count":16,"rating":4,"zip_code":"10022"},{"id":"4gLLWT4dFnfrcuREA5eg0w","name":"The LCL: Bar & Kitchen","cuisine":"American","address":"212 E 42nd St","coordinates":{"latitude":40.7504082,"longitude":-73.9739914},"review_count":58,"rating":3,"zip_code":"10017"},{"id":"u3wAKkynmIkXjVdFXkrnVg","name":"Maritime Parc","cuisine":"American","address":"84 Audrey Zapp Dr","coordinates":{"latitude":40.7095350427965,"longitude":-74.041712988011},"review_count":231,"rating":3.5,"zip_code":"07305"},{"id":"tt3tuCsofQAqL1OP5FFZ2Q","name":"Hudson Tavern","cuisine":"American","address":"51 14th St","coordinates":{"latitude":40.75285,"longitude":-74.02535},"review_count":119,"rating":3.5,"zip_code":"07030"},{"id":"zupIzmhdcH0U6vJQQxDBiQ","name":"Bar Bruno","cuisine":"American","address":"520 Henry St","coordinates":{"latitude":40.6833674,"longitude":-73.9997959},"review_count":202,"rating":4,"zip_code":"11231"},{"id":"w8ib1lWe3SvhxO50dIPIyQ","name":"Dorian Cafe","cuisine":"American","address":"10-01 50th Ave","coordinates":{"latitude":40.7427376665823,"longitude":-73.9539297717736},"review_count":161,"rating":3,"zip_code":"11101"},{"id":"UIEeOn92c5TYtGjjRJiQzw","name":"Butcher & Banker","cuisine":"American","address":"481 8th Ave","coordinates":{"latitude":40.75263,"longitude":-73.99338},"review_count":29,"rating":3.5,"zip_code":"10001"},{"id":"993scf-a74EDKQ8KCy_6bw","name":"The Standard Plaza","cuisine":"American","address":"848 Washington Street","coordinates":{"latitude":40.740829,"longitude":-74.008071},"review_count":36,"rating":3.5,"zip_code":"10014"},{"id":"f3wkQwZewuC4Xg0C0mLYWA","name":"Restaurant at Rose Hill","cuisine":"American","address":"34 E 32nd St","coordinates":{"latitude":40.746,"longitude":-73.98333},"review_count":29,"rating":3.5,"zip_code":"10016"}]}
