{"businesses":[{"id":"x0k5kFArHLijdY8-NEQ7Xg","name":"Bengal Tiger Indian Food","cuisine":"Indian","address":"58 W 56th St","coordinates":{"latitude":40.763167,"longitude":-73.977131},"review_count":1162,"rating":4.5,"zip_code":"10019"},{"id":"sCC7-hSdCkNPExejZT9BAQ","name":"The MasalaWala","cuisine":"Indian","address":"179 Essex St","coordinates":{"latitude":40.72191,"longitude":-73.98666},"review_count":1156,"rating":4.5,"zip_code":"10002"},{"id":"BPyt7S9TdcR1u571iacg7g","name":"The Kati Roll Company","cuisine":"Indian","address":"49 W 39th St","coordinates":{"latitude":40.75269,"longitude":-73.98466},"review_count":1285,"rating":4,"zip_code":"10018"},{"id":"NgD-6ogFGc_c4z5_Ur4k2g","name":"Dhaba Indian Cuisine","cuisine":"Indian","address":"108 Lexington Ave","coordinates":{"latitude":40.742364,"longitude":-73.982813},"review_count":1373,"rating":3.5,"zip_code":"10016"},{"id":"9pMhRYYgV7E9L7pzECtJKA","name":"Drunken Munkey NYC","cuisine":"Indian","address":"338 E 92nd St","coordinates":{"latitude":40.7808609,"longitude":-73.9475937},"review_count":697,"rating":4.5,"zip_code":"10128"},{"id":"x3NeZ4xToUxVKDoZ32D5tg","name":"NY Dosas","cuisine":"Indian","address":"50 Washington Sq S","coordinates":{"latitude":40.7308386079893,"longitude":-73.99863779767},"review_count":359,"rating":4.5,"zip_code":"10014"},{"id":"HEs6llkn3wIP1ATXeIZQew","name":"Pippali","cuisine":"Indian","address":"129 E 27th St","coordinates":{"latitude":40.74241,"longitude":-73.98325},"review_count":554,"rating":4,"zip_code":"10016"},{"id":"DZE4ThXa7d0kSXnR3Hb-kg","name":"Junoon","cuisine":"Indian","address":"27 W 24th St","coordinates":{"latitude":40.743193,"longitude":-73.990838},"review_count":1182,"rating":3.5,"zip_code":"10010"},{"id":"1_pK5aQ47atF50oAKHADhA","name":"Indian Accent","cuisine":"Indian","address":"123 W 56th St","coordinates":{"latitude":40.7643344624229,"longitude":-73.9787312885132},"review_count":354,"rating":4.5,"zip_code":"10019"},{"id":"tIjQyHOubGeKRnx4wSwOeA","name":"goa taco","cuisine":"Indian","address":"79 Delancey St","coordinates":{"latitude":40.71887,"longitude":-73.99003},"review_count":450,"rating":4.5,"zip_code":"10002"},{"id":"ZrdTKStTAo2pchslOev1KQ","name":"Chennai Garden by Tiffin Wallah","cuisine":"Indian","address":"127 E 28th St","coordinates":{"latitude":40.74298,"longitude":-73.98274},"review_count":664,"rating":4,"zip_code":"10016"},{"id":"SP4bvMvxel_UPdof_er3HA","name":"Taco Mahal","cuisine":"Indian","address":"73 7th Ave S","coordinates":{"latitude":40.7323553689158,"longitude":-74.0035128796915},"review_count":342,"rating":4.5,"zip_code":"10014"},{"id":"Va_mnsEvBghHXvc7uZIWJQ","name":"Spice Symphony","cuisine":"Indian","address":"182 Lexington Ave","coordinates":{"latitude":40.744722,"longitude":-73.981202},"review_count":477,"rating":4,"zip_code":"10016"},{"id":"kS2CP48K66yL2TwIhUqy_A","name":"Tamarind","cuisine":"Indian","address":"99 Hudson St","coordinates":{"latitude":40.71909,"longitude":-74.00892},"review_count":728,"rating":4,"zip_code":"10013"},{"id":"S6r0P0PItA9EYHV1nCiQgg","name":"Mysttik Masaala","cuisine":"Indian","address":"375 Park Ave","coordinates":{"latitude":40.7588940107455,"longitude":-73.9723344813227},"review_count":308,"rating":4.5,"zip_code":"10022"},{"id":"sCHiXF4mZcsiY8_cBHNiqw","name":"indikitch","cuisine":"Indian","address":"25 W 23rd St","coordinates":{"latitude":40.7422142028809,"longitude":-73.9904403686523},"review_count":613,"rating":4,"zip_code":"10010"},{"id":"kB3QyyhHFVyhGgp35Rnuew","name":"The Kati Roll Company","cuisine":"Indian","address":"99 MacDougal St","coordinates":{"latitude":40.7296,"longitude":-74.00096},"review_count":794,"rating":4,"zip_code":"10012"},{"id":"PdzL9svqapSqH4o8bF86Pw","name":"Punjabi Grocery & Deli","cuisine":"Indian","address":"114 E 1st St","coordinates":{"latitude":40.7227225423661,"longitude":-73.9866224576721},"review_count":348,"rating":4.5,"zip_code":"10009"},{"id":"wQjQHZKH_DxwntbSe1QdxQ","name":"Brick Lane Curry House","cuisine":"Indian","address":"99 2nd Ave","coordinates":{"latitude":40.72738,"longitude":-73.98897},"review_count":932,"rating":3.5,"zip_code":"10003"},{"id":"3uEkZEAp7biQEtt0S7W1Vg","name":"Vatan Indian Vegetarian","cuisine":"Indian","address":"409 3rd Ave","coordinates":{"latitude":40.74231,"longitude":-73.98024},"review_count":515,"rating":4,"zip_code":"10016"},{"id":"QqrEF8_ZQCGi63cL10J5oA","name":"Chola","cuisine":"Indian","address":"232 E 58th St","coordinates":{"latitude":40.76026,"longitude":-73.96576},"review_count":530,"rating":4,"zip_code":"10022"},{"id":"7DUPGtHqVZHJ3yIufbWLsg","name":"Malai Marke Indian Cuisine","cuisine":"Indian","address":"318 E 6th St","coordinates":{"latitude":40.726934,"longitude":-73.98758},"review_count":493,"rating":4,"zip_code":"10003"},{"id":"ZikqL-flwV2XYlKtL2UfmA","name":"Rangoli Exquisite Indian Cuisine","cuisine":"Indian","address":"1393 A 2nd Ave","coordinates":{"latitude":40.7693,"longitude":-73.95823},"review_count":325,"rating":4.5,"zip_code":"10021"},{"id":"CO3lm5309asRY7XG5eXNgg","name":"Rahi","cuisine":"Indian","address":"60 Greenwich Ave","coordinates":{"latitude":40.7360271,"longitude":-74.0005436},"review_count":185,"rating":4.5,"zip_code":"10011"},{"id":"5z7OuOWuZRu6byp2XDKbQw","name":"Saravanaa Bhavan","cuisine":"Indian","address":"81 Lexington Ave","coordinates":{"latitude":40.7414,"longitude":-73.98306},"review_count":769,"rating":3.5,"zip_code":"10016"},{"id":"izRJeBfDQYJmd6ibIQ6Mfg","name":"Mughlai Indian Cuisine","cuisine":"Indian","address":"1724 2nd Ave","coordinates":{"latitude":40.78002,"longitude":-73.94978},"review_count":275,"rating":4.5,"zip_code":"10128"},{"id":"6NcU2JAznLr9dDHp6GgQyw","name":"Doaba Deli","cuisine":"Indian","address":"945 Columbus Ave","coordinates":{"latitude":40.7994,"longitude":-73.962402},"review_count":202,"rating":4.5,"zip_code":"10025"},{"id":"qs5aBgcT2v1BFlW-XqQS0Q","name":"Biryani Cart","cuisine":"Indian","address":"46TH St And 6th Ave","coordinates":{"latitude":40.75739,"longitude":-73.98225},"review_count":488,"rating":4,"zip_code":"10036"},{"id":"wm10mMj_41_-l_gRhRH3TA","name":"indikitch","cuisine":"Indian","address":"940 8th Ave","coordinates":{"latitude":40.76573,"longitude":-73.98338},"review_count":327,"rating":4,"zip_code":"10019"},{"id":"V2oWqXcoJkgGeIPOaS9eDA","name":"Masala Times Greenwich Village","cuisine":"Indian","address":"194 Bleecker St","coordinates":{"latitude":40.7292728223798,"longitude":-74.0015978515206},"review_count":478,"rating":4,"zip_code":"10012"},{"id":"m5Whyz8O8jM4DrE808h71g","name":"Darbar Grill","cuisine":"Indian","address":"157 E 55th St","coordinates":{"latitude":40.759357,"longitude":-73.968826},"review_count":456,"rating":4,"zip_code":"10022"},{"id":"_7BGw3YFNOTzP1Www3zB7g","name":"Mughlai Grill","cuisine":"Indian","address":"6 Clinton St","coordinates":{"latitude":40.7210905,"longitude":-73.9840446},"review_count":145,"rating":5,"zip_code":"10002"},{"id":"bFUVp77ApNkACqXvgiekPQ","name":"Bhatti Indian Grill","cuisine":"Indian","address":"100 Lexington Ave","coordinates":{"latitude":40.74221,"longitude":-73.98308},"review_count":591,"rating":3.5,"zip_code":"10016"},{"id":"hKKDfUPcDX_c-RCWBMOr1w","name":"Bombay Sandwich Co.","cuisine":"Indian","address":"48 W 27th St","coordinates":{"latitude":40.7450715521913,"longitude":-73.990359620218},"review_count":331,"rating":4,"zip_code":"10001"},{"id":"mZALre3ahuetu5X8_uUJew","name":"Thelewala","cuisine":"Indian","address":"112 Macdougal St","coordinates":{"latitude":40.72963,"longitude":-74.00068},"review_count":401,"rating":4,"zip_code":"10012"},{"id":"RdETxi25tbocKIcMiW5TxQ","name":"Darbar Fine Indian Cuisine","cuisine":"Indian","address":"152 E 46th St","coordinates":{"latitude":40.75348,"longitude":-73.97355},"review_count":423,"rating":4,"zip_code":"10017"},{"id":"yKQZqmCbk3EkGC5ajHgEGg","name":"Amma","cuisine":"Indian","address":"246 E 51st St","coordinates":{"latitude":40.75554,"longitude":-73.96874},"review_count":446,"rating":4,"zip_code":"10022"},{"id":"XKy4Cy4uNgO7rxhH4yFJQQ","name":"Mughlai Indian Cuisine","cuisine":"Indian","address":"329 3rd Ave","coordinates":{"latitude":40.739692,"longitude":-73.982116},"review_count":269,"rating":4,"zip_code":"10010"},{"id":"7USPKYeaAfxl0Ch9j_1l7A","name":"Moti Mahal Delux","cuisine":"Indian","address":"1149 1st Ave","coordinates":{"latitude":40.76213,"longitude":-73.9605},"review_count":388,"rating":4,"zip_code":"10065"},{"id":"_nScWpFX3M1K7s30hFEsRw","name":"Inday","cuisine":"Indian","address":"1133 Broadway","coordinates":{"latitude":40.7434986,"longitude":-73.9892206},"review_count":278,"rating":4,"zip_code":"10010"},{"id":"zVLG_O3AQnvQ53PSJ5mTMA","name":"Om Restaurant","cuisine":"Indian","address":"1593 2nd Ave","coordinates":{"latitude":40.77583,"longitude":-73.95364},"review_count":439,"rating":4,"zip_code":"10028"},{"id":"V2A9Leycc5_FEpgQC34i7Q","name":"India Kitchen","cuisine":"Indian","address":"493 9th Ave","coordinates":{"latitude":40.7558227,"longitude":-73.9947132},"review_count":222,"rating":4,"zip_code":"10018"},{"id":"FvnExtQHPfz_crDCBTQ1iQ","name":"Mint Masala","cuisine":"Indian","address":"95 Macdougal St","coordinates":{"latitude":40.72953,"longitude":-74.00115},"review_count":255,"rating":4,"zip_code":"10012"},{"id":"DOdbSGm9ULZlVz-1-Jjhmg","name":"Chote Nawab","cuisine":"Indian","address":"115 Lexington Ave","coordinates":{"latitude":40.74246,"longitude":-73.98232},"review_count":469,"rating":3.5,"zip_code":"10016"},{"id":"nd0uXNXaeaDMuMk4C1GusA","name":"Bukhara Grill","cuisine":"Indian","address":"217 E 49th St","coordinates":{"latitude":40.75501,"longitude":-73.97028},"review_count":482,"rating":3.5,"zip_code":"10017"},{"id":"jG3XHl8Bkw5KEwAI93ciVw","name":"Nirvana","cuisine":"Indian","address":"346 Lexington Ave","coordinates":{"latitude":40.750026,"longitude":-73.977401},"review_count":425,"rating":3.5,"zip_code":"10016"},{"id":"Y2I946V78wOdwaUD9chmqg","name":"Roti Roll Bombay Frankie","cuisine":"Indian","address":"994 Amsterdam Ave","coordinates":{"latitude":40.8026,"longitude":-73.96437},"review_count":334,"rating":4,"zip_code":"10025"},{"id":"lxNU-aBq0yPwBDx-i89ahA","name":"Seva Indian Cuisine","cuisine":"Indian","address":"3007 34th St","coordinates":{"latitude":40.7653633,"longitude":-73.9191014},"review_count":1027,"rating":4.5,"zip_code":"11103"},{"id":"yV7brOiTLS3Lmwws8e3nXA","name":"Dil-e Punjab Deli","cuisine":"Indian","address":"170 9th Ave","coordinates":{"latitude":40.74482,"longitude":-74.00206},"review_count":156,"rating":4.5,"zip_code":"10011"},{"id":"2LFYEpREb8A0gr-rQSrnXA","name":"Indian Project","cuisine":"Indian","address":"243 W 38th St","coordinates":{"latitude":40.75426,"longitude":-73.99028},"review_count":205,"rating":4,"zip_code":"10018"},{"id":"_z2_1TE_1brlvljiGtJ4mA","name":"Aahar Indian Cuisine","cuisine":"Indian","address":"10 Murray St","coordinates":{"latitude":40.71334,"longitude":-74.0081},"review_count":204,"rating":4.5,"zip_code":"10007"},{"id":"iXSuNKKUBIrBX7zUerlQDQ","name":"Benares","cuisine":"Indian","address":"45 Murray Street","coordinates":{"latitude":40.7141,"longitude":-74.00925},"review_count":361,"rating":4,"zip_code":"10007"},{"id":"N7pDKAFOR1F_oCVH_Fc7Wg","name":"Ahimsa","cuisine":"Indian","address":"210 Thompson St","coordinates":{"latitude":40.72878,"longitude":-73.99924},"review_count":189,"rating":4,"zip_code":"10012"},{"id":"1TLoaB7SXJZo3W5f4OGm8w","name":"Ayurveda Cafe","cuisine":"Indian","address":"706 Amsterdam Ave","coordinates":{"latitude":40.79305,"longitude":-73.97132},"review_count":267,"rating":4,"zip_code":"10025"},{"id":"guwS_mhhUjOT5d8sYfEluQ","name":"Adyar Ananda Bhavan","cuisine":"Indian","address":"1071 1st Ave","coordinates":{"latitude":40.759381,"longitude":-73.962489},"review_count":233,"rating":4,"zip_code":"10022"},{"id":"7Dm0ramHbk77F4yD115WWg","name":"Aaheli Indian Cuisine","cuisine":"Indian","address":"826 9th Ave","coordinates":{"latitude":40.76603,"longitude":-73.9867},"review_count":329,"rating":4,"zip_code":"10019"},{"id":"EPHhPGDFvnq2ARTBxAikuw","name":"Milon","cuisine":"Indian","address":"93 1st Ave","coordinates":{"latitude":40.726322,"longitude":-73.986648},"review_count":477,"rating":3.5,"zip_code":"10003"},{"id":"t_tWuzMEsoD9GDgAm_0l7g","name":"Swagat","cuisine":"Indian","address":"411 Amsterdam Ave","coordinates":{"latitude":40.78353,"longitude":-73.97782},"review_count":345,"rating":3.5,"zip_code":"10024"},{"id":"Rr55bXbJcfdm4lIf-1f0Qw","name":"Kwik Gourmet","cuisine":"Indian","address":"250 Park Ave E 47th St","coordinates":{"latitude":40.75332,"longitude":-73.97106},"review_count":228,"rating":4,"zip_code":"10177"},{"id":"A-ert0jDRBfku9ogyW_mEg","name":"Spice Symphony","cuisine":"Indian","address":"150 E 50th St","coordinates":{"latitude":40.7558937072754,"longitude":-73.9715347290039},"review_count":172,"rating":4.5,"zip_code":"10022"},{"id":"3N3XesISm5tg_nsjL10eFA","name":"Chapati House","cuisine":"Indian","address":"3153 Broadway","coordinates":{"latitude":40.814613,"longitude":-73.95959},"review_count":183,"rating":4,"zip_code":"10027"},{"id":"S8a--JIL9yEaU-D1yucI9Q","name":"Haveli Restaurant","cuisine":"Indian","address":"100 2nd Ave","coordinates":{"latitude":40.727119,"longitude":-73.988349},"review_count":312,"rating":4,"zip_code":"10003"},{"id":"gWuHmSQ8G5FiKv-rEogwvA","name":"Pongal","cuisine":"Indian","address":"110 Lexington Ave","coordinates":{"latitude":40.74246,"longitude":-73.9829},"review_count":378,"rating":3.5,"zip_code":"10016"},{"id":"FXDMFBM-rV2s5MHzA33d2g","name":"Bombay Grill House","cuisine":"Indian","address":"764 9th Ave","coordinates":{"latitude":40.76415,"longitude":-73.98806},"review_count":156,"rating":4,"zip_code":"10019"},{"id":"1SgiWHlFN5mp5gNLSGx2Ww","name":"Panna II Garden Indian Restaurant","cuisine":"Indian","address":"93 1st Ave","coordinates":{"latitude":40.72626,"longitude":-73.9865},"review_count":836,"rating":3,"zip_code":"10003"},{"id":"z2VXX7wGl8XZ6_oo9W3koA","name":"Patiala Indian Grill","cuisine":"Indian","address":"371 W 34th St","coordinates":{"latitude":40.7533149,"longitude":-73.9960898},"review_count":174,"rating":4,"zip_code":"10001"},{"id":"jwPAFWZ5B6ctjFqa4_mUSw","name":"Basera","cuisine":"Indian","address":"745 9th Ave","coordinates":{"latitude":40.76384,"longitude":-73.9891},"review_count":400,"rating":3.5,"zip_code":"10019"},{"id":"15svH3HiVDwHMSIlRYpk6A","name":"Ashoka Indian Restaurant","cuisine":"Indian","address":"489 Columbus Ave","coordinates":{"latitude":40.78476,"longitude":-73.97303},"review_count":149,"rating":4.5,"zip_code":"10024"},{"id":"CzcZsX0Mvm5G8LOlKRr0WA","name":"Dhaulagiri Kitchen","cuisine":"Indian","address":"124 Lexington Ave","coordinates":{"latitude":40.7429351994987,"longitude":-73.9825588837266},"review_count":138,"rating":4,"zip_code":"10016"},{"id":"YM5AbOOg-TjuHJrQmfd0Hw","name":"Desi Galli","cuisine":"Indian","address":"101 Lexington Ave","coordinates":{"latitude":40.742069,"longitude":-73.982528},"review_count":262,"rating":3.5,"zip_code":"10016"},{"id":"xeIhR9gx0OsTdoQ0mmEUsA","name":"Badshah Modern Indian","cuisine":"Indian","address":"788 9th Ave","coordinates":{"latitude":40.76483,"longitude":-73.98756},"review_count":147,"rating":4,"zip_code":"10019"},{"id":"lPno4CCubHeWXnPnglp8sQ","name":"Soho Tiffin Junction - Burgers & Bowls","cuisine":"Indian","address":"42 East 8th St","coordinates":{"latitude":40.7313073066519,"longitude":-73.9942170244884},"review_count":233,"rating":4,"zip_code":"10003"},{"id":"KbCLZOKvPdNY7ptAg0kGxw","name":"The Kati Roll Company","cuisine":"Indian","address":"229 E 53rd St","coordinates":{"latitude":40.7572680281001,"longitude":-73.9678144454956},"review_count":279,"rating":3.5,"zip_code":"10022"},{"id":"uucP1LoFyamFS0qDwgMXbg","name":"Ghandi Cafe","cuisine":"Indian","address":"283 Bleecker St","coordinates":{"latitude":40.73194,"longitude":-74.0033},"review_count":312,"rating":4,"zip_code":"10014"},{"id":"lP8uDU4oNEkPD8-Ik-PvQQ","name":"Awadh","cuisine":"Indian","address":"2588 Broadway","coordinates":{"latitude":40.79583,"longitude":-73.970716},"review_count":248,"rating":3.5,"zip_code":"10025"},{"id":"NVCLcLa_7LMEJipAQmNlZw","name":"Agra Restaurant","cuisine":"Indian","address":"807 Lexington Ave","coordinates":{"latitude":40.7642247,"longitude":-73.9665107},"review_count":158,"rating":4,"zip_code":"10021"},{"id":"tN37MOvqzrmpU0h0PfoDmw","name":"Utsav","cuisine":"Indian","address":"1185 Avenue Of The Americas Plz","coordinates":{"latitude":40.7578756,"longitude":-73.9824244},"review_count":369,"rating":3.5,"zip_code":"10036"},{"id":"_R6EjbrynW_LFnmWoRqgww","name":"Surya","cuisine":"Indian","address":"154 Bleecker St","coordinates":{"latitude":40.7281,"longitude":-73.99963},"review_count":148,"rating":4,"zip_code":"10012"},{"id":"7k2uvrFxOoBwV7c2m0UBNw","name":"Curry Express","cuisine":"Indian","address":"130 E 29th St","coordinates":{"latitude":40.7430499,"longitude":-73.98175},"review_count":197,"rating":3.5,"zip_code":"10016"},{"id":"jYhbUh1TV7SCfPxjIhVpcg","name":"Baar Baar","cuisine":"Indian","address":"13 East 1st St","coordinates":{"latitude":40.7244378855031,"longitude":-73.9915524},"review_count":96,"rating":4.5,"zip_code":"10003"},{"id":"9lKYC8qs6owmBazkVR5XDA","name":"Minar Indian Restaurant","cuisine":"Indian","address":"138 W 46th St","coordinates":{"latitude":40.757882,"longitude":-73.984024},"review_count":290,"rating":3.5,"zip_code":"10036"},{"id":"MotfuoOFiEmOKOcRCnRhdA","name":"Lahore Deli","cuisine":"Indian","address":"132 Crosby St","coordinates":{"latitude":40.72478,"longitude":-73.99632},"review_count":152,"rating":4,"zip_code":"10012"},{"id":"50eKjWOB-H9iuo1ocACOaQ","name":"Imli Urban Indian Food","cuisine":"Indian","address":"1136 1st Ave","coordinates":{"latitude":40.7616660604253,"longitude":-73.9601389691234},"review_count":100,"rating":4.5,"zip_code":"10065"},{"id":"JSX6Pk56w4BhgO8eSvCrKg","name":"aRoqa","cuisine":"Indian","address":"206 9th Ave","coordinates":{"latitude":40.74604,"longitude":-74.00125},"review_count":129,"rating":4,"zip_code":"10011"},{"id":"WrMu2G5M2im56uYKTd4Bgw","name":"Curry In A Hurry","cuisine":"Indian","address":"119 Lexington Ave","coordinates":{"latitude":40.74268,"longitude":-73.9822499},"review_count":415,"rating":3,"zip_code":"10016"},{"id":"4x4M_p_b8GvLkc4fe00GHA","name":"Biryani House Cart","cuisine":"Indian","address":"140 Broadway","coordinates":{"latitude":40.70865,"longitude":-74.01011},"review_count":144,"rating":4,"zip_code":"10005"},{"id":"9heTBCW1DDAKyO0GrY3Nxw","name":"Delhi Masala","cuisine":"Indian","address":"2077 Adam Clayton Powell Jr Blvd","coordinates":{"latitude":40.80799,"longitude":-73.94856},"review_count":122,"rating":4.5,"zip_code":"10027"},{"id":"fjjzAn0j6zCs2SNViuNfwQ","name":"Kailash Parbat","cuisine":"Indian","address":"99 Lexington Ave","coordinates":{"latitude":40.74206,"longitude":-73.98273},"review_count":220,"rating":3.5,"zip_code":"10016"},{"id":"uy7QmtN9Sdb8z5hm2_VZSQ","name":"Pondicheri","cuisine":"Indian","address":"15 W 27th St","coordinates":{"latitude":40.744449,"longitude":-73.988307},"review_count":172,"rating":3.5,"zip_code":"10001"},{"id":"yx8cpBwPttpdBvm4V1EawQ","name":"Joy Curry & Tandoor","cuisine":"Indian","address":"148 E 46th St","coordinates":{"latitude":40.75352,"longitude":-73.9736117202377},"review_count":157,"rating":3.5,"zip_code":"10017"},{"id":"iYh7mB7PDd5ZvZZ4lFPF1w","name":"Anand Indian Cuisine","cuisine":"Indian","address":"304 E 78th St","coordinates":{"latitude":40.77228,"longitude":-73.95525},"review_count":68,"rating":4.5,"zip_code":"10075"},{"id":"MzIUB4_G9TemKsPZJkelIw","name":"Sapphire Indian Cuisine","cuisine":"Indian","address":"1845 Broadway","coordinates":{"latitude":40.76937,"longitude":-73.9824},"review_count":304,"rating":3,"zip_code":"10023"},{"id":"ogEtpbCgxv38PyB3ebivqQ","name":"Yaar Indian Restaurant","cuisine":"Indian","address":"22-55 31st St","coordinates":{"latitude":40.774803026853,"longitude":-73.9120166023413},"review_count":318,"rating":4.5,"zip_code":"11105"},{"id":"qhXIW0LDT4XsoN2IE6dZHg","name":"Ahimsa Garden","cuisine":"Indian","address":"265 E 10th St","coordinates":{"latitude":40.72849,"longitude":-73.98319},"review_count":39,"rating":4.5,"zip_code":"10009"},{"id":"q3QWb_zYe5TxDqByWv1bKg","name":"Bombay Sandwich Co.","cuisine":"Indian","address":"224 W 35th St","coordinates":{"latitude":40.75202,"longitude":-73.99121},"review_count":65,"rating":4.5,"zip_code":"10001"},{"id":"lIXVm16VchbDXOf7v4hxMA","name":"Haandi Restaurant","cuisine":"Indian","address":"113 Lexington Ave","coordinates":{"latitude":40.7424,"longitude":-73.98237},"review_count":263,"rating":3.5,"zip_code":"10016"},{"id":"m9Q9x-Hcxp24gZCaTTJY-A","name":"Sahib","cuisine":"Indian","address":"104 Lexington Ave","coordinates":{"latitude":40.74232,"longitude":-73.9830099},"review_count":103,"rating":4,"zip_code":"10016"},{"id":"3hlAeWgSKAnSQ1tg8k8D8g","name":"Alachi Masala","cuisine":"Indian","address":"488 Amsterdam Ave","coordinates":{"latitude":40.78616,"longitude":-73.97635},"review_count":167,"rating":4,"zip_code":"10024"},{"id":"LWghzX6Vsw1ytEFP6lA8oA","name":"Apna Masala Indian Cuisine","cuisine":"Indian","address":"344 E 6th St","coordinates":{"latitude":40.726383463261,"longitude":-73.9864511163941},"review_count":173,"rating":4,"zip_code":"10003"},{"id":"HGNqWrRYJNyhJSS8yia8HQ","name":"Ruchi","cuisine":"Indian","address":"120 Cedar St","coordinates":{"latitude":40.7096108910337,"longitude":-74.0127293677959},"review_count":287,"rating":3.5,"zip_code":"10006"},{"id":"aM4h2RwyHyngSDehB_qq3g","name":"Dawat Haute Indian Cuisine","cuisine":"Indian","address":"210 E 58th St","coordinates":{"latitude":40.7605,"longitude":-73.96633},"review_count":157,"rating":3.5,"zip_code":"10022"},{"id":"pgGT9m03pNI15Ag2pAdY1Q","name":"Kurry Qulture","cuisine":"Indian","address":"3605 30th Ave","coordinates":{"latitude":40.7649112016844,"longitude":-73.917061437621},"review_count":235,"rating":4.5,"zip_code":"11103"},{"id":"L_MGrE-eRwSWaf06ltqXTw","name":"Andaz Indian Restaurant","cuisine":"Indian","address":"1378 1st Ave","coordinates":{"latitude":40.768726,"longitude":-73.954895},"review_count":182,"rating":3.5,"zip_code":"10021"},{"id":"U3hvDT5CtQrnpg2zhJg3mQ","name":"Kashmir 9 - Cuisine of Pakistan","cuisine":"Indian","address":"478 9th Ave","coordinates":{"latitude":40.7549782340085,"longitude":-73.9948511123657},"review_count":150,"rating":3.5,"zip_code":"10018"},{"id":"niivJKBqY5wToDukqZHetQ","name":"Karma Kafe","cuisine":"Indian","address":"505 Washington St","coordinates":{"latitude":40.74238,"longitude":-74.02909},"review_count":488,"rating":4,"zip_code":"07030"},{"id":"jb-Fe1cC3ZARF9xyFvJQYQ","name":"Tandoor Oven","cuisine":"Indian","address":"175 E 83rd St","coordinates":{"latitude":40.7771396,"longitude":-73.9556964},"review_count":136,"rating":3.5,"zip_code":"10028"},{"id":"ciIoPi0WqaNyB6xkwRKxzA","name":"Joy Curry & Tandoor","cuisine":"Indian","address":"32 W 39th St","coordinates":{"latitude":40.75207,"longitude":-73.98402},"review_count":103,"rating":3.5,"zip_code":"10018"},{"id":"o5sUOmtzcHAeSWtUuFJ00g","name":"Anjappar Chettinad Restaurant","cuisine":"Indian","address":"116 Lexington Ave","coordinates":{"latitude":40.742603,"longitude":-73.982795},"review_count":255,"rating":3,"zip_code":"10016"},{"id":"sng5ejEyAA22ncDwxdu2lw","name":"Chandni Restaurant","cuisine":"Indian","address":"13 W 29th St","coordinates":{"latitude":40.7459602355957,"longitude":-73.9878234863281},"review_count":123,"rating":3.5,"zip_code":"10001"},{"id":"B0IXsKwCk21hNQffYPJmHA","name":"Chaiwali Harlem","cuisine":"Indian","address":"274 Lenox Ave","coordinates":{"latitude":40.80678,"longitude":-73.94588},"review_count":184,"rating":3.5,"zip_code":"10027"},{"id":"h0Z2RZBZbiqS-Yw22WyTaQ","name":"Maharaja Palace","cuisine":"Indian","address":"2113 Frederick Douglass Blvd","coordinates":{"latitude":40.8033065717907,"longitude":-73.9562846158103},"review_count":146,"rating":3.5,"zip_code":"10026"},{"id":"yauWDobtVPplAiACo1JuYA","name":"Kabab Bites","cuisine":"Indian","address":"369 Broome St","coordinates":{"latitude":40.72002,"longitude":-73.99592},"review_count":72,"rating":4,"zip_code":"10013"},{"id":"T1CRoZ-f-hwrjdkBvt7_kg","name":"Indian Tanpura","cuisine":"Indian","address":"564 Amsterdam Ave","coordinates":{"latitude":40.78869,"longitude":-73.97468},"review_count":116,"rating":4,"zip_code":"10024"},{"id":"nQfPwIasXCi8NwNKq65vfw","name":"Mysttik Masaala","cuisine":"Indian","address":"270 Park Ave","coordinates":{"latitude":40.75576,"longitude":-73.97547},"review_count":85,"rating":4.5,"zip_code":"10172"},{"id":"XgqIDfU6tKPUdRxRG5uDNw","name":"Desi Deli Indian Restaurant","cuisine":"Indian","address":"724 10th Ave","coordinates":{"latitude":40.76433,"longitude":-73.99182},"review_count":87,"rating":4,"zip_code":"10019"},{"id":"jzO5HyrTtumHpe-pbUlndQ","name":"Aangan","cuisine":"Indian","address":"2701 Broadway","coordinates":{"latitude":40.799446,"longitude":-73.968795},"review_count":168,"rating":3.5,"zip_code":"10025"},{"id":"pg2NNr7wQeMo5cJoTYPBRQ","name":"Revolution Sandwich NY","cuisine":"Indian","address":"52 Walker St","coordinates":{"latitude":40.7191286,"longitude":-74.0032257},"review_count":54,"rating":4.5,"zip_code":"10013"},{"id":"aczqK-esIyqhyk7QLqcc1A","name":"TAJ","cuisine":"Indian","address":"310 E 6th St","coordinates":{"latitude":40.7270453396453,"longitude":-73.9879390597343},"review_count":218,"rating":3.5,"zip_code":"10003"},{"id":"H0tgZ_2Yuayn18ylu2c3XQ","name":"Cafe Matt & Meera","cuisine":"Indian","address":"618 Washington St","coordinates":{"latitude":40.7441350664979,"longitude":-74.0291907982559},"review_count":406,"rating":4,"zip_code":"07030"},{"id":"HsEmXckXmsRAAEVDFCGYYg","name":"Namaste","cuisine":"Indian","address":"31-15 30th Ave","coordinates":{"latitude":40.7668,"longitude":-73.92068},"review_count":458,"rating":4,"zip_code":"11102"},{"id":"WkN7pVHWEXpHJrIS1ohXUA","name":"Deccan Spice","cuisine":"Indian","address":"120 Lexington Ave","coordinates":{"latitude":40.74284,"longitude":-73.98263},"review_count":89,"rating":4,"zip_code":"10016"},{"id":"JCFEtB6jJXbOMJ7_ZUpD3g","name":"Spice Grill","cuisine":"Indian","address":"48 W 48th St","coordinates":{"latitude":40.7579956054688,"longitude":-73.9803848266602},"review_count":91,"rating":3.5,"zip_code":"10036"},{"id":"G4Y3yF4UfcCNSj0JFQQVDw","name":"A Saffron Thread Fresh Indian","cuisine":"Indian","address":"98 Chambers St","coordinates":{"latitude":40.71461,"longitude":-74.00774},"review_count":94,"rating":3.5,"zip_code":"10007"},{"id":"IRRhwACUiMaqkBVAZiCzeg","name":"Hampton Chutney","cuisine":"Indian","address":"143 Grand St","coordinates":{"latitude":40.720066,"longitude":-73.999588},"review_count":65,"rating":4,"zip_code":"10013"},{"id":"5faOK0osoS-zdEwT21S-Cg","name":"Saravanaa Bhavan","cuisine":"Indian","address":"413 Amsterdam Ave","coordinates":{"latitude":40.7835899,"longitude":-73.97777},"review_count":263,"rating":3,"zip_code":"10024"},{"id":"D_xGTuIZqh1g6ie9QybcYw","name":"Bawarchi Indian Cuisine","cuisine":"Indian","address":"1546 Madison Ave","coordinates":{"latitude":40.7928,"longitude":-73.95039},"review_count":88,"rating":4,"zip_code":"10029"},{"id":"2-Nuy6YhQcD6GFQHS9EqSw","name":"Chawlas 2","cuisine":"Indian","address":"216 3rd Ave","coordinates":{"latitude":40.73625,"longitude":-73.98535},"review_count":59,"rating":4,"zip_code":"10003"},{"id":"JvV8sTgUX6abRQPzb3hLgg","name":"New Curry Hut","cuisine":"Indian","address":"534 9th Ave","coordinates":{"latitude":40.75674,"longitude":-73.99347},"review_count":93,"rating":3.5,"zip_code":"10018"},{"id":"OD1CCNpXwUvXB9P6WkTy9A","name":"Tandoor Palace","cuisine":"Indian","address":"88 Fulton St","coordinates":{"latitude":40.7091703265905,"longitude":-74.0057663619518},"review_count":145,"rating":3.5,"zip_code":"10038"},{"id":"NhBUzlITbu3rdjm9UEfWsw","name":"Raj's Indian Kitchen","cuisine":"Indian","address":"27-18 Queens Plz S","coordinates":{"latitude":40.7498435974121,"longitude":-73.9393692016602},"review_count":171,"rating":4,"zip_code":"11101"},{"id":"XUataECnaOfdo4a87NqEFg","name":"Samudra Vegetarian Restaurant & Chaat House","cuisine":"Indian","address":"75-18 37th Ave","coordinates":{"latitude":40.7490953,"longitude":-73.8903772},"review_count":433,"rating":4,"zip_code":"11372"},{"id":"AlfkFxfD-cUBGA3Eq3j0Uw","name":"Mahal Kita","cuisine":"Indian","address":"184 Havemeyer St","coordinates":{"latitude":40.7106773,"longitude":-73.9582807},"review_count":233,"rating":4.5,"zip_code":"11211"},{"id":"yje3Sgcq3SnXBmNuybnQEw","name":"Old Monk","cuisine":"Indian","address":"175 Ave B","coordinates":{"latitude":40.72748,"longitude":-73.97919},"review_count":55,"rating":4,"zip_code":"10009"},{"id":"NztBFASX-zzg0tROoLiKOg","name":"Mysttik Masaala","cuisine":"Indian","address":"4702 5th St","coordinates":{"latitude":40.7457869,"longitude":-73.9557323},"review_count":66,"rating":4.5,"zip_code":"11101"},{"id":"8vYGvXF4OyKv2KV0-iIxrA","name":"Tikka Indian Grill Astoria","cuisine":"Indian","address":"34-14 30th Ave","coordinates":{"latitude":40.7655307,"longitude":-73.918505},"review_count":124,"rating":4.5,"zip_code":"11103"},{"id":"iGIr7N3UlcidQ0FlPBSK4A","name":"Mumtaz Indian Restaurant","cuisine":"Indian","address":"1582 York Ave","coordinates":{"latitude":40.77409,"longitude":-73.94812},"review_count":80,"rating":4,"zip_code":"10028"},{"id":"7N3jL-c6jHNsSg2m1Zb-fA","name":"Simon Indian Palace","cuisine":"Indian","address":"230 E 58th St","coordinates":{"latitude":40.76019,"longitude":-73.96589},"review_count":41,"rating":4,"zip_code":"10022"},{"id":"3C6c_zqRz_U2AyeN_7LTsg","name":"Himalayan Yak","cuisine":"Indian","address":"72-20 Roosevelt Ave","coordinates":{"latitude":40.74647,"longitude":-73.89275},"review_count":508,"rating":4,"zip_code":"11372"},{"id":"HM7Mz6Hpxts58JJP7qELNQ","name":"Eggmania","cuisine":"Indian","address":"14 Liberty Ave","coordinates":{"latitude":40.7361383,"longitude":-74.0646962},"review_count":276,"rating":4.5,"zip_code":"07306"},{"id":"sMoKKcyUslHmHe0NmCYgfg","name":"The Chinese Club","cuisine":"Indian","address":"208 Grand St","coordinates":{"latitude":40.713844,"longitude":-73.96039},"review_count":208,"rating":4,"zip_code":"11211"},{"id":"TTwPVEHeSeyFMLF6cik8Lw","name":"Raj Mahal","cuisine":"Indian","address":"322 E 6th St","coordinates":{"latitude":40.72684,"longitude":-73.98746},"review_count":186,"rating":3,"zip_code":"10003"},{"id":"dOQjniOt57mI9l9CmrCSJQ","name":"Curry India","cuisine":"Indian","address":"148 W 49th St","coordinates":{"latitude":40.76006,"longitude":-73.98306},"review_count":34,"rating":4,"zip_code":"10019"},{"id":"Q7wFlNr4OFU0eCJXcOmopg","name":"Bombay's Indian Restaurant","cuisine":"Indian","address":"60 Pearl St","coordinates":{"latitude":40.70344,"longitude":-74.01109},"review_count":149,"rating":3,"zip_code":"10004"},{"id":"bgMbt6XbOaAu5VNXr5kCdQ","name":"Polash","cuisine":"Indian","address":"2179 3rd Ave","coordinates":{"latitude":40.79965,"longitude":-73.93855},"review_count":187,"rating":4,"zip_code":"10035"},{"id":"PEEw2ip9VrmiMBP4b6op_g","name":"Govinda's Vegetarian","cuisine":"Indian","address":"305 Schermerhorn St","coordinates":{"latitude":40.6876177700883,"longitude":-73.9821957150399},"review_count":145,"rating":4.5,"zip_code":"11217"},{"id":"-mQG7oEHSAMr9dBDrrqI2g","name":"Indikitch","cuisine":"Indian","address":"1190 6th Ave","coordinates":{"latitude":40.757638,"longitude":-73.981701},"review_count":74,"rating":3.5,"zip_code":"10036"},{"id":"RRg3P3NsYzutXn5M6mluxw","name":"Lasani Restaurant","cuisine":"Indian","address":"15 W 29th St","coordinates":{"latitude":40.74588,"longitude":-73.98792},"review_count":37,"rating":3.5,"zip_code":"10001"},{"id":"_RVeBqIldnrh757oxL-b7w","name":"Salaam Bombay","cuisine":"Indian","address":"319 Greenwich St","coordinates":{"latitude":40.7171105,"longitude":-74.0105843},"review_count":135,"rating":3,"zip_code":"10013"},{"id":"dOsIIVVfgiDevGZLWaPnTg","name":"DiwaneKhaas","cuisine":"Indian","address":"53 Nassau St","coordinates":{"latitude":40.70903,"longitude":-74.00912},"review_count":94,"rating":3.5,"zip_code":"10038"},{"id":"ZkpKRf_AenlKegg2-NSA3g","name":"Royal Bangladesh Indian Restaurant","cuisine":"Indian","address":"93 1st Ave","coordinates":{"latitude":40.726322,"longitude":-73.986648},"review_count":162,"rating":2.5,"zip_code":"10003"},{"id":"OCBvpZwdnTh5rL9vtCkwhw","name":"Bawarchi Indian Cuisine","cuisine":"Indian","address":"1396 Madison Ave","coordinates":{"latitude":40.78787,"longitude":-73.95403},"review_count":36,"rating":4.5,"zip_code":"10029"},{"id":"4Kv4EVmrQ8TdlSD7MW0wHg","name":"Babu Ji","cuisine":"Indian","address":"22 E 13th St","coordinates":{"latitude":40.73469,"longitude":-73.99315},"review_count":88,"rating":3.5,"zip_code":"10003"},{"id":"9y6UQ2GYKe08-WF_1jTX0A","name":"Touch of Spice","cuisine":"Indian","address":"4114 Park Ave","coordinates":{"latitude":40.77494,"longitude":-74.01993},"review_count":158,"rating":4,"zip_code":"07086"},{"id":"ZqOxAKVZEZTa4XS4zthp3Q","name":"Bombay Grill","cuisine":"Indian","address":"1176 Bedford Ave","coordinates":{"latitude":40.6839,"longitude":-73.9541799},"review_count":192,"rating":4.5,"zip_code":"11216"},{"id":"dZENEWBMFMIbqIBGtlUwsQ","name":"The Kati Roll Company","cuisine":"Indian","address":"128 2nd Ave","coordinates":{"latitude":40.72826,"longitude":-73.98746},"review_count":56,"rating":4,"zip_code":"10003"},{"id":"6KOeVK9KMmVG6Q3chyZ_Bg","name":"Taste of Bengal","cuisine":"Indian","address":"2827 31st St","coordinates":{"latitude":40.7677209471176,"longitude":-73.9204675118383},"review_count":126,"rating":4.5,"zip_code":"11102"},{"id":"zSCp9pjEQ_M3LBuPRDo-Bg","name":"Desi Grill","cuisine":"Indian","address":"46 Wyckoff Ave","coordinates":{"latitude":40.705618,"longitude":-73.9218269},"review_count":281,"rating":4,"zip_code":"11237"},{"id":"llzZ19xTIrueN5XBZi4zWg","name":"Indian King Biryani House","cuisine":"Indian","address":"140 Broadway","coordinates":{"latitude":40.709089983905,"longitude":-74.0107886718552},"review_count":28,"rating":4,"zip_code":"10005"},{"id":"eTe0fY7PUIKuxgSdxgkD_A","name":"Silli Point Indian Fusion","cuisine":"Indian","address":"498 Anderson Ave","coordinates":{"latitude":40.82157,"longitude":-73.9903},"review_count":156,"rating":4.5,"zip_code":"07010"},{"id":"zi4fUgOwwGB5PYR2xq0OCQ","name":"Namaste","cuisine":"Indian","address":"1086 River Rd","coordinates":{"latitude":40.83162,"longitude":-73.9726699},"review_count":199,"rating":4.5,"zip_code":"07020"},{"id":"ar2ERFxW_GN76Xd8H0CtCQ","name":"The Bombay Bread Bar","cuisine":"Indian","address":"195 Spring St","coordinates":{"latitude":40.72534,"longitude":-74.0031},"review_count":42,"rating":4,"zip_code":"10012"},{"id":"nBoOm-TAhRvbcDkHfKOwGg","name":"Swagat Indian Restaurant","cuisine":"Indian","address":"205 W 29th St","coordinates":{"latitude":40.748161,"longitude":-73.993194},"review_count":98,"rating":3,"zip_code":"10001"},{"id":"RSSe0b5ozB5T7uxPe246KQ","name":"Maya Restaurant & Bar","cuisine":"Indian","address":"25-94 Steinway St","coordinates":{"latitude":40.76581,"longitude":-73.91376},"review_count":55,"rating":4.5,"zip_code":"11103"},{"id":"NL8nsC9VzhQIAs5yfC2cVQ","name":"Indigo Indian bistro","cuisine":"Indian","address":"283 Columbus Ave","coordinates":{"latitude":40.7782355449034,"longitude":-73.9779293182933},"review_count":108,"rating":3,"zip_code":"10023"},{"id":"l_Td-NFRIdxu7m6pgJUqhQ","name":"Manhattan Valley","cuisine":"Indian","address":"2636 Broadway 100 St","coordinates":{"latitude":40.797005967886,"longitude":-73.9697319902153},"review_count":54,"rating":3.5,"zip_code":"10025"},{"id":"YDtIHtfvWd4W36wq6UAjoA","name":"Kitchen Grill Indian Restaurant","cuisine":"Indian","address":"914A Fulton St","coordinates":{"latitude":40.6827929,"longitude":-73.9644377},"review_count":248,"rating":4.5,"zip_code":"11238"},{"id":"IpiGGEXxz-5QVJpijXVmmA","name":"Jackson Diner","cuisine":"Indian","address":"3747 74th St","coordinates":{"latitude":40.7477755,"longitude":-73.8915002},"review_count":559,"rating":3.5,"zip_code":"11372"},{"id":"L9n68f-cdk7RMQvRJvC6bA","name":"Spice Kitchen","cuisine":"Indian","address":"71-04 Grand Ave","coordinates":{"latitude":40.72766,"longitude":-73.89191},"review_count":125,"rating":4.5,"zip_code":"11378"},{"id":"WWpOWqOgS9ClYvxYVzR0lg","name":"Tikka Indian Grill","cuisine":"Indian","address":"185 Grand St","coordinates":{"latitude":40.71441,"longitude":-73.96078},"review_count":134,"rating":4,"zip_code":"11211"},{"id":"sQ_L8O9WMU4apxSTVa9JKg","name":"Agra Taj Mahal","cuisine":"Indian","address":"1005 Manhattan Ave","coordinates":{"latitude":40.7332729,"longitude":-73.9550299},"review_count":132,"rating":3.5,"zip_code":"11222"},{"id":"1KGvtMU7VBcdlvxo2brdQg","name":"Clove Indian Restaurant & Bar","cuisine":"Indian","address":"1592 Amsterdam Ave","coordinates":{"latitude":40.8212624,"longitude":-73.9506836},"review_count":191,"rating":4,"zip_code":"10031"},{"id":"3dZsX3mqbVsLEXPwMYKPsw","name":"Zaika New York","cuisine":"Indian","address":"230 E 44th St","coordinates":{"latitude":40.75135,"longitude":-73.97209},"review_count":21,"rating":4.5,"zip_code":"10017"},{"id":"x31Xmdw1ekbG-TdD8hT0_w","name":"Curry Dream","cuisine":"Indian","address":"66 W 39th St","coordinates":{"latitude":40.7526251,"longitude":-73.9852003},"review_count":174,"rating":2.5,"zip_code":"10018"},{"id":"9o3Shnn1KK5EHieKE-YKIQ","name":"Saffron Garden","cuisine":"Indian","address":"46-11 Skillman Ave","coordinates":{"latitude":40.7464530742394,"longitude":-73.9175874},"review_count":258,"rating":3.5,"zip_code":"11104"},{"id":"zDiKwE9LPwWo9k2kdwMEZw","name":"Saffron Indian Cuisine","cuisine":"Indian","address":"4404 Broadway","coordinates":{"latitude":40.757176,"longitude":-73.915762},"review_count":210,"rating":3.5,"zip_code":"11103"},{"id":"NqnCmOlPIJ_QBQzvZ28djA","name":"Sapthagiri Taste Of India","cuisine":"Indian","address":"804 Newark Ave","coordinates":{"latitude":40.73571680043,"longitude":-74.0650333434929},"review_count":356,"rating":3.5,"zip_code":"07306"},{"id":"uPW_isMEB92IDrX04pLK1g","name":"Delhi Heights","cuisine":"Indian","address":"37-66 74th St","coordinates":{"latitude":40.7471,"longitude":-73.89176},"review_count":290,"rating":3.5,"zip_code":"11372"},{"id":"iSiOfm9CdUhbS0eDHPHUNA","name":"Desi Food Truck","cuisine":"Indian","address":"","coordinates":{"latitude":40.7251853942871,"longitude":-73.9992523193359},"review_count":66,"rating":3.5,"zip_code":"10012"},{"id":"yPWE_stCrD48WZ-xaxfz_A","name":"The Burp Kitchen","cuisine":"Indian","address":"7000 Kennedy Blvd E","coordinates":{"latitude":40.790152,"longitude":-74.000747},"review_count":45,"rating":4.5,"zip_code":"07093"},{"id":"GVaTZnN7a-DkrK57l7BbGw","name":"Boishakhi Restaurant","cuisine":"Indian","address":"2914 36th Ave","coordinates":{"latitude":40.7569548876687,"longitude":-73.9310011267662},"review_count":41,"rating":4.5,"zip_code":"11106"},{"id":"ml3ASw5_B5XLnd9kE8xx3g","name":"Salt & Pepper","cuisine":"Indian","address":"139 W 33rd St","coordinates":{"latitude":40.7498789,"longitude":-73.9900547},"review_count":74,"rating":3,"zip_code":"10001"},{"id":"EgxnURDBkeKXV9rKzHrJLA","name":"Aanchal Indian Restaurant & Bar","cuisine":"Indian","address":"45-12 23rd St","coordinates":{"latitude":40.74659,"longitude":-73.94573},"review_count":110,"rating":3.5,"zip_code":"11101"},{"id":"7hgygLzjMf3YQE6oL1E3Aw","name":"Shahi Biryani & Grill","cuisine":"Indian","address":"71 W 109th St","coordinates":{"latitude":40.80119,"longitude":-73.96104},"review_count":66,"rating":3.5,"zip_code":"10025"},{"id":"P5mFtOSiQmplOj0yVP13PQ","name":"Rasoi Restaurant","cuisine":"Indian","address":"810 Newark Ave","coordinates":{"latitude":40.7358078362318,"longitude":-74.0657707092621},"review_count":314,"rating":3.5,"zip_code":"07306"},{"id":"gc5VOvoqzM8UQJwV1mhdkA","name":"Taj Kabab King","cuisine":"Indian","address":"568 Grand St","coordinates":{"latitude":40.710938,"longitude":-73.9491},"review_count":259,"rating":3.5,"zip_code":"11211"},{"id":"7-mcmUETyMifs3rbpvCObA","name":"Yeti Spice Grill","cuisine":"Indian","address":"1764 1st Ave","coordinates":{"latitude":40.7802334786396,"longitude":-73.9467215538025},"review_count":24,"rating":4,"zip_code":"10128"},{"id":"U7QMrNTwRrPJ__0jbb6EYQ","name":"Dosa Delight","cuisine":"Indian","address":"3566 73rd St","coordinates":{"latitude":40.7495245,"longitude":-73.8929686},"review_count":242,"rating":3.5,"zip_code":"11372"},{"id":"lIE4KHySIenwPbta1JuM8Q","name":"Mumbai Masala","cuisine":"Indian","address":"1768 Amsterdam Ave","coordinates":{"latitude":40.82695,"longitude":-73.94676},"review_count":77,"rating":4.5,"zip_code":"10031"},{"id":"h1PXV90jW1bXIWVlKiF0NQ","name":"DesiBowl","cuisine":"Indian","address":"49-11 Vernon Blvd","coordinates":{"latitude":40.7429077652858,"longitude":-73.9539128914475},"review_count":36,"rating":4.5,"zip_code":"11101"},{"id":"Rk6TXh7nINbzJoGtI2C5cA","name":"Desi Galli","cuisine":"Indian","address":"172 Avenue B","coordinates":{"latitude":40.72739,"longitude":-73.979782},"review_count":55,"rating":3.5,"zip_code":"10009"},{"id":"oSMFe-10TyH40NIXG0Zahw","name":"Vaibhav Indian Spice Journey","cuisine":"Indian","address":"737 Newark Ave","coordinates":{"latitude":40.73503,"longitude":-74.0624069},"review_count":336,"rating":3.5,"zip_code":"07306"},{"id":"xdioStDO8FAyQiZWHJiGZQ","name":"Rajbhog Sweets","cuisine":"Indian","address":"7227 37th Ave","coordinates":{"latitude":40.7489301,"longitude":-73.8932955},"review_count":173,"rating":4,"zip_code":"11372"},{"id":"eht_0com4C1sQbl9qCzlag","name":"Hungry Bird","cuisine":"Indian","address":"980 Morris Ave","coordinates":{"latitude":40.82847,"longitude":-73.91669},"review_count":145,"rating":4.5,"zip_code":"10456"},{"id":"HVWlYTXsR9Vx9ZoxJQa2zg","name":"Cinnamon Garden","cuisine":"Indian","address":"328 E 6th St","coordinates":{"latitude":40.72674,"longitude":-73.9872199},"review_count":29,"rating":5,"zip_code":"10003"},{"id":"LQvI-JYji1jO5wySb8KZiw","name":"Royal Curry & Kabab","cuisine":"Indian","address":"19-25 St Nicholas Ave","coordinates":{"latitude":40.7996913391433,"longitude":-73.9526741331352},"review_count":39,"rating":3.5,"zip_code":"10026"},{"id":"HHkTmzDBE9sGWvtSW9Ne8A","name":"Tangra Masala","cuisine":"Indian","address":"87-09 Grand Ave","coordinates":{"latitude":40.736536,"longitude":-73.878328},"review_count":267,"rating":3.5,"zip_code":"11373"},{"id":"iXrKGRzIZK0pp31mO3nBzA","name":"Spice & Grill","cuisine":"Indian","address":"441 Myrtle Ave","coordinates":{"latitude":40.6933894,"longitude":-73.9679912},"review_count":87,"rating":4.5,"zip_code":"11205"},{"id":"jQD0E2iEhPmNqkEs-3QUwQ","name":"Cafe Spice Express","cuisine":"Indian","address":"109 E 42nd St","coordinates":{"latitude":40.7493320505453,"longitude":-73.9749096455078},"review_count":64,"rating":3,"zip_code":"10017"},{"id":"gsZUN1Vtpd3P7rdvANbrmg","name":"Indian Kitchen","cuisine":"Indian","address":"739 Grand St","coordinates":{"latitude":40.71199,"longitude":-73.94332},"review_count":139,"rating":4,"zip_code":"11211"},{"id":"aFhnb8k6H-wD070vvxt4Fw","name":"Kababish","cuisine":"Indian","address":"70-64 Broadway","coordinates":{"latitude":40.747598,"longitude":-73.893979},"review_count":122,"rating":4,"zip_code":"11373"},{"id":"HsEK7jGmzI7KP1e0N_6uQw","name":"Mysttik Masaala","cuisine":"Indian","address":"2177 31st St","coordinates":{"latitude":40.7761445017191,"longitude":-73.9109029826748},"review_count":34,"rating":5,"zip_code":"11105"},{"id":"O5MN8tijDGzJS8uin9zQ2Q","name":"Chef Of India","cuisine":"Indian","address":"324 Central Ave","coordinates":{"latitude":40.74595,"longitude":-74.04902},"review_count":140,"rating":4,"zip_code":"07307"},{"id":"yDS7SUTAe6y3BYKdepIrbg","name":"Szechaun Mirchi","cuisine":"Indian","address":"633 Anderson Ave","coordinates":{"latitude":40.82583,"longitude":-73.98787},"review_count":149,"rating":3.5,"zip_code":"07010"},{"id":"s9K99sWiITSfmq8VShUFVw","name":"Five Star Bar & Grill","cuisine":"Indian","address":"13-15 43rd Ave","coordinates":{"latitude":40.75096,"longitude":-73.94578},"review_count":64,"rating":3.5,"zip_code":"11101"},{"id":"hswirO2tzhjdopGrjEE3xg","name":"Halal Cart","cuisine":"Indian","address":"41st & Madison","coordinates":{"latitude":40.7519506788492,"longitude":-73.980059211846},"review_count":12,"rating":4.5,"zip_code":"10017"},{"id":"VakC43fJQAT5c6f3rqPlOw","name":"Indian Fast Food Cart","cuisine":"Indian","address":"Park Ave & 53rd St","coordinates":{"latitude":40.7590263066947,"longitude":-73.9725049020592},"review_count":25,"rating":3.5,"zip_code":"10022"},{"id":"o5_roJB43PNm0PhhJ-0mXQ","name":"Masala Club","cuisine":"Indian","address":"254 W 108th St","coordinates":{"latitude":40.8023335039616,"longitude":-73.9662829041481},"review_count":38,"rating":3.5,"zip_code":"10025"},{"id":"-_LtKO0FdpINUMAWMfDOOQ","name":"Al Naimat Restaurant & Sweets","cuisine":"Indian","address":"3703 74th St","coordinates":{"latitude":40.74882,"longitude":-73.891538},"review_count":103,"rating":4,"zip_code":"11372"},{"id":"T5aGLWBjIZoV0pSW80nJXA","name":"Amiya","cuisine":"Indian","address":"160 Greene St","coordinates":{"latitude":40.719811,"longitude":-74.035177},"review_count":250,"rating":3.5,"zip_code":"07311"},{"id":"5iKAeJ8RVrNGRUNy-355jQ","name":"Deccan Spice","cuisine":"Indian","address":"771 Newark Ave","coordinates":{"latitude":40.735242,"longitude":-74.063911},"review_count":250,"rating":3.5,"zip_code":"07306"},{"id":"_2XWB0vPqUqkWdQuXfWi2w","name":"Indian Taj","cuisine":"Indian","address":"37-25 74th St","coordinates":{"latitude":40.7482641393121,"longitude":-73.891643603866},"review_count":239,"rating":3.5,"zip_code":"11372"},{"id":"CN-ZjeSCht_lOcEsuVSfgA","name":"Raaz","cuisine":"Indian","address":"537 Washington Blvd","coordinates":{"latitude":40.7271838,"longitude":-74.0348546},"review_count":188,"rating":3.5,"zip_code":"07310"},{"id":"til9hZedX5st86EamUudMA","name":"Maharaja Sweets & Snacks","cuisine":"Indian","address":"7310 37th Ave","coordinates":{"latitude":40.74872,"longitude":-73.89254},"review_count":127,"rating":3.5,"zip_code":"11372"},{"id":"1ckkPS7KtGSu_xXXWKcbvQ","name":"Tandoori Masala","cuisine":"Indian","address":"1695 Broadway","coordinates":{"latitude":40.68402,"longitude":-73.911842},"review_count":140,"rating":4,"zip_code":"11207"},{"id":"zy5MD9rhrPaZkCM1d1vmrg","name":"44th Street Minar","cuisine":"Indian","address":"160 E 44th St","coordinates":{"latitude":40.7522011,"longitude":-73.9741974},"review_count":52,"rating":3,"zip_code":"10017"},{"id":"7eUoHxFCZKdYkl7ONixCKA","name":"Nepalese Indian Restaurant","cuisine":"Indian","address":"907 Seneca Ave","coordinates":{"latitude":40.7007228,"longitude":-73.903893},"review_count":175,"rating":4,"zip_code":"11385"},{"id":"Bft47FX6dorGwlUypMrG2w","name":"Merit Kabab Palace","cuisine":"Indian","address":"37-67 74th St","coordinates":{"latitude":40.74711,"longitude":-73.8912299},"review_count":82,"rating":4,"zip_code":"11372"},{"id":"IZGmct19s3P8oZsHD8M62A","name":"Bombay Deli Pizza & Tandoori Restaurant","cuisine":"Indian","address":"367 W 36th St","coordinates":{"latitude":40.7545768,"longitude":-73.9949488},"review_count":17,"rating":4,"zip_code":"10018"},{"id":"vnf1WSV7dTmOeOkIJ46hiw","name":"Curry King","cuisine":"Indian","address":"942 Columbus Ave","coordinates":{"latitude":40.799566279368,"longitude":-73.9629824840441},"review_count":35,"rating":3,"zip_code":"10025"},{"id":"MP8Ey2ezsDCSowR-1X6hKg","name":"Dosa Royale","cuisine":"Indian","address":"258 Dekalb Ave","coordinates":{"latitude":40.689244,"longitude":-73.968634},"review_count":180,"rating":3.5,"zip_code":"11205"},{"id":"KJNXC2NtxRPeu_nkk1PC4A","name":"Punda Tibetan Restaurant","cuisine":"Indian","address":"3935 47th Ave","coordinates":{"latitude":40.74209,"longitude":-73.92516},"review_count":59,"rating":4,"zip_code":"11104"},{"id":"IPObt34MFs_Icr83NE7RFQ","name":"Indo Pak Halal Restaurant","cuisine":"Indian","address":"2173 2nd Ave","coordinates":{"latitude":40.7934736702072,"longitude":-73.9403164386749},"review_count":39,"rating":3,"zip_code":"10029"},{"id":"SB4t6vWpxlVQAfCQ3oC1BQ","name":"Curry Heights","cuisine":"Indian","address":"151 Remsen St","coordinates":{"latitude":40.693685,"longitude":-73.992154},"review_count":211,"rating":3.5,"zip_code":"11201"},{"id":"DTxsUnrcAQO-OXwwypPZjQ","name":"Shadman Restaurant","cuisine":"Indian","address":"293 1/2 Grove St","coordinates":{"latitude":40.7184,"longitude":-74.0438},"review_count":165,"rating":3.5,"zip_code":"07302"},{"id":"uqBBk5o9McSEYQ88CG6yHg","name":"indikitch","cuisine":"Indian","address":"109 W 37th St","coordinates":{"latitude":40.75216,"longitude":-73.98724},"review_count":24,"rating":4,"zip_code":"10018"},{"id":"WSesw7dMYKmF3XHqD0K0WQ","name":"Asya Indian Restaurant","cuisine":"Indian","address":"46 Henry St","coordinates":{"latitude":40.69963,"longitude":-73.9921},"review_count":216,"rating":3,"zip_code":"11201"},{"id":"R7MDZP5G374JA1-kaR2CLw","name":"Raja Sweets & Fast Food","cuisine":"Indian","address":"7231 37th Ave","coordinates":{"latitude":40.7489325,"longitude":-73.8932727},"review_count":73,"rating":4,"zip_code":"11372"},{"id":"qZgRPGUl01ldRuTd6pSOnA","name":"Dera Restaurant","cuisine":"Indian","address":"7209 Broadway","coordinates":{"latitude":40.7477416992188,"longitude":-73.8934860229492},"review_count":188,"rating":3,"zip_code":"11372"},{"id":"I8X2NYRYHdWrGrxIHZFJ5A","name":"Tangra Asian Fusion Cuisine","cuisine":"Indian","address":"3923 Queens Blvd","coordinates":{"latitude":40.74427,"longitude":-73.92489},"review_count":200,"rating":3,"zip_code":"11104"},{"id":"w5OkGoc_gcA3EA399aV1Jg","name":"Sri Ganesh's Dosa House","cuisine":"Indian","address":"809 Newark Ave","coordinates":{"latitude":40.73543,"longitude":-74.06535},"review_count":139,"rating":3.5,"zip_code":"07306"},{"id":"yC-GsIbqeQnoVd9LYiOabQ","name":"Mantra","cuisine":"Indian","address":"253 Washington St","coordinates":{"latitude":40.71643887105,"longitude":-74.0377577111708},"review_count":159,"rating":3,"zip_code":"07302"},{"id":"bVyA5z69287U9B9W88hERg","name":"Kabab King","cuisine":"Indian","address":"7301 37th Rd","coordinates":{"latitude":40.7472744,"longitude":-73.8922265},"review_count":265,"rating":3,"zip_code":"11372"},{"id":"NH7Ws65ZwlmOosiblfGTRw","name":"Spice Hut Indian Restaurant","cuisine":"Indian","address":"2172 2nd Ave","coordinates":{"latitude":40.79411,"longitude":-73.93953},"review_count":45,"rating":3,"zip_code":"10029"},{"id":"vhzkJobCGQ9cA93k19gbkQ","name":"Five Star Banquet and Restaurant","cuisine":"Indian","address":"13-05 43rd Ave","coordinates":{"latitude":40.75108,"longitude":-73.94601},"review_count":42,"rating":3.5,"zip_code":"11101"},{"id":"gHw2LnjgqyJclvlOjISv6g","name":"Spice Wala Indian Cuisine","cuisine":"Indian","address":"97 1st Ave","coordinates":{"latitude":40.7263365,"longitude":-73.9864126},"review_count":25,"rating":4,"zip_code":"10003"},{"id":"PeLeSgbctqoS_L6g_cvjUw","name":"Dera Restaurant","cuisine":"Indian","address":"103 Lexington Ave","coordinates":{"latitude":40.742134,"longitude":-73.982482},"review_count":35,"rating":3,"zip_code":"10016"},{"id":"pySuU21NBcNpM0mr3_bggg","name":"Taste of India","cuisine":"Indian","address":"30 Mall Dr W","coordinates":{"latitude":40.72605,"longitude":-74.0379899},"review_count":149,"rating":3,"zip_code":"07310"},{"id":"pht3NrQeuKlZpvnZ6Lbsug","name":"RK Talkies Indian Cuisine","cuisine":"Indian","address":"160 Havemeyer St","coordinates":{"latitude":40.71147,"longitude":-73.95777},"review_count":24,"rating":4.5,"zip_code":"11211"},{"id":"Pv51B3SzP4OqUbJncEeF1g","name":"Masala Grill","cuisine":"Indian","address":"501B Atlantic Ave","coordinates":{"latitude":40.685752,"longitude":-73.981094},"review_count":159,"rating":3.5,"zip_code":"11217"},{"id":"yVvx0wKmBplFlMd9z10Ytw","name":"Mithaas","cuisine":"Indian","address":"795 Newark Ave","coordinates":{"latitude":40.7354965,"longitude":-74.0648916},"review_count":195,"rating":3.5,"zip_code":"07306"},{"id":"y_bDXn5PffeXZLXM4ZpvzQ","name":"Hot 'n' Fresh Indian Grill","cuisine":"Indian","address":"200 W 40th St","coordinates":{"latitude":40.7549827296828,"longitude":-73.9881789943652},"review_count":12,"rating":4.5,"zip_code":"10018"},{"id":"8soP-zjZsslrb5egCkRDvQ","name":"Delhi Heights","cuisine":"Indian","address":"577 Decatur St","coordinates":{"latitude":40.6832,"longitude":-73.920211},"review_count":138,"rating":4,"zip_code":"11233"},{"id":"LB-5zqmok2NI0DLkkjJ9Gg","name":"Fresh Pond Spice","cuisine":"Indian","address":"6402 Fresh Pond Rd","coordinates":{"latitude":40.7101516723633,"longitude":-73.8995742797852},"review_count":56,"rating":4.5,"zip_code":"11385"},{"id":"RxlN-Q5U1J3LpK69VV9Xyw","name":"Bengali Sweet House","cuisine":"Indian","address":"836 Newark Ave","coordinates":{"latitude":40.7358435541391,"longitude":-74.0664681047201},"review_count":68,"rating":4,"zip_code":"07306"},{"id":"0_ONgLkWOmGnjhCecpZPYQ","name":"Samossa Bites","cuisine":"Indian","address":"35-27 31st St","coordinates":{"latitude":40.757283,"longitude":-73.928761},"review_count":52,"rating":3.5,"zip_code":"11106"},{"id":"lTKwlr9_vWjNDPbt4I7bog","name":"Chaska Fine Indian Cuisine","cuisine":"Indian","address":"826 Newark Ave","coordinates":{"latitude":40.73596,"longitude":-74.06606},"review_count":95,"rating":3.5,"zip_code":"07306"},{"id":"vS5WZNErrgWvHtiO3CTmqA","name":"Sheezan Restaurant","cuisine":"Indian","address":"183 Church St","coordinates":{"latitude":40.71566,"longitude":-74.00717},"review_count":21,"rating":3.5,"zip_code":"10007"},{"id":"IDEq8v88W58i2QZuNFjl-w","name":"Bombay Kitchen","cuisine":"Indian","address":"733 Knickerbocker Ave","coordinates":{"latitude":40.694066,"longitude":-73.909556},"review_count":149,"rating":3.5,"zip_code":"11221"},{"id":"idPuFfnCBOTckYzVaYpfBA","name":"Chutneys","cuisine":"Indian","address":"827 Newark Ave","coordinates":{"latitude":40.7355193,"longitude":-74.0661636},"review_count":135,"rating":3.5,"zip_code":"07306"},{"id":"VMSO12sjs6W415PSogC7PA","name":"Paratha Junction","cuisine":"Indian","address":"779 Newark Ave","coordinates":{"latitude":40.7352836673254,"longitude":-74.0638660967438},"review_count":124,"rating":3,"zip_code":"07306"}]}
