{"businesses":[{"id":"B2oluN-xUWvHkrIwtEOucQ","name":"Shinjuku Japanese Restaurant","cuisine":"Japanese","address":"27 Park Pl","coordinates":{"latitude":40.7130466,"longitude":-74.0087528},"review_count":71,"rating":3.5,"zip_code":"10007"},{"id":"0Zjp3JcxwNijCBWEKd7Nyg","name":"Azusa of Japan","cuisine":"Japanese","address":"3 E 44th St","coordinates":{"latitude":40.7546,"longitude":-73.97926},"review_count":98,"rating":3,"zip_code":"10017"},{"id":"_ysOWxPCLp0zILZWrREXoA","name":"Hai Street Kitchen","cuisine":"Japanese","address":"230 Park Ave","coordinates":{"latitude":40.754394,"longitude":-73.976104},"review_count":84,"rating":3,"zip_code":"10169"},{"id":"7HJrtpB0mo8tndvxOkN31w","name":"Kitaro","cuisine":"Japanese","address":"510 Amsterdam Ave","coordinates":{"latitude":40.78685,"longitude":-73.97585},"review_count":115,"rating":3,"zip_code":"10024"},{"id":"KrJ6m_TkxBAPPSNH-G7rvQ","name":"U-gu","cuisine":"Japanese","address":"541 Myrtle Ave","coordinates":{"latitude":40.69393,"longitude":-73.96284},"review_count":81,"rating":4.5,"zip_code":"11205"},{"id":"uK1U9Ny7p2DsNR_B8w2SkQ","name":"The Noodle Bar at Brushstroke","cuisine":"Japanese","address":"30 Hudson St","coordinates":{"latitude":40.7166953,"longitude":-74.0089441},"review_count":16,"rating":4.5,"zip_code":"10013"},{"id":"l6ZFhrONGp0b80bxnOFiwg","name":"Ogawa Japanese Restaurant","cuisine":"Japanese","address":"36 E 4th St","coordinates":{"latitude":40.7271957397461,"longitude":-73.9922714233398},"review_count":70,"rating":3.5,"zip_code":"10003"},{"id":"FXimZKjpMjbDR20M2ruhvg","name":"Sapps","cuisine":"Japanese","address":"27-26 Jackson Ave","coordinates":{"latitude":40.74762,"longitude":-73.94008},"review_count":60,"rating":4.5,"zip_code":"11101"},{"id":"l7G5tDA96xbA_bx1ZgkOeg","name":"ICHIRAN Midtown","cuisine":"Japanese","address":"132 W 31st St","coordinates":{"latitude":40.74839,"longitude":-73.99062},"review_count":63,"rating":3.5,"zip_code":"10001"},{"id":"VDbMrjBq-XAKZTS_cgB9_A","name":"Asian 59","cuisine":"Japanese","address":"207 E 59th St","coordinates":{"latitude":40.76153,"longitude":-73.96595},"review_count":51,"rating":3.5,"zip_code":"10022"},{"id":"nhez4xxvwwYIQEN2Vrj9mQ","name":"YUJI Ramen","cuisine":"Japanese","address":"150 Ainslie St","coordinates":{"latitude":40.712527,"longitude":-73.9487788},"review_count":112,"rating":4,"zip_code":"11211"},{"id":"8nVsfKu_NGdTgZruGNW9-A","name":"Shinya Shokudo","cuisine":"Japanese","address":"248 E 52nd St","coordinates":{"latitude":40.75613,"longitude":-73.9682},"review_count":11,"rating":4.5,"zip_code":"10022"},{"id":"inp9N7bo9zqQSa8h8UBhqg","name":"Empire Szechuan","cuisine":"Japanese","address":"193 Columbus Ave","coordinates":{"latitude":40.775683,"longitude":-73.980178},"review_count":185,"rating":2.5,"zip_code":"10023"},{"id":"cEeWgcPTf-NujmpQqXxcUg","name":"Osaka Japanese Fusion","cuisine":"Japanese","address":"2524 Broadway","coordinates":{"latitude":40.7628662644824,"longitude":-73.9276888982055},"review_count":132,"rating":3.5,"zip_code":"11106"},{"id":"ucuVeJZiXW1nW7orSV0khw","name":"Tiki Tabu","cuisine":"Japanese","address":"190 Allen St","coordinates":{"latitude":40.722085,"longitude":-73.988506},"review_count":63,"rating":3,"zip_code":"10002"},{"id":"FlAK0QXHIMqW6koDhs7DXA","name":"Junko Sushi","cuisine":"Japanese","address":"33-02 Broadway","coordinates":{"latitude":40.76093,"longitude":-73.92381},"review_count":221,"rating":3.5,"zip_code":"11106"},{"id":"D9sVruGgjWFo7ABSBaMSmw","name":"Arigato","cuisine":"Japanese","address":"1034 River Rd","coordinates":{"latitude":40.83007,"longitude":-73.97232},"review_count":199,"rating":4,"zip_code":"07020"},{"id":"d6vs1a7nVwhRVk4Ld89_hQ","name":"Roll & Katsu Kitchen","cuisine":"Japanese","address":"11 W 32nd St","coordinates":{"latitude":40.7477035522461,"longitude":-73.9862289428711},"review_count":49,"rating":3.5,"zip_code":"10001"},{"id":"f1lSLfhuOW4IIt78gVGovQ","name":"Yummy Japanese Grill & Sushi Bar","cuisine":"Japanese","address":"1758 1st Ave","coordinates":{"latitude":40.780097,"longitude":-73.946632},"review_count":71,"rating":3,"zip_code":"10128"},{"id":"ujozQCThEuSfEXi5_6ZTPQ","name":"Ramen Setagaya","cuisine":"Japanese","address":"280 Bedford Ave","coordinates":{"latitude":40.7147999,"longitude":-73.96115},"review_count":156,"rating":3.5,"zip_code":"11249"},{"id":"zjGALLjlJblpZWarcDPpsg","name":"Ayame Hibachi & Sushi","cuisine":"Japanese","address":"526 Washington St","coordinates":{"latitude":40.74311,"longitude":-74.0295},"review_count":210,"rating":3.5,"zip_code":"07030"},{"id":"cOXYWZ_GTX-_ue_kveguRg","name":"SSAM","cuisine":"Japanese","address":"170 Smith St","coordinates":{"latitude":40.68594,"longitude":-73.991274},"review_count":283,"rating":4,"zip_code":"11201"},{"id":"r5tdEA1S-Almn_2cv-c6Sg","name":"Sushi X","cuisine":"Japanese","address":"47-15 Northern Blvd","coordinates":{"latitude":40.7539316554037,"longitude":-73.9145785103119},"review_count":203,"rating":3.5,"zip_code":"11101"},{"id":"I4Z8vyaZjbD2aS5xoMeF8Q","name":"Kiku Japanese Restaurant","cuisine":"Japanese","address":"50 W 55th St","coordinates":{"latitude":40.7623443603516,"longitude":-73.9770812988281},"review_count":75,"rating":3,"zip_code":"10019"},{"id":"2zaFer47CnuerUmTfAjJ9A","name":"Curry-Ya","cuisine":"Japanese","address":"1467 Amsterdam Ave","coordinates":{"latitude":40.8171,"longitude":-73.95314},"review_count":31,"rating":4,"zip_code":"10027"},{"id":"CvSOAN2WWzLRGND4vN1xtA","name":"A1 Asian Fusion","cuisine":"Japanese","address":"2071 7th Ave","coordinates":{"latitude":40.807857,"longitude":-73.948677},"review_count":80,"rating":3.5,"zip_code":"10027"},{"id":"zJnVdASxGhrQwZ5yHmQtLg","name":"Matsu Sushi","cuisine":"Japanese","address":"3411 30th Ave","coordinates":{"latitude":40.765756,"longitude":-73.918409},"review_count":147,"rating":3.5,"zip_code":"11103"},{"id":"kHZblhTr7HEk-wQgmCscUQ","name":"Osaka Grub","cuisine":"Japanese","address":"120 Essex St","coordinates":{"latitude":40.7191941,"longitude":-73.9875881},"review_count":25,"rating":4,"zip_code":"10002"},{"id":"LRyA5LakzQpv1t6pX-AcGg","name":"Omakasa","cuisine":"Japanese","address":"31 W 52nd St","coordinates":{"latitude":40.7607927244645,"longitude":-73.9783116057515},"review_count":31,"rating":4,"zip_code":"10019"},{"id":"GpZTBy6C-GhMBIhimBRZ_g","name":"Ikinari Steak Times Square","cuisine":"Japanese","address":"368 W 46th St","coordinates":{"latitude":40.7607045203285,"longitude":-73.9902504129669},"review_count":34,"rating":4,"zip_code":"10036"},{"id":"bfg1MmcnH6DO1dgF_tLxkA","name":"Yeung II Sushi Asian Cuisine","cuisine":"Japanese","address":"1120 Washington St","coordinates":{"latitude":40.75079,"longitude":-74.02716},"review_count":165,"rating":3.5,"zip_code":"07030"},{"id":"xxsu5-2iPphmBsllkv2P1A","name":"Satsuki","cuisine":"Japanese","address":"114 W 47th St","coordinates":{"latitude":40.75814,"longitude":-73.98304},"review_count":22,"rating":4,"zip_code":"10036"},{"id":"KS-DmyDoStti9ZjAWPO53A","name":"Haru Sushi","cuisine":"Japanese","address":"859 9th Ave","coordinates":{"latitude":40.767242,"longitude":-73.986618},"review_count":49,"rating":3,"zip_code":"10019"},{"id":"78rbeXJJLJqvzFjRESd3Dg","name":"Milk and Hops Ramen Bar","cuisine":"Japanese","address":"1159 1st Ave","coordinates":{"latitude":40.7624203,"longitude":-73.9601274},"review_count":43,"rating":3.5,"zip_code":"10065"},{"id":"SoBdWOxymmY5yKANn63UWw","name":"Ozu","cuisine":"Japanese","address":"78 Clark St","coordinates":{"latitude":40.6974732130766,"longitude":-73.9932652562857},"review_count":214,"rating":4,"zip_code":"11201"},{"id":"9g0H0NPxJpt1FVi_MFS0Tg","name":"Sushi By Bae - Jue Lan Club","cuisine":"Japanese","address":"49 W 20th St","coordinates":{"latitude":40.74094,"longitude":-73.9937},"review_count":17,"rating":4.5,"zip_code":"10012"},{"id":"5zO24ZKYVnca0jbY2gpIzw","name":"Hudson Sushi","cuisine":"Japanese","address":"4525 Broadway","coordinates":{"latitude":40.77794,"longitude":-74.01825},"review_count":64,"rating":4,"zip_code":"07087"},{"id":"lm9LY7UYOhVqS3V9_XRePA","name":"BentOn Cafe","cuisine":"Japanese","address":"123 William St","coordinates":{"latitude":40.7092439,"longitude":-74.0068957},"review_count":130,"rating":2.5,"zip_code":"10038"},{"id":"7sW7ebi_A8gpECJe0ycQSg","name":"Ichiban","cuisine":"Japanese","address":"409 8th Ave","coordinates":{"latitude":40.750076,"longitude":-73.995422},"review_count":44,"rating":3.5,"zip_code":"10001"},{"id":"ftWoJ47SUF50RTGxH42AHw","name":"Ozu Foods","cuisine":"Japanese","address":"106 Hutton St","coordinates":{"latitude":40.7448665052652,"longitude":-74.0505632758141},"review_count":86,"rating":4.5,"zip_code":"07307"},{"id":"tAtVthcI8oKJxvXpYxH_9A","name":"Poke Signature","cuisine":"Japanese","address":"200 West 41st St","coordinates":{"latitude":40.7554299,"longitude":-73.98781},"review_count":33,"rating":4,"zip_code":"10036"},{"id":"hQk1KtjFpixNv4UWyi0VAQ","name":"Tetsu","cuisine":"Japanese","address":"78 Leonard St","coordinates":{"latitude":40.71733,"longitude":-74.0052},"review_count":46,"rating":3.5,"zip_code":"10013"},{"id":"TyLhPh5dez8JLqXOgHXUaw","name":"Tokyo Bay Japanese Restaurant","cuisine":"Japanese","address":"183 Duane St","coordinates":{"latitude":40.7175644,"longitude":-74.0102073},"review_count":66,"rating":3,"zip_code":"10013"},{"id":"WMe6BjRc4g8o8JXDlB7IGQ","name":"Sushi House","cuisine":"Japanese","address":"155 1st St","coordinates":{"latitude":40.73749,"longitude":-74.0321},"review_count":220,"rating":3.5,"zip_code":"07030"},{"id":"L_LDa1yW6qcUQJ6IsXqNNw","name":"JR Sushi","cuisine":"Japanese","address":"86A W Broadway","coordinates":{"latitude":40.71528,"longitude":-74.00961},"review_count":116,"rating":2.5,"zip_code":"10007"},{"id":"1ilgNaDvCX5SPeSJLsLQJA","name":"Sake Bar By Dancing Yak","cuisine":"Japanese","address":"71-28 Roosevelt Ave","coordinates":{"latitude":40.74635,"longitude":-73.89383},"review_count":103,"rating":4,"zip_code":"11372"},{"id":"0gPXct_l_82phIEoKdtWZw","name":"RYUJIN","cuisine":"Japanese","address":"513 Grand St","coordinates":{"latitude":40.711178187852,"longitude":-73.9506256676857},"review_count":129,"rating":4,"zip_code":"11211"},{"id":"5mhg1c3GdDtOPLDkWaSD4w","name":"Robongi Weehawken","cuisine":"Japanese","address":"4800 Ave At Port Imperial","coordinates":{"latitude":40.7766189612688,"longitude":-74.0105442485657},"review_count":83,"rating":3.5,"zip_code":"07086"},{"id":"uCJD5XBqGl7DWRdR5J8y0A","name":"Kuro-Obi at Canal Street Market","cuisine":"Japanese","address":"265 Canal St","coordinates":{"latitude":40.71897,"longitude":-74.00102},"review_count":25,"rating":4,"zip_code":"10013"},{"id":"xsJ7dlFUX6ovtYC2hqEqig","name":"Amano Sushi","cuisine":"Japanese","address":"50 Eldridge St","coordinates":{"latitude":40.71607,"longitude":-73.99293},"review_count":27,"rating":4,"zip_code":"10002"},{"id":"ajYmkzcRnvmOHtiWDRXQpQ","name":"Koro Koro","cuisine":"Japanese","address":"201 Washington St","coordinates":{"latitude":40.7388199,"longitude":-74.03022},"review_count":43,"rating":4.5,"zip_code":"07030"},{"id":"TwxP5xU_xyzlf7SVzCnpuA","name":"Proong Noodle Bar","cuisine":"Japanese","address":"347 1st Ave","coordinates":{"latitude":40.7352611937803,"longitude":-73.9799426652613},"review_count":28,"rating":4,"zip_code":"10010"},{"id":"wK19oQSdTF6lGKsjr9fJ-A","name":"Rai Rai Ken","cuisine":"Japanese","address":"1467 Amsterdam Ave","coordinates":{"latitude":40.8169855,"longitude":-73.9533486},"review_count":69,"rating":3,"zip_code":"10027"},{"id":"qVlDLz8Ri-ThAFJgYHuQ9A","name":"Omusubi Gonbei","cuisine":"Japanese","address":"120 E 41st St","coordinates":{"latitude":40.7508187,"longitude":-73.9769974},"review_count":14,"rating":4.5,"zip_code":"10017"},{"id":"Vf38zUk09gMgEzg60BrACA","name":"Dark Bullet Sake & Oyster Bar","cuisine":"Japanese","address":"154 W 72nd St","coordinates":{"latitude":40.7780463,"longitude":-73.9808312},"review_count":27,"rating":4.5,"zip_code":"10023"},{"id":"RjMAeYcRfwIhwjCZbJ2sHw","name":"Paku Pakus","cuisine":"Japanese","address":"1393B 2nd Ave","coordinates":{"latitude":40.7693,"longitude":-73.95823},"review_count":46,"rating":3.5,"zip_code":"10021"},{"id":"JiFp_mv7OgRonaWb-1n96A","name":"52nd Sushi","cuisine":"Japanese","address":"5221 Roosevelt Ave","coordinates":{"latitude":40.7445907592773,"longitude":-73.9116134643555},"review_count":98,"rating":4,"zip_code":"11377"},{"id":"1m1iOc8EplJ4tiCez7hf2Q","name":"750 Myrtle Diner","cuisine":"Japanese","address":"750 Myrtle Ave","coordinates":{"latitude":40.6947135925293,"longitude":-73.952751159668},"review_count":80,"rating":4.5,"zip_code":"11205"},{"id":"7DXqb9A2wrlZSn1bZXmhyA","name":"Hanami Sushi","cuisine":"Japanese","address":"857 9th Ave","coordinates":{"latitude":40.7671318,"longitude":-73.9866714},"review_count":85,"rating":2.5,"zip_code":"10019"},{"id":"_5E5cZP0PzkwfdEqTebBUg","name":"Lanzhou Ramen","cuisine":"Japanese","address":"107 E Broadway","coordinates":{"latitude":40.7136041,"longitude":-73.9930138},"review_count":36,"rating":3.5,"zip_code":"10038"},{"id":"3lVipbz3cKWrslZ2mTdzrQ","name":"Alin Sushi","cuisine":"Japanese","address":"55-59 Chrystie St","coordinates":{"latitude":40.71651,"longitude":-73.99503},"review_count":39,"rating":3.5,"zip_code":"10002"},{"id":"242duaE9aarDFCh_tvsfUQ","name":"Sakura 6","cuisine":"Japanese","address":"837 Manhattan Ave","coordinates":{"latitude":40.7286796569824,"longitude":-73.9538269042969},"review_count":128,"rating":3.5,"zip_code":"11222"},{"id":"WS_BBqvau4RanE9lqi_6wA","name":"KO Sushi","cuisine":"Japanese","address":"1619 York Ave","coordinates":{"latitude":40.775543,"longitude":-73.947799},"review_count":48,"rating":3,"zip_code":"10028"},{"id":"Dv28TvKBh_8i6W02uAaMKw","name":"Samurai Papa BS","cuisine":"Japanese","address":"594 Lafayette Ave","coordinates":{"latitude":40.6897563,"longitude":-73.951087},"review_count":106,"rating":4,"zip_code":"11216"},{"id":"aoYDuvipcT_XGAM5ckFJnA","name":"Cafe Water","cuisine":"Japanese","address":"130 Water St","coordinates":{"latitude":40.7056344,"longitude":-74.0068667},"review_count":67,"rating":3,"zip_code":"10005"},{"id":"wHHKg9wg30HuXCwgbmoJPQ","name":"TEISUI New York","cuisine":"Japanese","address":"246 5th Ave","coordinates":{"latitude":40.744773,"longitude":-73.987732},"review_count":26,"rating":4,"zip_code":"10001"},{"id":"dbA0L81u4Jn4DnXcLVi6XQ","name":"Tabata Ramen","cuisine":"Japanese","address":"540 9th Ave","coordinates":{"latitude":40.7569022,"longitude":-73.9935326},"review_count":32,"rating":3.5,"zip_code":"10018"},{"id":"wv3-eFVYUaZo3XybsSnDIg","name":"Mizu","cuisine":"Japanese","address":"314 Bedford Ave","coordinates":{"latitude":40.713679,"longitude":-73.961977},"review_count":152,"rating":3.5,"zip_code":"11211"},{"id":"jRZ3SuJ--vimE47dna3J7Q","name":"Hannosuke","cuisine":"Japanese","address":"595 River Rd","coordinates":{"latitude":40.81627,"longitude":-73.97983},"review_count":92,"rating":4,"zip_code":"07020"},{"id":"MzA6gitJKqfW4VrdS7AiQw","name":"PACIFIC MOON","cuisine":"Japanese","address":"59-02 Broadway","coordinates":{"latitude":40.75119,"longitude":-73.90269},"review_count":47,"rating":4.5,"zip_code":"11377"},{"id":"dJYc9Hi0KJRMqCkCJOxC-w","name":"Sakura Sushi & Thai Cuisine","cuisine":"Japanese","address":"273 Mott St","coordinates":{"latitude":40.72386,"longitude":-73.9946499},"review_count":61,"rating":3,"zip_code":"10012"},{"id":"iU9ccAdtNNRgV-jMKj13mw","name":"Aaron Sushi","cuisine":"Japanese","address":"2545 Steinway St","coordinates":{"latitude":40.7667,"longitude":-73.91233},"review_count":26,"rating":4.5,"zip_code":"11103"},{"id":"h4kSprW0LhnrUox8s3PasA","name":"Abeca Sushi","cuisine":"Japanese","address":"121 E 27th St","coordinates":{"latitude":40.74257,"longitude":-73.98345},"review_count":67,"rating":3,"zip_code":"10016"},{"id":"vPbJRg5umcRMELTDsJik_A","name":"Hong Kong Chinese Restaurant","cuisine":"Japanese","address":"174 Lexington Ave","coordinates":{"latitude":40.7444,"longitude":-73.98146},"review_count":30,"rating":3.5,"zip_code":"10016"},{"id":"AFisWoWm0pfxEi1dMYitKw","name":"Kyoto","cuisine":"Japanese","address":"115 Smith St","coordinates":{"latitude":40.6877593994141,"longitude":-73.989501953125},"review_count":185,"rating":4,"zip_code":"11201"},{"id":"4eAgPj7eKonKAtk64kgUfQ","name":"Matsuri","cuisine":"Japanese","address":"39-56 61st St","coordinates":{"latitude":40.7458357,"longitude":-73.9035436},"review_count":43,"rating":4.5,"zip_code":"11377"},{"id":"xkE0d6R30HpfdNeFhRhxGw","name":"Omusubi Gonbei","cuisine":"Japanese","address":"595 River Rd","coordinates":{"latitude":40.81627,"longitude":-73.97983},"review_count":78,"rating":4,"zip_code":"07020"},{"id":"pmJqb7-EckluXUk6Rtml6A","name":"Hunan Park","cuisine":"Japanese","address":"721 Columbus Ave","coordinates":{"latitude":40.79221,"longitude":-73.96774},"review_count":71,"rating":3,"zip_code":"10025"},{"id":"PD0O_q0RXvEkgC6-07ffpQ","name":"2nd Yo Sushi","cuisine":"Japanese","address":"208 3rd Ave","coordinates":{"latitude":40.73601,"longitude":-73.98542},"review_count":83,"rating":2.5,"zip_code":"10010"},{"id":"Ld_ueNsJVWkm6-QlGS81zA","name":"Marathon Sushi","cuisine":"Japanese","address":"661 Anderson Ave","coordinates":{"latitude":40.827144,"longitude":-73.987274},"review_count":112,"rating":4,"zip_code":"07010"},{"id":"Mj4o7xAFTVm_uXTF3cZPAw","name":"Asami Shanghai","cuisine":"Japanese","address":"513 6th Ave","coordinates":{"latitude":40.73699,"longitude":-73.99744},"review_count":33,"rating":3.5,"zip_code":"10011"},{"id":"7WZW9OitpekPWHyiWapXow","name":"Nikai Japanese Restaurant and Bar","cuisine":"Japanese","address":"830 3rd Ave","coordinates":{"latitude":40.756474,"longitude":-73.970758},"review_count":24,"rating":3.5,"zip_code":"10022"},{"id":"vgHwR_1RQTHFjEXeY0oUnA","name":"JAZZ at KITANO","cuisine":"Japanese","address":"66 Park Ave E 38th St","coordinates":{"latitude":40.749588,"longitude":-73.979972},"review_count":39,"rating":3.5,"zip_code":"10016"},{"id":"DhoUHO05XIEcaywBzNQrFA","name":"Oka Sushi","cuisine":"Japanese","address":"18 Maiden Ln","coordinates":{"latitude":40.7092728,"longitude":-74.009328},"review_count":68,"rating":3,"zip_code":"10038"},{"id":"dxHn9Zk17fiY-9CvydZdgg","name":"South Street Fish & Ramen Co","cuisine":"Japanese","address":"219 Washington St","coordinates":{"latitude":40.739314084913,"longitude":-74.0301266666666},"review_count":51,"rating":4.5,"zip_code":"07030"},{"id":"PetO4CfZ1k36oMJL3Oc0Wg","name":"Wasabi Sushi & Bento","cuisine":"Japanese","address":"1 Pennsylvania Plz","coordinates":{"latitude":40.7512149882696,"longitude":-73.9922235533595},"review_count":41,"rating":3,"zip_code":"10119"},{"id":"cFUur8507gmcaAhmhDcw-A","name":"A. B. Sushi","cuisine":"Japanese","address":"11 W 36th St","coordinates":{"latitude":40.75029,"longitude":-73.98439},"review_count":16,"rating":4.5,"zip_code":"10018"},{"id":"A_pEWrmdOmOuppwSZOlCBA","name":"Nanatori Japanese Restaurant","cuisine":"Japanese","address":"162 Montague St","coordinates":{"latitude":40.694149,"longitude":-73.99282},"review_count":180,"rating":3.5,"zip_code":"11201"},{"id":"SwydWCzIZ_bSp-8HeM4DTA","name":"GoGo-Gi","cuisine":"Japanese","address":"3908 Broadway","coordinates":{"latitude":40.83794,"longitude":-73.94171},"review_count":146,"rating":4,"zip_code":"10032"},{"id":"mm8gYHxaLLRyv3CslY40TA","name":"Suzuki Shokudo","cuisine":"Japanese","address":"38-01 31st St","coordinates":{"latitude":40.75353,"longitude":-73.93184},"review_count":28,"rating":4.5,"zip_code":"11101"},{"id":"61HfCnnk6-SlvAuutOFntQ","name":"Mitoushi Sushi","cuisine":"Japanese","address":"177 Atlantic Ave","coordinates":{"latitude":40.69034,"longitude":-73.993783},"review_count":155,"rating":3.5,"zip_code":"11201"},{"id":"SyQSAyd2ij6st3oAurb6XA","name":"Curry-Ya","cuisine":"Japanese","address":"844 2nd Ave","coordinates":{"latitude":40.75161,"longitude":-73.97069},"review_count":21,"rating":3.5,"zip_code":"10017"},{"id":"JkHPM-CMLNGQzZb79GWm4Q","name":"Oishi Sushi","cuisine":"Japanese","address":"929 Manhattan Ave","coordinates":{"latitude":40.731133595109,"longitude":-73.9544885605574},"review_count":91,"rating":3.5,"zip_code":"11222"},{"id":"kCpKwCW49k3ImuI5cK6LSw","name":"Gu Japanese Fusion Sushi & Bar","cuisine":"Japanese","address":"155 E 52nd St","coordinates":{"latitude":40.75743,"longitude":-73.97042},"review_count":11,"rating":4.5,"zip_code":"10022"},{"id":"_Zq3mxKHO7uzKBzF6FE8sw","name":"Shinobi Ramen","cuisine":"Japanese","address":"53 Morgan Ave","coordinates":{"latitude":40.705722,"longitude":-73.932014},"review_count":164,"rating":3.5,"zip_code":"11237"},{"id":"pWT9GRkLeloTEKo2HkyKKA","name":"West Side Noodle Co","cuisine":"Japanese","address":"940 Amsterdam Ave","coordinates":{"latitude":40.8007770199998,"longitude":-73.9656807963058},"review_count":27,"rating":3.5,"zip_code":"10025"},{"id":"6fwKL6DQlSLmjJSjnvr58A","name":"Ani Sushi Ramen restaurant & bar","cuisine":"Japanese","address":"142 Montague St","coordinates":{"latitude":40.694517,"longitude":-73.99395},"review_count":193,"rating":3.5,"zip_code":"11201"},{"id":"z-QCeERogFu_oIjCfxRW4Q","name":"Abumi Sushi","cuisine":"Japanese","address":"209 E 26th St","coordinates":{"latitude":40.7405014038086,"longitude":-73.9812469482422},"review_count":43,"rating":3,"zip_code":"10010"},{"id":"NQbh8zKPqILV6WeYSOM-yQ","name":"Makana Hawaiian & Japanese BBQ","cuisine":"Japanese","address":"2245 1st Ave","coordinates":{"latitude":40.79568,"longitude":-73.93599},"review_count":142,"rating":3.5,"zip_code":"10029"},{"id":"SdszVJsDzwV4c3ayuA6BWQ","name":"Sakura 7","cuisine":"Japanese","address":"65-54 Grand Ave","coordinates":{"latitude":40.7240570459862,"longitude":-73.8987931830836},"review_count":99,"rating":4,"zip_code":"11378"},{"id":"HsMExJ0PYZnFACK_T1iUBg","name":"Wasabi Restaurant","cuisine":"Japanese","address":"638 Manhattan Ave","coordinates":{"latitude":40.72412,"longitude":-73.95084},"review_count":119,"rating":3.5,"zip_code":"11222"},{"id":"K1h1-dbZLgfC4vZSeJfDMw","name":"Akariba","cuisine":"Japanese","address":"77 N 6th St","coordinates":{"latitude":40.7189722,"longitude":-73.9608301},"review_count":36,"rating":4,"zip_code":"11249"},{"id":"G4qZvheX74VwYvek7I8iQg","name":"Buntopia","cuisine":"Japanese","address":"994 Broadway","coordinates":{"latitude":40.69598,"longitude":-73.933975},"review_count":80,"rating":4.5,"zip_code":"11221"},{"id":"HdHT_9doAtEO02YErevNCw","name":"The Bowl","cuisine":"Japanese","address":"345 Houston St","coordinates":{"latitude":40.7289610312443,"longitude":-74.0098074139714},"review_count":11,"rating":5,"zip_code":"10014"},{"id":"nnSyjwIkhbJIBMiBtch_BQ","name":"Kimoto Rooftop","cuisine":"Japanese","address":"216 Duffield St","coordinates":{"latitude":40.69169,"longitude":-73.98465},"review_count":208,"rating":3,"zip_code":"11201"},{"id":"H20RCBmxdkf2kNjftedPyg","name":"Hanami Japanese Cuisine","cuisine":"Japanese","address":"525 Ave Of The Americas","coordinates":{"latitude":40.737277,"longitude":-73.99723},"review_count":26,"rating":3,"zip_code":"10011"},{"id":"eyjeP9CJZ_gYgeJFP_vtpQ","name":"Karasu","cuisine":"Japanese","address":"166 Dekalb Ave","coordinates":{"latitude":40.689411,"longitude":-73.973256},"review_count":57,"rating":4,"zip_code":"11217"},{"id":"daqoTgWT411Rhl5h92BcqA","name":"Ginger Grill","cuisine":"Japanese","address":"5008 Bergenline Ave","coordinates":{"latitude":40.7831045221492,"longitude":-74.0207290649414},"review_count":35,"rating":4,"zip_code":"07093"},{"id":"AOtSeOOozV0vv7Ahz7CgYA","name":"Oishinbo","cuisine":"Japanese","address":"595 River Rd","coordinates":{"latitude":40.816197245154,"longitude":-73.9798927674591},"review_count":66,"rating":3.5,"zip_code":"07020"},{"id":"8vYNqvS2PMN00xTT6WBzHA","name":"Tomo Japanese Cuisine","cuisine":"Japanese","address":"86-12 37th Ave","coordinates":{"latitude":40.750061,"longitude":-73.880056},"review_count":188,"rating":3.5,"zip_code":"11372"},{"id":"eyrc1L7VnWK0TcF9cheR4w","name":"Okawa","cuisine":"Japanese","address":"77-05 37th Ave","coordinates":{"latitude":40.7494447,"longitude":-73.8884602},"review_count":136,"rating":3.5,"zip_code":"11372"},{"id":"UTZcmECFmXRyrfq8BS_n5w","name":"Shiro of Japan","cuisine":"Japanese","address":"89 E 42nd St","coordinates":{"latitude":40.752903,"longitude":-73.977126},"review_count":33,"rating":3,"zip_code":"10017"},{"id":"Icp3dY947JKh6MR0IQlxTQ","name":"Chuko","cuisine":"Japanese","address":"144 Evergreen Ave","coordinates":{"latitude":40.699196,"longitude":-73.931676},"review_count":50,"rating":4,"zip_code":"11206"},{"id":"YTfSamBoCb38FhhbgvcraA","name":"Aki Sushi","cuisine":"Japanese","address":"366 W 52nd St","coordinates":{"latitude":40.7643356323242,"longitude":-73.987663269043},"review_count":92,"rating":2,"zip_code":"10019"},{"id":"cevkTGf4vX_IBU_bGlz9ww","name":"Ubu","cuisine":"Japanese","address":"205 Hudson St","coordinates":{"latitude":40.738641,"longitude":-74.0292022},"review_count":77,"rating":3.5,"zip_code":"07030"},{"id":"-yOUj1AxF6DJvHdTNYrg6w","name":"WAZA Sushi & Ramen","cuisine":"Japanese","address":"485 Myrtle Ave","coordinates":{"latitude":40.69369,"longitude":-73.96575},"review_count":154,"rating":3.5,"zip_code":"11205"},{"id":"CnkdNQw6VsWBY9g8tb2Qag","name":"Genji Izakaya","cuisine":"Japanese","address":"10 Columbus Cir","coordinates":{"latitude":40.76844,"longitude":-73.98273},"review_count":23,"rating":3,"zip_code":"10019"},{"id":"_bAzUMm9ryzW7I6G7Nt3EA","name":"Macy's Chef Street","cuisine":"Japanese","address":"151 W 34th St","coordinates":{"latitude":40.7509071576032,"longitude":-73.9894411968374},"review_count":28,"rating":3,"zip_code":"10001"},{"id":"qNyUkJJjg1Tu6XmhAUU1sA","name":"Okuda","cuisine":"Japanese","address":"458 W 17th St","coordinates":{"latitude":40.7437929363044,"longitude":-74.0063984206981},"review_count":7,"rating":4.5,"zip_code":"10011"},{"id":"zzzOOwSYzuTPvsafSCzDPw","name":"Poke Green","cuisine":"Japanese","address":"275 Greenwich St","coordinates":{"latitude":40.71516,"longitude":-74.01107},"review_count":29,"rating":4,"zip_code":"10007"},{"id":"7yqnPlWGmK3H5HhFHAsRJg","name":"Wateishoku Kaneda","cuisine":"Japanese","address":"595 River Rd","coordinates":{"latitude":40.8160653,"longitude":-73.9800537},"review_count":74,"rating":3.5,"zip_code":"07020"},{"id":"-SMrRnKHeDqJdqlOc1pWVQ","name":"Menya Sandaime","cuisine":"Japanese","address":"570 Washington Blvd","coordinates":{"latitude":40.7286772826315,"longitude":-74.0341662615538},"review_count":72,"rating":4,"zip_code":"07310"},{"id":"CK-SCG1A80dyLbjBNhCXNA","name":"Akami Sushi","cuisine":"Japanese","address":"1773 First Ave","coordinates":{"latitude":40.7805099,"longitude":-73.9469147},"review_count":31,"rating":3,"zip_code":"10128"},{"id":"9rSBlX-8OuAQblXHiekViA","name":"Abace Sushi","cuisine":"Japanese","address":"695 9th Ave","coordinates":{"latitude":40.76224,"longitude":-73.99027},"review_count":34,"rating":3,"zip_code":"10036"},{"id":"5JYpVoaYkYxrByOskzHAdQ","name":"Niko Niko Sushi & Bowl","cuisine":"Japanese","address":"133 John St","coordinates":{"latitude":40.707176,"longitude":-74.004989},"review_count":49,"rating":2.5,"zip_code":"10038"},{"id":"aYKBz_mfKaintHAQiF4_2Q","name":"Ikinari Steak 5th Ave","cuisine":"Japanese","address":"37 West 46th St","coordinates":{"latitude":40.75687,"longitude":-73.98043},"review_count":25,"rating":3.5,"zip_code":"10036"},{"id":"pPcvrJL27P4Q4oZaJ946QA","name":"Osaka","cuisine":"Japanese","address":"535 8th Ave","coordinates":{"latitude":40.75395,"longitude":-73.99242},"review_count":73,"rating":2,"zip_code":"10018"},{"id":"8A6cnkksN1vFsQ7-LwxZ9g","name":"Mimi & Coco","cuisine":"Japanese","address":"231 W 39th St","coordinates":{"latitude":40.754929,"longitude":-73.989632},"review_count":19,"rating":3.5,"zip_code":"10018"},{"id":"NUFdHBhmlzJAZv0IpYuOoA","name":"Sushi Tokyo","cuisine":"Japanese","address":"121 W 19th St","coordinates":{"latitude":40.74081,"longitude":-73.99509},"review_count":12,"rating":4,"zip_code":"10011"},{"id":"fnkwdHzOecZ_RLDTjJiHUw","name":"Sariku","cuisine":"Japanese","address":"174 Lexington Ave","coordinates":{"latitude":40.7444,"longitude":-73.98146},"review_count":32,"rating":3,"zip_code":"10016"},{"id":"McKnbGN7f-4hmQMTHEU8OQ","name":"Akira Japanese Cuisine","cuisine":"Japanese","address":"152 7th Ave S","coordinates":{"latitude":40.7352,"longitude":-74.00211},"review_count":30,"rating":2.5,"zip_code":"10014"},{"id":"Q47OUqvJ7PXwBBWB-pC2ZQ","name":"Sushi D","cuisine":"Japanese","address":"207 Dekalb Ave","coordinates":{"latitude":40.6896898,"longitude":-73.9713079},"review_count":116,"rating":3.5,"zip_code":"11205"},{"id":"bokNBgAa9rmMMO8dkZVR1w","name":"Rice & Miso","cuisine":"Japanese","address":"134 Nevins St","coordinates":{"latitude":40.6845436245203,"longitude":-73.9837776124477},"review_count":39,"rating":4.5,"zip_code":"11217"},{"id":"6J6u3doRNRrewj4_N_QgPA","name":"Yamashiro","cuisine":"Japanese","address":"466 Myrtle Ave","coordinates":{"latitude":40.693187713623,"longitude":-73.9665908813477},"review_count":112,"rating":3.5,"zip_code":"11205"},{"id":"yp-qSp0TpQAL7_EwIzFczg","name":"Wild Fusion","cuisine":"Japanese","address":"313 Grove St","coordinates":{"latitude":40.71929,"longitude":-74.0435},"review_count":242,"rating":3,"zip_code":"07302"},{"id":"MRBq3He22yi4ol01SdVlRA","name":"Okadaman","cuisine":"Japanese","address":null,"coordinates":{"latitude":40.755669040889,"longitude":-73.9743536710739},"review_count":44,"rating":2.5,"zip_code":"10001"},{"id":"MM5i395oQHBP-9XtJrsO3A","name":"Tokyo Hibachi Asian Cuisine & Buffet","cuisine":"Japanese","address":"700 Plaza Dr","coordinates":{"latitude":40.7862203603794,"longitude":-74.0456456185952},"review_count":230,"rating":2.5,"zip_code":"07094"},{"id":"JXCiSk6ZbczHXZ9kfBEsOA","name":"1st Ave Gourmet","cuisine":"Japanese","address":"1274 1st Ave","coordinates":{"latitude":40.765414,"longitude":-73.957324},"review_count":31,"rating":2.5,"zip_code":"10065"},{"id":"xlgGf123WHB7Q6_V4Xe12w","name":"Azuki","cuisine":"Japanese","address":"700 8th Ave 44th St","coordinates":{"latitude":40.758712,"longitude":-73.988281},"review_count":26,"rating":3,"zip_code":"10036"},{"id":"D1V7ZadUtUPuYYlpDA1BOQ","name":"Sakura Of Japan","cuisine":"Japanese","address":"570 8th Ave","coordinates":{"latitude":40.75472,"longitude":-73.99129},"review_count":11,"rating":4.5,"zip_code":"10018"},{"id":"tFFLetrWW6-7KW74eryspQ","name":"Mama Sushi","cuisine":"Japanese","address":"3569 Broadway","coordinates":{"latitude":40.82733,"longitude":-73.95013},"review_count":166,"rating":3.5,"zip_code":"10031"},{"id":"YaC0zQKELcFAwhWX0oSUCQ","name":"BANY - Best Asian of New York","cuisine":"Japanese","address":"10-57 Jackson Ave","coordinates":{"latitude":40.74279,"longitude":-73.952743},"review_count":102,"rating":2.5,"zip_code":"11101"},{"id":"hQ1WItXONlYKd3yzDUPBYQ","name":"Kungfu Kitchen","cuisine":"Japanese","address":"811 8th Ave","coordinates":{"latitude":40.761474,"longitude":-73.986964},"review_count":27,"rating":3,"zip_code":"10019"},{"id":"RkVlK77T0oeilmMICMVkjg","name":"Domo Williamsburg","cuisine":"Japanese","address":"359 Manhattan Ave","coordinates":{"latitude":40.7166,"longitude":-73.94657},"review_count":17,"rating":5,"zip_code":"11211"},{"id":"Nd1siXnY8NiOn4Gn-AgWSQ","name":"RaMein","cuisine":"Japanese","address":"","coordinates":{"latitude":40.7507209777832,"longitude":-73.941032409668},"review_count":9,"rating":5,"zip_code":"11101"},{"id":"e-G1yC5u8LOcQ-fx0Lxthw","name":"Ajihei Bushwick","cuisine":"Japanese","address":"156 Knickerbocker Ave","coordinates":{"latitude":40.70416,"longitude":-73.92799},"review_count":42,"rating":4.5,"zip_code":"11237"},{"id":"etnDT8OVTPJGz4MRhoPDNw","name":"Chopstick House","cuisine":"Japanese","address":"130 W 36th St","coordinates":{"latitude":40.7514827,"longitude":-73.9881506},"review_count":53,"rating":2,"zip_code":"10018"},{"id":"x2SMXhMZDfFmCvvyHSXiqQ","name":"Hakata Grill East","cuisine":"Japanese","address":"231 E 53rd St","coordinates":{"latitude":40.75726,"longitude":-73.96808},"review_count":14,"rating":3.5,"zip_code":"10022"},{"id":"h7eetr6J6CK24s7Cgcn-ew","name":"Oishii Sushi Japanese","cuisine":"Japanese","address":"3704 Ditmars Blvd","coordinates":{"latitude":40.7737096,"longitude":-73.9075253},"review_count":90,"rating":3.5,"zip_code":"11105"},{"id":"yBIxpidB7TzMRZogAucvfg","name":"Happy Kitchen","cuisine":"Japanese","address":"80-12 37th Ave","coordinates":{"latitude":40.7494341,"longitude":-73.8859037},"review_count":82,"rating":3.5,"zip_code":"11372"},{"id":"Uraw62udg_AGNbM8dDEwRA","name":"Teri Teri Japanese Restaurant","cuisine":"Japanese","address":"5509 Bergenline Ave","coordinates":{"latitude":40.786,"longitude":-74.01883},"review_count":40,"rating":3.5,"zip_code":"07093"},{"id":"_byoUiZdZvS1QE_Szbvu0w","name":"Wasabi Point","cuisine":"Japanese","address":"76-18 Woodside Ave","coordinates":{"latitude":40.74327,"longitude":-73.88814},"review_count":50,"rating":4,"zip_code":"11373"},{"id":"Ww3aAPf0sA5ygAXu2qV1ZQ","name":"Taiki","cuisine":"Japanese","address":"134 Nevins St","coordinates":{"latitude":40.6845433545275,"longitude":-73.9837775425761},"review_count":40,"rating":4.5,"zip_code":"11217"},{"id":"LNwaPEFd9gHu69lFtgYQOw","name":"Osaka","cuisine":"Japanese","address":"272 Court St","coordinates":{"latitude":40.68485,"longitude":-73.99505},"review_count":108,"rating":3.5,"zip_code":"11231"},{"id":"FsHqkVb0kmLq1VW7P-xz1A","name":"Tomo Japanese Fusion","cuisine":"Japanese","address":"1077 Flushing Ave","coordinates":{"latitude":40.7047424316406,"longitude":-73.9292984008789},"review_count":140,"rating":3,"zip_code":"11237"},{"id":"82lxJZQZUnTrh0RDKrKbrA","name":"Tokyo Hanten","cuisine":"Japanese","address":"595 River Rd","coordinates":{"latitude":40.81627,"longitude":-73.97983},"review_count":70,"rating":3,"zip_code":"07020"},{"id":"Wu9AymEM_RM2cnRPslVlIw","name":"East 21","cuisine":"Japanese","address":"71-26 Roosevelt Ave","coordinates":{"latitude":40.7464685299281,"longitude":-73.8940858840942},"review_count":65,"rating":3.5,"zip_code":"11372"},{"id":"uv7iMV8JCW0BT6-S8uiJlw","name":"Kumo Japanese Restaurant","cuisine":"Japanese","address":"37-18 Ditmars Blvd","coordinates":{"latitude":40.773576,"longitude":-73.9073249},"review_count":66,"rating":3.5,"zip_code":"11105"},{"id":"wjZ1xFwTqWtILiYr5zLDHg","name":"Ramen Sanshiro","cuisine":"Japanese","address":"152 W 49th St","coordinates":{"latitude":40.7600440979004,"longitude":-73.9832992553711},"review_count":11,"rating":3.5,"zip_code":"10019"},{"id":"ocnHpILS80DHL--34L8xpw","name":"Sushi Noz","cuisine":"Japanese","address":"181 E 78th St","coordinates":{"latitude":40.77385,"longitude":-73.95813},"review_count":12,"rating":5,"zip_code":"10075"},{"id":"kQWAx-Otx-sw6eakRSAGow","name":"Emperor Japanese Tapas Shabu Restaurant","cuisine":"Japanese","address":"96 Bowery","coordinates":{"latitude":40.71767,"longitude":-73.995574},"review_count":37,"rating":2.5,"zip_code":"10013"},{"id":"LjzcvSy6vNQYDhSO5eO3-Q","name":"Sumo Teriyaki & Sushi Japanese Restaurant","cuisine":"Japanese","address":"139 Havemeyer St","coordinates":{"latitude":40.711968,"longitude":-73.957126},"review_count":83,"rating":3,"zip_code":"11211"},{"id":"0uk7ctUq9ppLLaAt1ZZK5A","name":"KAI Sweets Cafe","cuisine":"Japanese","address":"595 River Rd","coordinates":{"latitude":40.8162536621094,"longitude":-73.9798965454102},"review_count":45,"rating":3.5,"zip_code":"07020"},{"id":"EudDWF0N2xa37coDFwKtAg","name":"Hamada-ya Bakery","cuisine":"Japanese","address":"595 River Rd","coordinates":{"latitude":40.8160908913656,"longitude":-73.9800065898152},"review_count":33,"rating":3.5,"zip_code":"07020"},{"id":"shHhP5lfZwrAYFL3K04_lg","name":"Hero Thai-Izakaya","cuisine":"Japanese","address":"34-16 Broadway","coordinates":{"latitude":40.76038,"longitude":-73.9225699},"review_count":22,"rating":4,"zip_code":"11106"},{"id":"ZofuLR3VhaIGAAkXL0zrFQ","name":"AAA Ichiban Sushi","cuisine":"Japanese","address":"283 Broome St","coordinates":{"latitude":40.71842,"longitude":-73.99148},"review_count":22,"rating":2.5,"zip_code":"10002"},{"id":"ci457I10hOtr9PpEQ5wpZw","name":"Matsunichi","cuisine":"Japanese","address":"14-18 Elizabeth St","coordinates":{"latitude":40.71592,"longitude":-73.99725},"review_count":16,"rating":4,"zip_code":"10013"},{"id":"cGuJmzRd0YC7al-3HZiMhQ","name":"Tsujita","cuisine":"Japanese","address":"595 River Rd","coordinates":{"latitude":40.8160490605783,"longitude":-73.9800697932541},"review_count":24,"rating":4,"zip_code":"07020"},{"id":"WqxmkjSW_QtRopc0K-U4zA","name":"Kitakata Ramen Ban Nai - Jersey City","cuisine":"Japanese","address":"420 Grand St","coordinates":{"latitude":40.718847,"longitude":-74.0523796},"review_count":31,"rating":4,"zip_code":"07302"},{"id":"24zawWdBJLwm6lsqLDqfHQ","name":"Hana Sushi Japanese Cuisine","cuisine":"Japanese","address":"1301 2nd Ave","coordinates":{"latitude":40.7665436,"longitude":-73.9601899},"review_count":32,"rating":2.5,"zip_code":"10065"},{"id":"Edkx9frqYknN9ykTEqTVXg","name":"Miso Restaurant","cuisine":"Japanese","address":"40 Main St","coordinates":{"latitude":40.7028,"longitude":-73.99084},"review_count":100,"rating":3,"zip_code":"11201"},{"id":"iF8QKcWowtdfeOxJngZ_PA","name":"Abi Sushi","cuisine":"Japanese","address":"3271 31st St","coordinates":{"latitude":40.760018,"longitude":-73.926558},"review_count":47,"rating":3,"zip_code":"11106"},{"id":"u641PRSq7yCSfAcell-QiA","name":"Oki Japanese","cuisine":"Japanese","address":"4511 Queens Blvd","coordinates":{"latitude":40.7435273,"longitude":-73.9193266},"review_count":72,"rating":3,"zip_code":"11104"},{"id":"EG7KhvgAMOUAZm3fHQ4Hig","name":"Masaki Teriyaki & Sushi Cafe","cuisine":"Japanese","address":"11 Putnam Ave","coordinates":{"latitude":40.6828275,"longitude":-73.9621835},"review_count":59,"rating":4,"zip_code":"11238"},{"id":"vHtV8WkFec0mlWfDmm9R2Q","name":"Wakamatsu","cuisine":"Japanese","address":"7018 Grand Ave","coordinates":{"latitude":40.727485,"longitude":-73.892282},"review_count":75,"rating":3.5,"zip_code":"11378"},{"id":"wqsHsMl_l-3R_L23Qf5d4A","name":"Ramen Ramen","cuisine":"Japanese","address":"9 Broadway","coordinates":{"latitude":40.7051706,"longitude":-74.0140126},"review_count":22,"rating":3.5,"zip_code":"10004"},{"id":"DB3CWuk6bQuulJx69ZSz0w","name":"Azuki Sushi","cuisine":"Japanese","address":"29 Irving Pl","coordinates":{"latitude":40.7351052761078,"longitude":-73.9880155026913},"review_count":26,"rating":2.5,"zip_code":"10003"},{"id":"qCOhPeo_xAhK7LFavv77YA","name":"Seven Sushi Cafe","cuisine":"Japanese","address":"157 Central Ave","coordinates":{"latitude":40.6992071699701,"longitude":-73.9268895780932},"review_count":44,"rating":4,"zip_code":"11221"},{"id":"rXbuPLwlFuE0QZFUIs5_6g","name":"19 @ Juku - Omakase","cuisine":"Japanese","address":"32 Mulberry St","coordinates":{"latitude":40.71461,"longitude":-73.99939},"review_count":8,"rating":4,"zip_code":"10013"},{"id":"IuMvrvXTTZm4NQYO1O1dbg","name":"Kuma NYC","cuisine":"Japanese","address":"1520 Myrtle Ave","coordinates":{"latitude":40.69925,"longitude":-73.91305},"review_count":18,"rating":4.5,"zip_code":"11237"},{"id":"kzmKTYkGLE5I-sAuY8mDGQ","name":"Ikinari Steak Chelsea 8th Ave","cuisine":"Japanese","address":"96 8th Ave","coordinates":{"latitude":40.74014,"longitude":-74.00189},"review_count":6,"rating":4.5,"zip_code":"10011"},{"id":"u1aeWjvebECChpm5IbUUkA","name":"Teri Teri Japanese Restaurant","cuisine":"Japanese","address":"3415 Bergenline Ave","coordinates":{"latitude":40.7734299632411,"longitude":-74.0283109992743},"review_count":21,"rating":4,"zip_code":"07087"},{"id":"qI86P6EBB0_9qC4uIT0j-Q","name":"Niko Niko Sushi","cuisine":"Japanese","address":"700 Plaza Dr","coordinates":{"latitude":40.785815,"longitude":-74.045326},"review_count":76,"rating":3,"zip_code":"07094"},{"id":"pS7aJrWCGRuVqflukwiFDw","name":"Wasabi","cuisine":"Japanese","address":"185 Greenwich St","coordinates":{"latitude":40.7099275,"longitude":-74.0126017},"review_count":13,"rating":3,"zip_code":"10007"},{"id":"HGLH-sa-Fp3X6UXcaG7U0g","name":"66S Fusion","cuisine":"Japanese","address":"130 Flushing Ave","coordinates":{"latitude":40.6977600194066,"longitude":-73.9715740687866},"review_count":17,"rating":4.5,"zip_code":"11205"},{"id":"eZngz1akxl2qrNCbLP4hHg","name":"Ikinari Steak Park Ave","cuisine":"Japanese","address":"455 Park Ave S","coordinates":{"latitude":40.74492,"longitude":-73.98269},"review_count":12,"rating":3,"zip_code":"10016"},{"id":"37mIbgT7_GTDt9ZBYjs6nw","name":"Teriyaki Burrito House","cuisine":"Japanese","address":"96 Dekalb Ave","coordinates":{"latitude":40.68965,"longitude":-73.97899},"review_count":34,"rating":3.5,"zip_code":"11201"},{"id":"IRQmUno4GQMvEDifCXO-cw","name":"China Place","cuisine":"Japanese","address":"3141 Broadway","coordinates":{"latitude":40.8140965,"longitude":-73.9597942},"review_count":46,"rating":2.5,"zip_code":"10027"},{"id":"x67ykjBpxm3FrPSbnpBrmQ","name":"Sushi Ko","cuisine":"Japanese","address":"212 E 52nd St","coordinates":{"latitude":40.756591796875,"longitude":-73.9692993164062},"review_count":28,"rating":2,"zip_code":"10022"},{"id":"ZMn4E-flhwR7O1PfUXS0pw","name":"Sushi Palace","cuisine":"Japanese","address":"692 Anderson Ave","coordinates":{"latitude":40.82801,"longitude":-73.98637},"review_count":28,"rating":4,"zip_code":"07010"},{"id":"7gXgfECmBH2AKSgF-c_USA","name":"Toyo Japanese Cuisine","cuisine":"Japanese","address":"73-06 Metropolitan Ave","coordinates":{"latitude":40.7125555,"longitude":-73.8789931},"review_count":74,"rating":3.5,"zip_code":"11379"},{"id":"fxNbIWUppKvkEl09DT0QGg","name":"Ramen Zamurai - Williamsburg","cuisine":"Japanese","address":"126 N 6th St","coordinates":{"latitude":40.7179,"longitude":-73.9595},"review_count":25,"rating":3.5,"zip_code":"11249"},{"id":"_KiNupyiIuAnAbSsUztWTw","name":"Kaname Restaurant","cuisine":"Japanese","address":"783 Palisade Ave","coordinates":{"latitude":40.82906,"longitude":-73.98053},"review_count":41,"rating":3.5,"zip_code":"07010"},{"id":"SXi6lU3TF15BhXkTJ5cTFQ","name":"Sakura 4","cuisine":"Japanese","address":"64-19 Myrtle Ave","coordinates":{"latitude":40.70123,"longitude":-73.89176},"review_count":121,"rating":3,"zip_code":"11385"},{"id":"KfFXfxN6qzk_dTcQjsK-OQ","name":"Fukuyama Sushi & Ramen","cuisine":"Japanese","address":"622 Metropolitan Ave","coordinates":{"latitude":40.713916,"longitude":-73.948283},"review_count":12,"rating":4.5,"zip_code":"11211"},{"id":"7USePx0k_ENmwrw625X9kA","name":"Dashi Noodle House","cuisine":"Japanese","address":"66-41 Fresh Pond Rd","coordinates":{"latitude":40.70772,"longitude":-73.89722},"review_count":46,"rating":4,"zip_code":"11385"},{"id":"NEQUX6MJSG8yeFqDCApbAQ","name":"Tendo Sushi","cuisine":"Japanese","address":"66-26 Fresh Pond Rd","coordinates":{"latitude":40.7081,"longitude":-73.8981699},"review_count":76,"rating":3.5,"zip_code":"11385"},{"id":"gm-LT7qcb4t5JfDQW1pONw","name":"Teri Teri Japanese Restaurant","cuisine":"Japanese","address":"7308 Bergenline Ave","coordinates":{"latitude":40.797996,"longitude":-74.009074},"review_count":31,"rating":3,"zip_code":"07047"},{"id":"-ZMnUfTTjLEfUt4PbQGqgA","name":"Boru Boru","cuisine":"Japanese","address":"774 Amsterdam Ave","coordinates":{"latitude":40.7954,"longitude":-73.969779},"review_count":19,"rating":4,"zip_code":"10025"},{"id":"wFl5KunHTmEXCvqI0YNrIA","name":"Hibachi Express 1","cuisine":"Japanese","address":"4 Cortlandt St","coordinates":{"latitude":40.7099186629057,"longitude":-74.0101336687803},"review_count":17,"rating":3,"zip_code":"10007"},{"id":"Ju1Tu3Dl1qVmqEuD4Nyo7g","name":"Koto Sushi","cuisine":"Japanese","address":"552 Henry St","coordinates":{"latitude":40.682315,"longitude":-74.000587},"review_count":49,"rating":3.5,"zip_code":"11231"},{"id":"JVNH3KfshX0ZcAe7_UJFAw","name":"Glaze Teriyaki","cuisine":"Japanese","address":"145 N 4th St","coordinates":{"latitude":40.7161521911621,"longitude":-73.959098815918},"review_count":36,"rating":3.5,"zip_code":"11211"},{"id":"6Bv2zPuLN1ni11TtCd5K4w","name":"Hamachi Sushi","cuisine":"Japanese","address":"63 Reade St","coordinates":{"latitude":40.7148315,"longitude":-74.0065651},"review_count":35,"rating":2,"zip_code":"10007"},{"id":"T5N0NSny-Xxi6BP-ejxL2A","name":"Aki Sushi","cuisine":"Japanese","address":"216 E 39th St","coordinates":{"latitude":40.748394,"longitude":-73.975174},"review_count":20,"rating":2,"zip_code":"10016"},{"id":"ucO0J9f1m7bIs1nQclzSeQ","name":"Pan-Tastic Q","cuisine":"Japanese","address":"4202 Northern Blvd","coordinates":{"latitude":40.7522769,"longitude":-73.9212728},"review_count":23,"rating":3.5,"zip_code":"11101"},{"id":"TTkuFX_N7VRNGQFb6peHAQ","name":"1 Chimi Sushi","cuisine":"Japanese","address":"207 E 26th St","coordinates":{"latitude":40.74062,"longitude":-73.9812199},"review_count":15,"rating":2.5,"zip_code":"10010"},{"id":"iOP5--ysHdx8tllieeSsig","name":"Sushi Jun","cuisine":"Japanese","address":"875 3rd Ave","coordinates":{"latitude":40.75722,"longitude":-73.96919},"review_count":11,"rating":2.5,"zip_code":"10022"},{"id":"5lVBDTuBCV5kF1t9Yb1NTA","name":"Cafe 49","cuisine":"Japanese","address":"12 E 49th St","coordinates":{"latitude":40.7575221,"longitude":-73.9771166},"review_count":10,"rating":3,"zip_code":"10022"},{"id":"VNfodDUNKTJgD1jQJMDc8A","name":"Food Avenue","cuisine":"Japanese","address":"321 Broad Ave","coordinates":{"latitude":40.8249466325985,"longitude":-74.0096468478441},"review_count":11,"rating":4,"zip_code":"07657"},{"id":"TBlI_aZ5_bqhUzJiTDqqxw","name":"Sakuro Tokyo II","cuisine":"Japanese","address":"354 Myrtle Ave","coordinates":{"latitude":40.6930618,"longitude":-73.9721451},"review_count":67,"rating":3,"zip_code":"11205"},{"id":"EYdkw-pxPCg7W15hD00_bw","name":"Lua Bar","cuisine":"Japanese","address":"1006 Flushing Ave","coordinates":{"latitude":40.70375,"longitude":-73.93065},"review_count":23,"rating":4.5,"zip_code":"11237"},{"id":"8txGVTQb_LGedfr5CaxW2g","name":"Sarku Japan","cuisine":"Japanese","address":"30 Mall Dr W","coordinates":{"latitude":40.727096,"longitude":-74.038486},"review_count":41,"rating":3,"zip_code":"07310"},{"id":"Gv_srxSL2qgF3MfAnOeuJQ","name":"Sakura of Japan","cuisine":"Japanese","address":"819 2nd Ave","coordinates":{"latitude":40.75105,"longitude":-73.97167},"review_count":19,"rating":2,"zip_code":"10017"},{"id":"QpPcrp2hQQ5KUg_X6SIirA","name":"Tanoshi Tei","cuisine":"Japanese","address":"1374 York Ave","coordinates":{"latitude":40.767587,"longitude":-73.952844},"review_count":4,"rating":4,"zip_code":"10021"},{"id":"Eqz2pL3xHnr_72fxDXa2IQ","name":"Pokebab","cuisine":"Japanese","address":"80 Broad St","coordinates":{"latitude":40.70426,"longitude":-74.01172},"review_count":11,"rating":4,"zip_code":"10004"},{"id":"XB8hpls-B4ekyZvuouxqng","name":"Ninja Grill","cuisine":"Japanese","address":"103 Essex St","coordinates":{"latitude":40.71911,"longitude":-73.98823},"review_count":23,"rating":4.5,"zip_code":"10002"},{"id":"GOLqh9i4qeqcj2Q3DJ3AQw","name":"Matsuya","cuisine":"Japanese","address":"1467 York Ave","coordinates":{"latitude":40.7705892,"longitude":-73.9512062},"review_count":4,"rating":4,"zip_code":"10021"},{"id":"Ra6QEAIWoXaFK1ejytIy-w","name":"Sushi Zayy","cuisine":"Japanese","address":"57 1st Ave","coordinates":{"latitude":40.7250669480505,"longitude":-73.9874496289444},"review_count":22,"rating":2.5,"zip_code":"10003"},{"id":"v81Sb8YV_Ky2tRF6WAGLnQ","name":"Tokyo Station","cuisine":"Japanese","address":"626 Newark Ave","coordinates":{"latitude":40.7334042693283,"longitude":-74.0582381579921},"review_count":36,"rating":3,"zip_code":"07306"},{"id":"05rVLz-3rXabPskGje2xHA","name":"Oconomi","cuisine":"Japanese","address":"","coordinates":{"latitude":40.7507209777832,"longitude":-73.941032409668},"review_count":3,"rating":4,"zip_code":"10119"},{"id":"SPyN19tjQyRTD-ltN0qNJw","name":"Koku Ramen","cuisine":"Japanese","address":"2W 32nd St","coordinates":{"latitude":40.7724500021756,"longitude":-73.9140900061979},"review_count":21,"rating":4,"zip_code":"10001"},{"id":"g9IFea9brBr8j8awcdOBOw","name":"Chopped Parsley","cuisine":"Japanese","address":"500 W 146th St","coordinates":{"latitude":40.82593,"longitude":-73.9474199},"review_count":91,"rating":4.5,"zip_code":"10031"},{"id":"1CfowrfIQtEW520wsrO4Zw","name":"Ramen Bar","cuisine":"Japanese","address":"140 Plymouth St","coordinates":{"latitude":40.70375,"longitude":-73.98809},"review_count":42,"rating":3.5,"zip_code":"11201"},{"id":"-261d_hEZlczqgfqf9axog","name":"A1 Sushi Cafe","cuisine":"Japanese","address":"166 Pearl St","coordinates":{"latitude":40.7058725506067,"longitude":-74.0075493603945},"review_count":16,"rating":2.5,"zip_code":"10005"},{"id":"CfhEaGySVsORQbem4_y1Wg","name":"Minamoto Kitchoan","cuisine":"Japanese","address":"595 River Rd","coordinates":{"latitude":40.8160653,"longitude":-73.9800537},"review_count":12,"rating":4,"zip_code":"07020"},{"id":"T1aZAWSiZtSP52ToGNNX2w","name":"Poke Burrito","cuisine":"Japanese","address":"3707 30th Ave","coordinates":{"latitude":40.7647,"longitude":-73.91609},"review_count":30,"rating":3.5,"zip_code":"11103"},{"id":"r-By0Hcu8imVawDfIMwRdg","name":"Niigata Kome Tosho","cuisine":"Japanese","address":"12 E 49th St","coordinates":{"latitude":40.7575221,"longitude":-73.9771166},"review_count":4,"rating":4.5,"zip_code":"10017"},{"id":"sPxq9kmp9EZFtTeWAu2sGw","name":"Sushi Dojo EXPRESS","cuisine":"Japanese","address":"52 Gansevoort St","coordinates":{"latitude":40.739178,"longitude":-74.007027},"review_count":7,"rating":3,"zip_code":"10014"},{"id":"Q7BJoR01V9YA5BTzOSgaNQ","name":"Samurice","cuisine":"Japanese","address":"277 Canal St","coordinates":{"latitude":40.7189134849859,"longitude":-74.0010761842131},"review_count":6,"rating":3,"zip_code":"10013"},{"id":"NjNTbqiiSmGknApAoo09Mg","name":"Ikura Sushi","cuisine":"Japanese","address":"646 Grand St","coordinates":{"latitude":40.7111892700195,"longitude":-73.946418762207},"review_count":42,"rating":3,"zip_code":"11211"},{"id":"8NRZxnwRcCY9O0V3hs3T4Q","name":"Fulton Chef","cuisine":"Japanese","address":"64 Fulton St","coordinates":{"latitude":40.708732,"longitude":-74.005348},"review_count":10,"rating":2.5,"zip_code":"10038"},{"id":"hmpim7DjbEBiNPKSlWpcTQ","name":"Aizumi Sushi","cuisine":"Japanese","address":"283 Broome St","coordinates":{"latitude":40.71842,"longitude":-73.99148},"review_count":4,"rating":3.5,"zip_code":"10002"},{"id":"H67xFT7gRbjotRJICrWtPg","name":"Kuidouraku","cuisine":"Japanese","address":"141 1st Ave","coordinates":{"latitude":40.72811,"longitude":-73.98534},"review_count":10,"rating":2.5,"zip_code":"10003"},{"id":"0QcOIcnGZVf2CW7ibeKh_Q","name":"Long Grain Thai & Japanese","cuisine":"Japanese","address":"710 Amsterdam Ave","coordinates":{"latitude":40.793201,"longitude":-73.971397},"review_count":13,"rating":2,"zip_code":"10025"},{"id":"GBk_i2qnjMtQIt_ntJpzbw","name":"Ramen Andante","cuisine":"Japanese","address":"255 Berry St","coordinates":{"latitude":40.7154160259023,"longitude":-73.96236743779},"review_count":11,"rating":4.5,"zip_code":"11249"},{"id":"hRjSYLEszj_fyFhU9FVJCQ","name":"JC Sakura","cuisine":"Japanese","address":"362 Grove St","coordinates":{"latitude":40.7212611,"longitude":-74.0424912},"review_count":72,"rating":2.5,"zip_code":"07302"},{"id":"BrbTUti2XF9H7ZYzAmn_6A","name":"Oolong Tea Restaurant","cuisine":"Japanese","address":"133 Front St","coordinates":{"latitude":40.7902956,"longitude":-74.0584467},"review_count":19,"rating":3.5,"zip_code":"07094"},{"id":"CrEHI10_Y-FB_KmqKmAqzg","name":"Yummy Sushi","cuisine":"Japanese","address":"198A Orchard St","coordinates":{"latitude":40.72238,"longitude":-73.98794},"review_count":7,"rating":2.5,"zip_code":"10002"},{"id":"-6wpiKE7vCkFVb7GLCVcIw","name":"Sushi Thai Cuisine","cuisine":"Japanese","address":"1185 Bedford Ave","coordinates":{"latitude":40.68276,"longitude":-73.95349},"review_count":117,"rating":2,"zip_code":"11216"},{"id":"tqA4CVOvhqXg2_LRp0bhRQ","name":"Tokyo 11","cuisine":"Japanese","address":"133 E 31st St","coordinates":{"latitude":40.74466,"longitude":-73.98123},"review_count":12,"rating":2,"zip_code":"10016"},{"id":"-48FPDLFS26aSx4IYk05JA","name":"Hibachi Grill & Supreme Buffet","cuisine":"Japanese","address":"8101 Tonnelle Ave","coordinates":{"latitude":40.8082974761147,"longitude":-74.0182073260072},"review_count":24,"rating":3.5,"zip_code":"07047"},{"id":"gz8Pq_xgajTRf_5___82Cg","name":"Mitoushi 8","cuisine":"Japanese","address":"70-11 Grand Ave","coordinates":{"latitude":40.7277260130886,"longitude":-73.8927069665119},"review_count":22,"rating":4,"zip_code":"11378"},{"id":"-xQldFYgkMmCAVRIbRnDwg","name":"Hapon Japanese Restaurant","cuisine":"Japanese","address":"211 E 43rd St Ph","coordinates":{"latitude":40.7523994445801,"longitude":-73.9730987548828},"review_count":4,"rating":3.5,"zip_code":"10017"},{"id":"T0IoEwALrh6nDoylrHdaAQ","name":"Asari Sushi","cuisine":"Japanese","address":"316 W 36th St","coordinates":{"latitude":40.753635,"longitude":-73.993484},"review_count":10,"rating":2,"zip_code":"10018"},{"id":"TuoXbiDqhFBJiyAXpcOLuA","name":"Sushi Kano By Genji","cuisine":"Japanese","address":"1095 6th Ave","coordinates":{"latitude":40.75465,"longitude":-73.98476},"review_count":6,"rating":3.5,"zip_code":"10036"},{"id":"wtmPjQuCKeFuMdcR5SKEAQ","name":"Ocean Restaurant","cuisine":"Japanese","address":"393 Malcolm X Blvd","coordinates":{"latitude":40.81086,"longitude":-73.94356},"review_count":16,"rating":3,"zip_code":"10027"},{"id":"wzIZDphY5SYrNfHM3DA6kg","name":"Teri Teri Japanese Restaurant","cuisine":"Japanese","address":"398 Central Ave","coordinates":{"latitude":40.74828,"longitude":-74.04738},"review_count":37,"rating":2.5,"zip_code":"07307"},{"id":"CCdr4HW5FmaRL6GzCa01BQ","name":"Natsu Japanese Restaurant","cuisine":"Japanese","address":"321 Broadway","coordinates":{"latitude":40.71599,"longitude":-74.00498},"review_count":5,"rating":3,"zip_code":"10007"},{"id":"qNmHq3ST2bBinAN-TatwSg","name":"Mirakuya Japanese Cuisine","cuisine":"Japanese","address":"727 Flushing Ave","coordinates":{"latitude":40.7004883125668,"longitude":-73.9435394480824},"review_count":24,"rating":3.5,"zip_code":"11206"},{"id":"9BKRqcbYtVfQlSZjQGO5HQ","name":"Rainbow Fang's Kitchen","cuisine":"Japanese","address":"51-21 43rd Ave","coordinates":{"latitude":40.7444599,"longitude":-73.9128099},"review_count":21,"rating":3,"zip_code":"11377"}]}
