{"businesses":[{"id":"aTzxrI2o3vH_HQkqeFszzg","name":"Juban","cuisine":"Japanese","address":"207 10th Ave","coordinates":{"latitude":40.74737,"longitude":-74.00482},"review_count":131,"rating":4,"zip_code":"10011"},{"id":"55jx0bYJ-odyqKKSrDXtPA","name":"MIGHTY Bowl","cuisine":"Japanese","address":"817 2nd Ave","coordinates":{"latitude":40.75101,"longitude":-73.9717},"review_count":81,"rating":4,"zip_code":"10017"},{"id":"ww-GIpxS6L6nUKJWtmI0kA","name":"ROKI Le Izakaya","cuisine":"Japanese","address":"12 W 21st St","coordinates":{"latitude":40.7406099,"longitude":-73.99159},"review_count":113,"rating":4,"zip_code":"10010"},{"id":"ZGN1Hwora6U4mZEhPjGtsw","name":"Cafe Zaiya","cuisine":"Japanese","address":"69 Cooper Sq","coordinates":{"latitude":40.728642,"longitude":-73.9903589},"review_count":152,"rating":4,"zip_code":"10008"},{"id":"qikiQkcPe40utb7uKDJMHQ","name":"Cafe Zaiya","cuisine":"Japanese","address":"1073 6th Ave","coordinates":{"latitude":40.7537290614827,"longitude":-73.9849401655457},"review_count":155,"rating":3.5,"zip_code":"10018"},{"id":"ct58a_D8Z8DoJt7luB50wQ","name":"Ramen Ishida","cuisine":"Japanese","address":"122 Ludlow St","coordinates":{"latitude":40.71959,"longitude":-73.98834},"review_count":66,"rating":4.5,"zip_code":"10002"},{"id":"G9SWgxH65OBQaJaE8dHkbw","name":"Zest Ramen","cuisine":"Japanese","address":"112 Eldridge St","coordinates":{"latitude":40.71816,"longitude":-73.99186},"review_count":74,"rating":4.5,"zip_code":"10002"},{"id":"PBowYD8-vzqbv4yx0TilVg","name":"Ramen Shack","cuisine":"Japanese","address":"13-13 40th Ave","coordinates":{"latitude":40.7554119,"longitude":-73.9414266},"review_count":143,"rating":4.5,"zip_code":"11101"},{"id":"HO8vjBAFY3GU1erXMZ_UbQ","name":"CHOCHIN","cuisine":"Japanese","address":"310 E 93rd St","coordinates":{"latitude":40.781805,"longitude":-73.947887},"review_count":68,"rating":4.5,"zip_code":"10128"},{"id":"et9pAFtSvNOct9Qcmtcf7g","name":"Mido","cuisine":"Japanese","address":"612 Amsterdam Ave","coordinates":{"latitude":40.7900491,"longitude":-73.9734598},"review_count":139,"rating":4,"zip_code":"10024"},{"id":"Qli775QfVY4oFPNu7Cy5Tw","name":"Sun-Chan Japanese Restaurant","cuisine":"Japanese","address":"2707 Broadway","coordinates":{"latitude":40.7995,"longitude":-73.9686399},"review_count":185,"rating":3.5,"zip_code":"10025"},{"id":"UB5emSFilql0J10Jx4AHXA","name":"Watawa Sushi","cuisine":"Japanese","address":"33-10 Ditmars Blvd","coordinates":{"latitude":40.774959,"longitude":-73.9095},"review_count":782,"rating":4,"zip_code":"11105"},{"id":"0IlPgT9j_85PuLDs8ZqiUw","name":"BentOn Cafe","cuisine":"Japanese","address":"156 E 45th St","coordinates":{"latitude":40.7527802459225,"longitude":-73.9735173882912},"review_count":131,"rating":4,"zip_code":"10017"},{"id":"79-I5OTfhsfPCZGgcB4J5A","name":"Mizu Sushi","cuisine":"Japanese","address":"29 E 20th St","coordinates":{"latitude":40.739068,"longitude":-73.9889649},"review_count":217,"rating":3.5,"zip_code":"10003"},{"id":"6qK0MyhsXYLgMSPWZdleGA","name":"Dai Hachi Sushi","cuisine":"Japanese","address":"303 E 56th St","coordinates":{"latitude":40.75865,"longitude":-73.96523},"review_count":134,"rating":4,"zip_code":"10022"},{"id":"jt-0y4RJ20ONbkxxNWG_Sw","name":"New Mizu Sushi","cuisine":"Japanese","address":"350 E 9th St","coordinates":{"latitude":40.7283,"longitude":-73.98538},"review_count":78,"rating":4.5,"zip_code":"10003"},{"id":"gAc5qTZ0JrYB6mr5j5AluQ","name":"Hinata Ramen","cuisine":"Japanese","address":"159 E 55th St","coordinates":{"latitude":40.759302,"longitude":-73.968787},"review_count":177,"rating":3.5,"zip_code":"10022"},{"id":"AnrLdpW6G-tXQ7xhBYiA5g","name":"Azasu","cuisine":"Japanese","address":"49 Clinton St","coordinates":{"latitude":40.719758,"longitude":-73.985011},"review_count":95,"rating":4,"zip_code":"10002"},{"id":"WlRZ4JEAVqtemQ5WQhFAFg","name":"Maru 2","cuisine":"Japanese","address":"267 W 17th St","coordinates":{"latitude":40.7416362670334,"longitude":-74.0007360062909},"review_count":87,"rating":4.5,"zip_code":"10011"},{"id":"QJTLAOMNvhV1_jPfcQ_qPw","name":"Nippon","cuisine":"Japanese","address":"155 E 52nd St","coordinates":{"latitude":40.75743,"longitude":-73.97042},"review_count":147,"rating":3.5,"zip_code":"10022"},{"id":"zj4vqgljRhxwWlvttgFRKQ","name":"wagamama","cuisine":"Japanese","address":"210 5th Ave","coordinates":{"latitude":40.74336,"longitude":-73.98873},"review_count":463,"rating":3,"zip_code":"10010"},{"id":"Ycz0lIQObftqCnJJvln2WQ","name":"HanaMichi","cuisine":"Japanese","address":"28 W 32nd St","coordinates":{"latitude":40.7477154132864,"longitude":-73.9870278625656},"review_count":393,"rating":3,"zip_code":"10001"},{"id":"FLKABU82NNDnCvZSZD75Bg","name":"Naruto Ramen","cuisine":"Japanese","address":"2634 Broadway","coordinates":{"latitude":40.7968567,"longitude":-73.9698717},"review_count":155,"rating":4,"zip_code":"10025"},{"id":"dL6_XUUr_INX10IOMtSM0w","name":"Oishi Bay","cuisine":"Japanese","address":"230 E 29th St","coordinates":{"latitude":40.7418734,"longitude":-73.978779},"review_count":139,"rating":4,"zip_code":"10016"},{"id":"UlsRplz7jGbDLOOBi5X_ww","name":"PokeRice","cuisine":"Japanese","address":"162 West 4th St","coordinates":{"latitude":40.73187,"longitude":-74.00138},"review_count":53,"rating":4.5,"zip_code":"10014"},{"id":"c869kkUkjPM5nSGeJqVosg","name":"Ooki Sushi","cuisine":"Japanese","address":"1575 3rd Ave","coordinates":{"latitude":40.78029,"longitude":-73.95254},"review_count":213,"rating":3.5,"zip_code":"10128"},{"id":"ejmJTjHzdMxoq3t7pnnjrg","name":"Naoki Takahashi","cuisine":"Japanese","address":"311 W 17th St","coordinates":{"latitude":40.74196,"longitude":-74.0015899},"review_count":54,"rating":4.5,"zip_code":"10011"},{"id":"enx0SZOoGBgeTQ_-aF8OFQ","name":"Sushiden Sixth Ave","cuisine":"Japanese","address":"123 W 49th St","coordinates":{"latitude":40.7601358335573,"longitude":-73.9825703265759},"review_count":185,"rating":3.5,"zip_code":"10020"},{"id":"k6KrdEQ8EAMPJx82fZpUvw","name":"Kuro-Obi at City Kitchen NYC","cuisine":"Japanese","address":"700 8th Ave","coordinates":{"latitude":40.7587156,"longitude":-73.9883444},"review_count":137,"rating":3.5,"zip_code":"10036"},{"id":"7OMGEtFWT6sdd9TVuoGqJQ","name":"Okonomi","cuisine":"Japanese","address":"150 Ainslie St","coordinates":{"latitude":40.712622,"longitude":-73.9487843},"review_count":364,"rating":4.5,"zip_code":"11211"},{"id":"RRNU27hv8rhBYx-mOinwRA","name":"Santouka Ramen","cuisine":"Japanese","address":"595 River Rd","coordinates":{"latitude":40.8162536621094,"longitude":-73.9798965454102},"review_count":607,"rating":4,"zip_code":"07020"},{"id":"jho1TctWYD-IZoWhkxqGLw","name":"Poké Fun","cuisine":"Japanese","address":"334 W 37th St","coordinates":{"latitude":40.7547,"longitude":-73.99375},"review_count":78,"rating":4.5,"zip_code":"10018"},{"id":"NLZsTQQQ-jttCAQkKBmqoQ","name":"Shoga Sushi & Oyster Bar","cuisine":"Japanese","address":"300 E 88th St","coordinates":{"latitude":40.7790547129288,"longitude":-73.9507931470871},"review_count":163,"rating":3.5,"zip_code":"10128"},{"id":"Qi1AoRNcFEX8etII_RZkFg","name":"Ajisai Japanese Fusion","cuisine":"Japanese","address":"795 Lexington Ave","coordinates":{"latitude":40.763763,"longitude":-73.966743},"review_count":134,"rating":3.5,"zip_code":"10065"},{"id":"REIcoQFvGB7B6S0GmqHo1A","name":"Hakubai","cuisine":"Japanese","address":"66 Park Ave","coordinates":{"latitude":40.74954,"longitude":-73.97986},"review_count":96,"rating":4,"zip_code":"10016"},{"id":"Uoic12Je-GLfRp3D3Klp5g","name":"Umi No Ie","cuisine":"Japanese","address":"86 E 3rd St","coordinates":{"latitude":40.72464,"longitude":-73.98823},"review_count":135,"rating":4,"zip_code":"10003"},{"id":"1e4J-25T_aXQ2QFiHL_yZg","name":"Soho Sushi","cuisine":"Japanese","address":"231 Sullivan St","coordinates":{"latitude":40.7297242,"longitude":-73.9994099},"review_count":199,"rating":3.5,"zip_code":"10012"},{"id":"b_J5KlnS5NPMpxM3CYjgLA","name":"Iron Sushi","cuisine":"Japanese","address":"355 E 78th St","coordinates":{"latitude":40.77193,"longitude":-73.95358},"review_count":163,"rating":3.5,"zip_code":"10075"},{"id":"lbpsRAg22TFMuBaDt2nZEQ","name":"Yamato Ramen and Izakaya","cuisine":"Japanese","address":"542 3rd Ave","coordinates":{"latitude":40.747221,"longitude":-73.977402},"review_count":157,"rating":3.5,"zip_code":"10016"},{"id":"bSgJYwutzr5mIn6Ar3bzUg","name":"Uogashi","cuisine":"Japanese","address":"188 1st Ave","coordinates":{"latitude":40.729537,"longitude":-73.983482},"review_count":89,"rating":4,"zip_code":"10009"},{"id":"zhkyBId_RIPyiOFE2R1PRg","name":"Nobi Sushi","cuisine":"Japanese","address":"437 3rd Ave","coordinates":{"latitude":40.7433343,"longitude":-73.9796567},"review_count":162,"rating":3.5,"zip_code":"10016"},{"id":"Y9RuXSHc0QxdPmzUP9m87g","name":"Sushi Para Japanese","cuisine":"Japanese","address":"1461 3rd Ave","coordinates":{"latitude":40.776461,"longitude":-73.9553339},"review_count":165,"rating":3.5,"zip_code":"10028"},{"id":"Nbqzy3ea5_x2zXWkdWlUIQ","name":"Sake Bar Hagi 46","cuisine":"Japanese","address":"358 W 46th St","coordinates":{"latitude":40.76047,"longitude":-73.99015},"review_count":139,"rating":3.5,"zip_code":"10036"},{"id":"-BWRdjHW6CtMGIRLMxEVQQ","name":"Bar Masa","cuisine":"Japanese","address":"10 Columbus Cir","coordinates":{"latitude":40.7685591712413,"longitude":-73.9830132742049},"review_count":164,"rating":3.5,"zip_code":"10019"},{"id":"LZ8qWYoScZ_DlOg4QYfo4w","name":"Amber Upper East","cuisine":"Japanese","address":"1406 3rd Ave","coordinates":{"latitude":40.7749519655958,"longitude":-73.9570612997634},"review_count":203,"rating":3.5,"zip_code":"10075"},{"id":"479rycCXZojMT9S0cl8Oxg","name":"Yakiniku Gen","cuisine":"Japanese","address":"250 E 52nd St","coordinates":{"latitude":40.75611,"longitude":-73.96815},"review_count":107,"rating":4,"zip_code":"10022"},{"id":"psqD5se4A0sv9Zn3PyUlcg","name":"K-Bap","cuisine":"Japanese","address":"62 W 56th St","coordinates":{"latitude":40.7632179260254,"longitude":-73.9772415161133},"review_count":196,"rating":4,"zip_code":"10019"},{"id":"ruBUmEgfRVu7M6i64XMQ9Q","name":"Kouzan Japanese Restaurant","cuisine":"Japanese","address":"685 Amsterdam Ave","coordinates":{"latitude":40.79226,"longitude":-73.97145},"review_count":193,"rating":3.5,"zip_code":"10025"},{"id":"V96YbhzyAGsDByRrCWpBZA","name":"Haru Sushi","cuisine":"Japanese","address":"1 Wall St Ct","coordinates":{"latitude":40.7054815402335,"longitude":-74.0082836151123},"review_count":320,"rating":3.5,"zip_code":"10005"},{"id":"D65eObUbArHu6UiQsUasgw","name":"HinoMaru Ramen","cuisine":"Japanese","address":"33-18 Ditmars Blvd","coordinates":{"latitude":40.774889916651,"longitude":-73.9092001318932},"review_count":722,"rating":4,"zip_code":"11105"},{"id":"nyN6xEgKkWTAM4C41nqpkQ","name":"Hana Japanese Cuisine","cuisine":"Japanese","address":"111 Rivington St","coordinates":{"latitude":40.7197723388672,"longitude":-73.9879455566406},"review_count":150,"rating":3.5,"zip_code":"10002"},{"id":"25KSIumOXSnysnUIGAhNYw","name":"Fuji Hibachi","cuisine":"Japanese","address":"321 W 42nd St","coordinates":{"latitude":40.75792,"longitude":-73.99067},"review_count":161,"rating":3.5,"zip_code":"10036"},{"id":"Cx8VCw7e918oH0qhDCmjpA","name":"Sharaku","cuisine":"Japanese","address":"14 Stuyvesant St","coordinates":{"latitude":40.7298,"longitude":-73.98901},"review_count":306,"rating":3,"zip_code":"10003"},{"id":"SKoMUaQewpMdj1Mg8QvBNw","name":"Nobu Downtown","cuisine":"Japanese","address":"195 Broadway","coordinates":{"latitude":40.71085,"longitude":-74.00976},"review_count":142,"rating":4,"zip_code":"10007"},{"id":"UtrW_dBuT5aqxSzx0FUICQ","name":"Lili's 57","cuisine":"Japanese","address":"200 W 57th St","coordinates":{"latitude":40.76554,"longitude":-73.98046},"review_count":240,"rating":3.5,"zip_code":"10019"},{"id":"YMh3vH--fzLqiOAyL_3T5w","name":"Gaijin","cuisine":"Japanese","address":"37-12 31st Ave","coordinates":{"latitude":40.7616429510725,"longitude":-73.9183799922466},"review_count":208,"rating":4.5,"zip_code":"11103"},{"id":"yoGoH-1kDWMrQBI95ITo4A","name":"Method","cuisine":"Japanese","address":"746 10th Ave","coordinates":{"latitude":40.7650523,"longitude":-73.9912028},"review_count":60,"rating":4.5,"zip_code":"10019"},{"id":"8tcFpd0dcmfzbLgbTO4tdw","name":"Sen Sakana","cuisine":"Japanese","address":"28 W 44th St","coordinates":{"latitude":40.75533,"longitude":-73.9815},"review_count":111,"rating":4,"zip_code":"10036"},{"id":"35zXShgl22ax__nMLG7z5Q","name":"Kumo Sushi","cuisine":"Japanese","address":"282 Bleecker St","coordinates":{"latitude":40.73175,"longitude":-74.00354},"review_count":357,"rating":3,"zip_code":"10014"},{"id":"4qtJ_u-7-73ts5UPa6NBmA","name":"Ni Japanese Delicacies","cuisine":"Japanese","address":"120 Essex St","coordinates":{"latitude":40.7193413,"longitude":-73.9876003},"review_count":42,"rating":4.5,"zip_code":"10002"},{"id":"3adJXvbiqtOF6mmzeGXwWw","name":"Hana Sushi","cuisine":"Japanese","address":"211 7th Ave","coordinates":{"latitude":40.743446,"longitude":-73.995788},"review_count":186,"rating":3.5,"zip_code":"10011"},{"id":"ckDKWs7pyXpRYi06sVedrA","name":"TJ Asian Bistro","cuisine":"Japanese","address":"50-19 Skillman Ave","coordinates":{"latitude":40.7461895,"longitude":-73.9136856},"review_count":378,"rating":4,"zip_code":"11377"},{"id":"YVqpoDk4fC3noi3_lcBP3A","name":"Mi-ne Sushi","cuisine":"Japanese","address":"496 6th Ave","coordinates":{"latitude":40.73624,"longitude":-73.997261},"review_count":87,"rating":4,"zip_code":"10011"},{"id":"PqX9bDlDCc6qOZd2vw4tYw","name":"Takumi Taco","cuisine":"Japanese","address":"Chelsea Market","coordinates":{"latitude":40.7423295448078,"longitude":-74.0061442013275},"review_count":163,"rating":3.5,"zip_code":"10011"},{"id":"C5tqSSgVPfgtsJn3QnvDiQ","name":"Hibino","cuisine":"Japanese","address":"10-70 Jackson Ave","coordinates":{"latitude":40.742626,"longitude":-73.95198},"review_count":151,"rating":4,"zip_code":"11101"},{"id":"P6lp4sbzK29yQAMnEqe9dA","name":"Rockmeisha","cuisine":"Japanese","address":"11 Barrow St","coordinates":{"latitude":40.7325636,"longitude":-74.0024582},"review_count":167,"rating":3.5,"zip_code":"10014"},{"id":"QaEqD7q2GtmlovBOPC6yIQ","name":"Murasaki","cuisine":"Japanese","address":"4644 Vernon Blvd","coordinates":{"latitude":40.7457764869508,"longitude":-73.9532554683031},"review_count":141,"rating":4.5,"zip_code":"11101"},{"id":"5UqEDoMZCrvhSKgCWg5GGw","name":"Isohama","cuisine":"Japanese","address":"1666 3rd Ave","coordinates":{"latitude":40.78361,"longitude":-73.95088},"review_count":121,"rating":4,"zip_code":"10128"},{"id":"3csCSCHoQACwCp4e4E4phw","name":"Haru Sushi","cuisine":"Japanese","address":"433 Amsterdam Ave","coordinates":{"latitude":40.7840885,"longitude":-73.9774212},"review_count":198,"rating":3.5,"zip_code":"10024"},{"id":"fz6InLkB0FBkrXB0FiCwLg","name":"Sushiya Japanese Restaurant","cuisine":"Japanese","address":"28 W 56th St","coordinates":{"latitude":40.762733,"longitude":-73.976089},"review_count":186,"rating":3.5,"zip_code":"10019"},{"id":"baQdCPehE8AtwQaDFTdWCA","name":"Autre Kyo Ya","cuisine":"Japanese","address":"10 Stuyvesant St","coordinates":{"latitude":40.7297651,"longitude":-73.9893199},"review_count":77,"rating":4,"zip_code":"10003"},{"id":"Gg3heBdQQ9Wr03icYIaIQA","name":"Kobe Sushi","cuisine":"Japanese","address":"1472 York Ave","coordinates":{"latitude":40.77077,"longitude":-73.95066},"review_count":119,"rating":3.5,"zip_code":"10075"},{"id":"AhmnKeoGWNLdAkxw6iuF3g","name":"Kumo Sushi","cuisine":"Japanese","address":"214 1st Ave","coordinates":{"latitude":40.73042,"longitude":-73.98288},"review_count":318,"rating":3,"zip_code":"10009"},{"id":"iueVEi_vQxdAzdXs-8Fvrg","name":"Atami Japanese Fusion","cuisine":"Japanese","address":"1167 2nd Ave","coordinates":{"latitude":40.762268,"longitude":-73.963501},"review_count":111,"rating":4,"zip_code":"10065"},{"id":"z_yu_Qo1xTLeYPBqBM5igA","name":"Menya Jiro- Fidi","cuisine":"Japanese","address":"123 William St","coordinates":{"latitude":40.70933,"longitude":-74.00714},"review_count":92,"rating":4,"zip_code":"10038"},{"id":"7hqT-a4DsckGJr-Mg7IztQ","name":"Glaze Teriyaki","cuisine":"Japanese","address":"60 W 56th St","coordinates":{"latitude":40.763187,"longitude":-73.977183},"review_count":108,"rating":3.5,"zip_code":"10019"},{"id":"6x36O0p7akyaEQxeaKFbwg","name":"Ramen Takumi","cuisine":"Japanese","address":"1 University Pl","coordinates":{"latitude":40.730835,"longitude":-73.9952208},"review_count":379,"rating":3,"zip_code":"10003"},{"id":"klNCF8YE03ScMJqbvgT5Gw","name":"Nana Sushi","cuisine":"Japanese","address":"511 3rd Ave","coordinates":{"latitude":40.745989,"longitude":-73.977688},"review_count":184,"rating":3.5,"zip_code":"10016"},{"id":"HsqaGB90PYkI0En3rrtupQ","name":"Kaede Japanese Restaurant","cuisine":"Japanese","address":"90 Chambers St","coordinates":{"latitude":40.714458,"longitude":-74.007439},"review_count":153,"rating":3.5,"zip_code":"10007"},{"id":"QmelPAXgkVLZfUb27diAEw","name":"Shigure","cuisine":"Japanese","address":"277 Church St","coordinates":{"latitude":40.71853,"longitude":-74.00477},"review_count":79,"rating":4,"zip_code":"10013"},{"id":"neccHiLwwGeMUVRXSC7q_A","name":"Hide-Chan Ramen","cuisine":"Japanese","address":"314 W 53rd St","coordinates":{"latitude":40.7643263,"longitude":-73.9854547},"review_count":105,"rating":4,"zip_code":"10019"},{"id":"bLDHO08mO_OMNMBW9gdetw","name":"MoMo Sushi","cuisine":"Japanese","address":"239 Park Ave S","coordinates":{"latitude":40.737925,"longitude":-73.987855},"review_count":130,"rating":3.5,"zip_code":"10003"},{"id":"F3-lTIXR9cV3Ajh3Wf95Ww","name":"Megu","cuisine":"Japanese","address":"355 W 16th St","coordinates":{"latitude":40.7421895,"longitude":-74.0038627},"review_count":198,"rating":3.5,"zip_code":"10011"},{"id":"1en3taVtoDPgtEDWHrFeog","name":"Beron Beron","cuisine":"Japanese","address":"164 1st Ave","coordinates":{"latitude":40.72875,"longitude":-73.98408},"review_count":88,"rating":4,"zip_code":"10009"},{"id":"q4zgRy2Z-j-KUtq5tT7JzA","name":"Maroo","cuisine":"Japanese","address":"1640 3rd Ave","coordinates":{"latitude":40.7824759,"longitude":-73.9513328},"review_count":108,"rating":3.5,"zip_code":"10128"},{"id":"KBZQN540Xz6LbXLRVOMc0w","name":"Hunan Delight","cuisine":"Japanese","address":"1467 York Ave","coordinates":{"latitude":40.770678,"longitude":-73.951296},"review_count":157,"rating":3.5,"zip_code":"10075"},{"id":"UTLEGU4mLmB26DiX99Ggxw","name":"Tamashii Blue","cuisine":"Japanese","address":"47-36 Vernon Blvd","coordinates":{"latitude":40.74452,"longitude":-73.9538},"review_count":193,"rating":4,"zip_code":"11101"},{"id":"RVHR-au9294WeTL1oAEg0g","name":"wagamama","cuisine":"Japanese","address":"55 3rd Ave","coordinates":{"latitude":40.73097,"longitude":-73.9884},"review_count":137,"rating":4,"zip_code":"10003"},{"id":"e8EW89rpbE1G2Ev41yypTg","name":"Yakitori Tora","cuisine":"Japanese","address":"72 Kenmare St","coordinates":{"latitude":40.72095,"longitude":-73.9963},"review_count":82,"rating":4,"zip_code":"10012"},{"id":"ZaJS8EKQNSaQpwpmgN-vVw","name":"Samurai Mama","cuisine":"Japanese","address":"205 Grand St","coordinates":{"latitude":40.7140208838114,"longitude":-73.960325717926},"review_count":510,"rating":4,"zip_code":"11211"},{"id":"MM5P9cKlzovYLcf5qf2SwQ","name":"1 or 8","cuisine":"Japanese","address":"66 S 2nd St","coordinates":{"latitude":40.714257,"longitude":-73.965457},"review_count":373,"rating":4,"zip_code":"11249"},{"id":"aMUu0H6jsUDqdmSuAZeZsg","name":"Ajisen Ramen","cuisine":"Japanese","address":"14 Mott St","coordinates":{"latitude":40.7141461347865,"longitude":-73.9986339460327},"review_count":305,"rating":3,"zip_code":"10013"},{"id":"us2cegdaGlJRLbSLZsu54w","name":"Charlie's Place","cuisine":"Japanese","address":"1960 Madison Ave","coordinates":{"latitude":40.80622,"longitude":-73.94061},"review_count":92,"rating":4,"zip_code":"10035"},{"id":"M9NNvpKlOWLxJbSPDTe0Lg","name":"Sushi by Bou","cuisine":"Japanese","address":"49 W 20th St","coordinates":{"latitude":40.74094,"longitude":-73.9937},"review_count":30,"rating":4.5,"zip_code":"10011"},{"id":"k4QfaFoqtpEZ1LZylJZqww","name":"JJ's Fusion","cuisine":"Japanese","address":"3705 31st Ave","coordinates":{"latitude":40.762211,"longitude":-73.918243},"review_count":409,"rating":4,"zip_code":"11103"},{"id":"SkG1zH8KbRKKOgCDxFA4lw","name":"Souen Restaurant","cuisine":"Japanese","address":"210 Ave Of The Americas","coordinates":{"latitude":40.7276204,"longitude":-74.0029745},"review_count":189,"rating":3.5,"zip_code":"10014"},{"id":"ZrzSDDj54aUlPqn4MQMKeQ","name":"Momo Sushi Shack","cuisine":"Japanese","address":"43 Bogart St","coordinates":{"latitude":40.7051406133,"longitude":-73.933340055132},"review_count":614,"rating":4,"zip_code":"11206"},{"id":"Ece_DRuD1yQjRPJBAebRpw","name":"Kung Fu Little Steamed Buns Ramen","cuisine":"Japanese","address":"146 E 55th St","coordinates":{"latitude":40.7592514705491,"longitude":-73.9694294705987},"review_count":221,"rating":3,"zip_code":"10022"},{"id":"W0_Rdy8PlbAvS9K9ggkBfA","name":"Wasabi Sushi & Bento","cuisine":"Japanese","address":"200 Broadway","coordinates":{"latitude":40.7104944709691,"longitude":-74.0087553486228},"review_count":96,"rating":4,"zip_code":"10038"},{"id":"Jcp-SJpnkhj_MD8-aDIHaQ","name":"Ippudo 5th Avenue","cuisine":"Japanese","address":"24 W 46th St","coordinates":{"latitude":40.75639,"longitude":-73.98046},"review_count":129,"rating":3.5,"zip_code":"10036"},{"id":"xA1qtuegpy7skuVLb-CkQA","name":"Aji Sushi","cuisine":"Japanese","address":"519 3rd Ave","coordinates":{"latitude":40.7461051940918,"longitude":-73.9775238037109},"review_count":158,"rating":3.5,"zip_code":"10016"},{"id":"IS94JDTcq_WedBcj6P4qpQ","name":"Sushi on Jones","cuisine":"Japanese","address":"210 W 10th St","coordinates":{"latitude":40.7338884211791,"longitude":-74.0041552981117},"review_count":65,"rating":4,"zip_code":"10014"},{"id":"pil3w2-2REoXBwEToYZ_tQ","name":"Bar Moga","cuisine":"Japanese","address":"128 W Houston St","coordinates":{"latitude":40.72787,"longitude":-74.00107},"review_count":78,"rating":4,"zip_code":"10012"},{"id":"CV--FymQcb51hxcnkpCTng","name":"Sushi Ren","cuisine":"Japanese","address":"1584 2nd Ave","coordinates":{"latitude":40.775257,"longitude":-73.953247},"review_count":92,"rating":4,"zip_code":"10028"},{"id":"DU4nwyIPdlrqW5iJmlJGmw","name":"Wild Ginger","cuisine":"Japanese","address":"226 E 51st St","coordinates":{"latitude":40.75581,"longitude":-73.96931},"review_count":167,"rating":3.5,"zip_code":"10022"},{"id":"lbqm7geYKkE9zf1Lk-ivSw","name":"Ato","cuisine":"Japanese","address":"28 Grand St","coordinates":{"latitude":40.723011,"longitude":-74.004647},"review_count":89,"rating":4,"zip_code":"10013"},{"id":"jFhD3GansBI-NbA7Zj1Uew","name":"Cherin Sushi","cuisine":"Japanese","address":"306-308 E 6th St","coordinates":{"latitude":40.7269931,"longitude":-73.9880779},"review_count":221,"rating":3,"zip_code":"10003"},{"id":"u5V6wQQv3e4BmbyzUDYLNQ","name":"Takesushi","cuisine":"Japanese","address":"43-46 42nd St","coordinates":{"latitude":40.7441219,"longitude":-73.9224056},"review_count":325,"rating":4,"zip_code":"11104"},{"id":"XKDHsS8PevoEdFLNtt05FA","name":"Shuya Cafe de Ramen","cuisine":"Japanese","address":"42-13 Broadway","coordinates":{"latitude":40.758007205736,"longitude":-73.9167939666258},"review_count":183,"rating":4.5,"zip_code":"11103"},{"id":"D2di7LFb-38pTdkMNiKmpA","name":"Sushiden Madison Avenue","cuisine":"Japanese","address":"19 E 49th St","coordinates":{"latitude":40.757621,"longitude":-73.976377},"review_count":92,"rating":3.5,"zip_code":"10017"},{"id":"JPEIN-ZFo0-6X06nz6cfYA","name":"Sushi Daizen","cuisine":"Japanese","address":"47-38 Vernon Blvd","coordinates":{"latitude":40.74445,"longitude":-73.9538199},"review_count":78,"rating":4.5,"zip_code":"11101"},{"id":"bpeeh-kkay0ZE7mGXsCVKQ","name":"Ahana","cuisine":"Japanese","address":"1154 1st Ave","coordinates":{"latitude":40.7622458,"longitude":-73.9598571},"review_count":113,"rating":4,"zip_code":"10065"},{"id":"7e6fLPB03_xon1vnIQ6gJg","name":"JP Street","cuisine":"Japanese","address":"52 E 8th St","coordinates":{"latitude":40.73102,"longitude":-73.99373},"review_count":117,"rating":3.5,"zip_code":"10003"},{"id":"zcgPjeIpjYDDVbTar9mfAQ","name":"Goemon","cuisine":"Japanese","address":"29 Kenmare St","coordinates":{"latitude":40.72083,"longitude":-73.99509},"review_count":92,"rating":4,"zip_code":"10012"},{"id":"6AD684cLq5kSKSf3naUhcg","name":"Stanford East Sake Bar","cuisine":"Japanese","address":"43 W 32nd St","coordinates":{"latitude":40.74814,"longitude":-73.98755},"review_count":50,"rating":4,"zip_code":"10001"},{"id":"IdZ5DnGnAEXcmz2jZXGFiQ","name":"Hiroshi Japanese Fusion","cuisine":"Japanese","address":"585 3rd Ave","coordinates":{"latitude":40.748355,"longitude":-73.975852},"review_count":170,"rating":3,"zip_code":"10016"},{"id":"Xb-NlVV5gYKX2Amd_WeWoQ","name":"Tanoshi Bento","cuisine":"Japanese","address":"1372 York Ave","coordinates":{"latitude":40.767639,"longitude":-73.952903},"review_count":58,"rating":4,"zip_code":"10021"},{"id":"J85NKgA4tOgBAoqxu0vBNw","name":"Sushi Damo","cuisine":"Japanese","address":"330 W 58th St","coordinates":{"latitude":40.76778,"longitude":-73.98358},"review_count":202,"rating":3,"zip_code":"10019"},{"id":"tT6teP3ZfCAfvdPdDoqG4A","name":"Ki Sushi","cuisine":"Japanese","address":"122 Smith St","coordinates":{"latitude":40.68764,"longitude":-73.9901},"review_count":612,"rating":4,"zip_code":"11201"},{"id":"oIPpGBpDdi_Z_7hhXGvW8Q","name":"Aloha Sushi & Poke Bowl","cuisine":"Japanese","address":"330 E 53rd St","coordinates":{"latitude":40.7561010455144,"longitude":-73.9660321176052},"review_count":33,"rating":4.5,"zip_code":"10022"},{"id":"IjRxYyr41Yl1fGhIrss1vg","name":"Kokage","cuisine":"Japanese","address":"125 E 39th St","coordinates":{"latitude":40.7498614,"longitude":-73.9777215},"review_count":67,"rating":4,"zip_code":"10016"},{"id":"GcLvmAPTKDHGvXx2qAhqtQ","name":"Okidoki","cuisine":"Japanese","address":"34-05 30th Ave","coordinates":{"latitude":40.76582,"longitude":-73.918569},"review_count":350,"rating":4,"zip_code":"11103"},{"id":"er9ZbwbNiJtb25c0ogCRdA","name":"Bread & Butter","cuisine":"Japanese","address":"419 Park Ave S","coordinates":{"latitude":40.74373,"longitude":-73.98356},"review_count":219,"rating":3,"zip_code":"10016"},{"id":"6EArjn_iacj-yGVLTKWuEQ","name":"Fushimi Williamsburg","cuisine":"Japanese","address":"475 Driggs Ave","coordinates":{"latitude":40.718827,"longitude":-73.954131},"review_count":478,"rating":4,"zip_code":"11211"},{"id":"jwO3r6QVi_h9KxUFYetKuQ","name":"Miyako Sushi","cuisine":"Japanese","address":"642 Amsterdam Ave","coordinates":{"latitude":40.7910899,"longitude":-73.97275},"review_count":183,"rating":3.5,"zip_code":"10025"},{"id":"6kCo3xb87Sc3Aa5ZSWzNnw","name":"Kung Fu Kitchen","cuisine":"Japanese","address":"610 8th Ave","coordinates":{"latitude":40.7555654203146,"longitude":-73.9907654374838},"review_count":189,"rating":3,"zip_code":"10018"},{"id":"YoR6ouUwehLFnBQ7RAjPlw","name":"Zawa Japanese","cuisine":"Japanese","address":"354 E 66th St","coordinates":{"latitude":40.76397,"longitude":-73.9592},"review_count":40,"rating":4.5,"zip_code":"10065"},{"id":"4yOiQMheUbc0spj0_viKiA","name":"Han Sushi","cuisine":"Japanese","address":"854 10th Ave","coordinates":{"latitude":40.768482,"longitude":-73.9887},"review_count":84,"rating":3.5,"zip_code":"10019"},{"id":"XB_YNEvXM0Qch55jovpSJA","name":"Ginza Japanese Restaurant","cuisine":"Japanese","address":"800 Lexington Ave","coordinates":{"latitude":40.76405,"longitude":-73.96715},"review_count":172,"rating":3.5,"zip_code":"10065"},{"id":"JRmQRFEEnSUdAcesHun9AQ","name":"ICHIRAN - Brooklyn","cuisine":"Japanese","address":"374 Johnson Ave","coordinates":{"latitude":40.707587,"longitude":-73.933271},"review_count":814,"rating":3.5,"zip_code":"11206"},{"id":"dgU5NoylJVJ5rDZY_PezkA","name":"Blackbeard Ramen","cuisine":"Japanese","address":"607 Gorge Rd","coordinates":{"latitude":40.8243714,"longitude":-73.9877499},"review_count":378,"rating":4.5,"zip_code":"07010"},{"id":"o0G_zp_XgP6Pr-WY4LLHLQ","name":"Omen Azen","cuisine":"Japanese","address":"113 Thompson St","coordinates":{"latitude":40.726,"longitude":-74.00196},"review_count":94,"rating":3.5,"zip_code":"10012"},{"id":"yQsIfCcepYeQ9nelYdAIUA","name":"Yonekichi","cuisine":"Japanese","address":"238A E 9th St","coordinates":{"latitude":40.7293718124736,"longitude":-73.9879000564405},"review_count":118,"rating":3.5,"zip_code":"10003"},{"id":"MXYtu8-0eNkW6L4firJfcw","name":"Chinatown Restaurant","cuisine":"Japanese","address":"1650 3rd Ave","coordinates":{"latitude":40.78286,"longitude":-73.95126},"review_count":229,"rating":3,"zip_code":"10128"},{"id":"bnaeQCoBiQ7a5IfyBkrGCg","name":"MIFUNE New York","cuisine":"Japanese","address":"245 E 44th St","coordinates":{"latitude":40.75157,"longitude":-73.97172},"review_count":66,"rating":4,"zip_code":"10017"},{"id":"LcmRObvsi8JkxFCJ_l2_1g","name":"Sushi Seki Times Square","cuisine":"Japanese","address":"365 W 46th St","coordinates":{"latitude":40.760942,"longitude":-73.990075},"review_count":114,"rating":3.5,"zip_code":"10036"},{"id":"89EAcduo_uwq9mxq2jNzIA","name":"Guzan","cuisine":"Japanese","address":"1534 3rd Ave","coordinates":{"latitude":40.779162,"longitude":-73.953965},"review_count":113,"rating":3.5,"zip_code":"10028"},{"id":"lIix5qMI4q5bfCTO4wxkgA","name":"Pink Nori","cuisine":"Japanese","address":"36-06 30th Ave","coordinates":{"latitude":40.764689,"longitude":-73.917282},"review_count":304,"rating":4,"zip_code":"11103"},{"id":"NmWRyxPPk9Up5jZIWQT7jQ","name":"Shochu & Tapas - Aya","cuisine":"Japanese","address":"247 E 50th St","coordinates":{"latitude":40.7552228963833,"longitude":-73.9691328296387},"review_count":66,"rating":3.5,"zip_code":"10022"},{"id":"kvpSqh3q7r3HK3Tw-wXGEQ","name":"Ashbox","cuisine":"Japanese","address":"1154 Manhattan Ave","coordinates":{"latitude":40.738267,"longitude":-73.955158},"review_count":115,"rating":4.5,"zip_code":"11222"},{"id":"rln4dIU0ApGvEEI-Ne2bbA","name":"Chikarashi","cuisine":"Japanese","address":"1158 Broadway","coordinates":{"latitude":40.74458,"longitude":-73.98871},"review_count":43,"rating":4,"zip_code":"10001"},{"id":"SEPjcYB9-BUcilZAk7RR9w","name":"Izakaya ida","cuisine":"Japanese","address":"141 W 72nd St","coordinates":{"latitude":40.77828,"longitude":-73.9801},"review_count":99,"rating":3.5,"zip_code":"10023"},{"id":"mZOsij0jxAUF3HM8rRMlFQ","name":"Japonica","cuisine":"Japanese","address":"90 University Pl","coordinates":{"latitude":40.733757,"longitude":-73.9931259},"review_count":91,"rating":3.5,"zip_code":"10003"},{"id":"sNeefaiRztDQ10B4QzUi3g","name":"Shuraku","cuisine":"Japanese","address":"47 8th Ave","coordinates":{"latitude":40.7385446555585,"longitude":-74.0040071109515},"review_count":30,"rating":4.5,"zip_code":"10014"},{"id":"-kLlgcwT_Sf8Riq8wziVeA","name":"Sushi Seki - Chelsea","cuisine":"Japanese","address":"208 W 23rd St","coordinates":{"latitude":40.7442322,"longitude":-73.996266},"review_count":119,"rating":3.5,"zip_code":"10011"},{"id":"C69uTzoWFaIWcpnYf2LbRw","name":"ROKC","cuisine":"Japanese","address":"3452 Broadway","coordinates":{"latitude":40.8236107938687,"longitude":-73.9523133159089},"review_count":265,"rating":4.5,"zip_code":"10031"},{"id":"lwPVHZJBjQbhR7gQ2rhpNw","name":"Go! Go! Curry!","cuisine":"Japanese","address":"235 E 53rd St","coordinates":{"latitude":40.75732,"longitude":-73.96791},"review_count":50,"rating":4,"zip_code":"10022"},{"id":"_QxcsvPsYnOgPhiK6gzCfg","name":"SHOJI at 69 Leonard St","cuisine":"Japanese","address":"69 Leonard St","coordinates":{"latitude":40.71772,"longitude":-74.00538},"review_count":26,"rating":4.5,"zip_code":"10013"},{"id":"g556-c5nqX09MCjL3SlPAg","name":"Mika Japanese Cuisine & Bar","cuisine":"Japanese","address":"150 Centre St","coordinates":{"latitude":40.7173783964841,"longitude":-74.0002178834432},"review_count":279,"rating":3,"zip_code":"10013"},{"id":"Up5xjxx_K-OEGAneVzE_UA","name":"Domo Taco","cuisine":"Japanese","address":null,"coordinates":{"latitude":40.75994,"longitude":-73.97095},"review_count":157,"rating":3,"zip_code":"10022"},{"id":"Wmgy-pxHzYwbvQqJUph0Hw","name":"YO! Sushi","cuisine":"Japanese","address":"23 W 23rd St","coordinates":{"latitude":40.74218,"longitude":-73.99036},"review_count":212,"rating":3,"zip_code":"10010"},{"id":"nrJtX2BcYW1e1zdokH_aGg","name":"Mottsu","cuisine":"Japanese","address":"285 Mott St","coordinates":{"latitude":40.72427,"longitude":-73.99448},"review_count":130,"rating":3.5,"zip_code":"10012"},{"id":"zuD-iB7hV_dnf_JzBk_DCQ","name":"Juku","cuisine":"Japanese","address":"32 Mulberry St","coordinates":{"latitude":40.71461,"longitude":-73.999528},"review_count":47,"rating":4,"zip_code":"10013"},{"id":"xvFf1wuKPSzl1zUnHy8ZKw","name":"Sushi of Gari Tribeca","cuisine":"Japanese","address":"130 W Broadway","coordinates":{"latitude":40.716780367583,"longitude":-74.0084709183102},"review_count":120,"rating":3.5,"zip_code":"10013"},{"id":"lRaDAnKXieqbGnhqjDVhzg","name":"Kissaten Jin","cuisine":"Japanese","address":"3187 Broadway","coordinates":{"latitude":40.8154714,"longitude":-73.9587782},"review_count":99,"rating":3.5,"zip_code":"10027"},{"id":"p7HH7fLzx_H1y2hkttYxtg","name":"Robongi","cuisine":"Japanese","address":"520 Washington St","coordinates":{"latitude":40.74293,"longitude":-74.02955},"review_count":415,"rating":3.5,"zip_code":"07030"},{"id":"vvQHpQoK8bADWD8rxktKqA","name":"Ramen Takumi","cuisine":"Japanese","address":"517 3rd Ave","coordinates":{"latitude":40.74606,"longitude":-73.97756},"review_count":179,"rating":3,"zip_code":"10016"},{"id":"RoqLH-4rDugHlduthnZggg","name":"Flame","cuisine":"Japanese","address":"381 3rd Ave","coordinates":{"latitude":40.74152,"longitude":-73.98097},"review_count":48,"rating":4,"zip_code":"10016"},{"id":"gZmI19ytIrNEXmPo17zqcw","name":"Nabe Harlem","cuisine":"Japanese","address":"2367 Frederick Douglas Blvd","coordinates":{"latitude":40.8117002607367,"longitude":-73.9504351595245},"review_count":120,"rating":3.5,"zip_code":"10027"},{"id":"gDW2Bmr8NKu46bUXl-Htxg","name":"Totoya Japanese","cuisine":"Japanese","address":"1144 1st Ave","coordinates":{"latitude":40.7618330054498,"longitude":-73.9604074075447},"review_count":92,"rating":3.5,"zip_code":"10065"},{"id":"fqr2YzqzG7q1ZsuP2klxww","name":"LUNA  Asian Bistro & Lounge","cuisine":"Japanese","address":"32-72 Steinway St","coordinates":{"latitude":40.7573,"longitude":-73.92068},"review_count":175,"rating":4,"zip_code":"11103"},{"id":"WOonEFdSaK224ew1c0Oa7w","name":"Tenzan 89","cuisine":"Japanese","address":"1714 2nd Ave","coordinates":{"latitude":40.779579,"longitude":-73.950103},"review_count":138,"rating":3,"zip_code":"10128"},{"id":"0v2rI4CivY0nrQM3_W4VmA","name":"Kondo","cuisine":"Japanese","address":"2913 Broadway","coordinates":{"latitude":40.7626545293336,"longitude":-73.9265084112689},"review_count":140,"rating":4,"zip_code":"11106"},{"id":"KGD7hsGHd3KpiEGOApZLvQ","name":"Mikaku Sushi","cuisine":"Japanese","address":"85 Kenmare St","coordinates":{"latitude":40.72136,"longitude":-73.99675},"review_count":121,"rating":3.5,"zip_code":"10012"},{"id":"QW1czVOqwkNet53Km_BIyQ","name":"Tataki Japanese Restaurant","cuisine":"Japanese","address":"3 Lispenard St","coordinates":{"latitude":40.72067,"longitude":-74.00486},"review_count":142,"rating":3.5,"zip_code":"10013"},{"id":"qP0rfpzlC8gL_7JeipesRg","name":"Sushi-teria","cuisine":"Japanese","address":"15 West 33rd St","coordinates":{"latitude":40.748200942411,"longitude":-73.9856111314031},"review_count":83,"rating":3.5,"zip_code":"10118"},{"id":"q23Br0CDFO6a1qx_7ItFKA","name":"Shokudo","cuisine":"Japanese","address":"658 9th Ave","coordinates":{"latitude":40.7607671353346,"longitude":-73.9905481084213},"review_count":65,"rating":3.5,"zip_code":"10036"},{"id":"D3LtTiVtIPOcUT_bjxztRA","name":"Teppan Bar & Grill","cuisine":"Japanese","address":"319 Warren St","coordinates":{"latitude":40.718919,"longitude":-74.038909},"review_count":470,"rating":4,"zip_code":"07302"},{"id":"7xpbioe88rnW7JjzLEQeRg","name":"Samurai Papa","cuisine":"Japanese","address":"32 Varet St","coordinates":{"latitude":40.702892072912,"longitude":-73.943588398397},"review_count":216,"rating":4.5,"zip_code":"11206"},{"id":"cLxp5gIPWIhmvpmdPo7BsA","name":"969 NYC Coffee","cuisine":"Japanese","address":"37-61 80th St","coordinates":{"latitude":40.74779,"longitude":-73.88553},"review_count":164,"rating":4.5,"zip_code":"11372"},{"id":"ZNBFG-Dp_Th8iM7dRLSrBg","name":"A1 Ocha Sushi","cuisine":"Japanese","address":"350 W 46th St","coordinates":{"latitude":40.76035,"longitude":-73.98986},"review_count":114,"rating":3.5,"zip_code":"10036"},{"id":"enDIsmxSG2bQccQWgGNcbg","name":"Takumen","cuisine":"Japanese","address":"5-50 50th Ave","coordinates":{"latitude":40.74259,"longitude":-73.9546699},"review_count":133,"rating":4,"zip_code":"11101"},{"id":"8y8_xwiaBtCVYA4Jjx-5AQ","name":"Pokébāb","cuisine":"Japanese","address":"209 Bedford Ave","coordinates":{"latitude":40.71683,"longitude":-73.95866},"review_count":84,"rating":4.5,"zip_code":"11211"},{"id":"kwq1W0opBnOYKoUXWYyQ5g","name":"Momokawa","cuisine":"Japanese","address":"1466 1st Ave","coordinates":{"latitude":40.77047,"longitude":-73.9537},"review_count":68,"rating":4,"zip_code":"10075"},{"id":"2JMnv1G2ZTHAldgLhmKnqQ","name":"Shinbashi","cuisine":"Japanese","address":"7 E 48th St","coordinates":{"latitude":40.75723,"longitude":-73.97702},"review_count":81,"rating":3.5,"zip_code":"10017"},{"id":"GzY2EjCmGNgvRd7IE20fTA","name":"Wei West","cuisine":"Japanese","address":"235 Murray St","coordinates":{"latitude":40.7153813008908,"longitude":-74.0140129398852},"review_count":186,"rating":3,"zip_code":"10282"},{"id":"P_RNungaIf6FZdzEWkoQ0g","name":"Sakura of Japan","cuisine":"Japanese","address":"29 John St","coordinates":{"latitude":40.70972,"longitude":-74.00854},"review_count":102,"rating":4,"zip_code":"10038"},{"id":"BCg5O26hQnVX7OOepNLK6w","name":"Blue Ribbon Sushi Bar - Hudson Eats","cuisine":"Japanese","address":"225 Liberty St","coordinates":{"latitude":40.71156,"longitude":-74.01533},"review_count":111,"rating":3.5,"zip_code":"10281"},{"id":"1HBtCnBGBYoq3zaQUxTbmg","name":"Sushi Gama","cuisine":"Japanese","address":"1403 2nd Ave","coordinates":{"latitude":40.76967,"longitude":-73.95796},"review_count":55,"rating":4,"zip_code":"10021"},{"id":"0nYfyel0UwlI1qXHOjTw0w","name":"Musashi Asian Cuisine","cuisine":"Japanese","address":"495 Grand St","coordinates":{"latitude":40.7111358642578,"longitude":-73.9514236450195},"review_count":98,"rating":4.5,"zip_code":"11211"},{"id":"FUBWHzJCakmvBHv1Qk7VSg","name":"Sushi Choshi","cuisine":"Japanese","address":"77 Irving Pl","coordinates":{"latitude":40.7369312,"longitude":-73.9868137},"review_count":137,"rating":3,"zip_code":"10003"},{"id":"-Exv1AEsaKU6Cdb2TO_ZUg","name":"The Lobster Club","cuisine":"Japanese","address":"98 E 53rd St","coordinates":{"latitude":40.758301,"longitude":-73.971868},"review_count":37,"rating":4,"zip_code":"10022"},{"id":"mCorwiRo8rYJO5jGTFPzZQ","name":"Fuji Sushi","cuisine":"Japanese","address":"238 W 56th St","coordinates":{"latitude":40.7656599,"longitude":-73.98273},"review_count":157,"rating":3,"zip_code":"10019"},{"id":"vUZTHdPWqTCkj3g93D6CNQ","name":"Cho-Ko","cuisine":"Japanese","address":"59 1st Ave","coordinates":{"latitude":40.72515,"longitude":-73.98744},"review_count":69,"rating":3.5,"zip_code":"10003"},{"id":"XL6EJm_QKNnxeGiSJXXbUg","name":"Churutto Ramen & Poke","cuisine":"Japanese","address":"1534 3rd Ave","coordinates":{"latitude":40.77916,"longitude":-73.95396},"review_count":53,"rating":4,"zip_code":"10128"},{"id":"SbXJlImRDoMeepmq_f96cw","name":"Go! Go! Curry!","cuisine":"Japanese","address":"144 W 19th St","coordinates":{"latitude":40.74121,"longitude":-73.99665},"review_count":84,"rating":3.5,"zip_code":"10011"},{"id":"Jwa9ibcOtv42oNpqdE7z8A","name":"Ani Ramen House JC","cuisine":"Japanese","address":"218 Newark Ave","coordinates":{"latitude":40.72234,"longitude":-74.04699},"review_count":304,"rating":4,"zip_code":"07302"},{"id":"frrsYSWppFwL10u01SOAVA","name":"Ikinari Steak Chelsea 7th Ave","cuisine":"Japanese","address":"154 7th Ave","coordinates":{"latitude":40.74192,"longitude":-73.99761},"review_count":51,"rating":4,"zip_code":"10011"},{"id":"1TEsPWu212B918MtgiSu3g","name":"Jintan","cuisine":"Japanese","address":"10th St & 1st Ave","coordinates":{"latitude":40.7288289984002,"longitude":-73.9841578558473},"review_count":42,"rating":4,"zip_code":"10009"},{"id":"R9jTfyPlnfk23gy8VCCVAg","name":"Shabushabu Macoron","cuisine":"Japanese","address":"61 Delancey","coordinates":{"latitude":40.71909,"longitude":-73.99086},"review_count":24,"rating":4.5,"zip_code":"10002"},{"id":"Nukulm8uVSjn0zMWk_u4IA","name":"Sushi-Ann Restaurant","cuisine":"Japanese","address":"38 E 51st St","coordinates":{"latitude":40.7580919,"longitude":-73.9745541},"review_count":92,"rating":3.5,"zip_code":"10022"},{"id":"ZlNDeVv6UJ1cGzcSoypVOA","name":"MIMI","cuisine":"Japanese","address":"566 Amsterdam Ave Bet 87 St And 88st","coordinates":{"latitude":40.7886473739556,"longitude":-73.9745790025162},"review_count":57,"rating":4,"zip_code":"10024"},{"id":"Gp3K-AFm3Ap8WG5R0nF7DQ","name":"Mikado","cuisine":"Japanese","address":"525 6th Ave","coordinates":{"latitude":40.73727,"longitude":-73.99723},"review_count":128,"rating":3,"zip_code":"10011"},{"id":"vw8e7QV4XDc_xViMLARqwQ","name":"RESOBOX","cuisine":"Japanese","address":"41-26 27th St","coordinates":{"latitude":40.7511464,"longitude":-73.939074},"review_count":110,"rating":4,"zip_code":"11101"},{"id":"zaYK-LuVRUoUVt6EV-xmPg","name":"Tokyo Record Bar","cuisine":"Japanese","address":"127 Macdougal St","coordinates":{"latitude":40.7305654051364,"longitude":-74.0001550748959},"review_count":48,"rating":4,"zip_code":"10012"},{"id":"pehKHPaU7Zgqf5SQ0MZmLA","name":"Bread & Butter","cuisine":"Japanese","address":"303 5th Ave.","coordinates":{"latitude":40.74661,"longitude":-73.98568},"review_count":170,"rating":3,"zip_code":"10001"},{"id":"BlzlywklvYdek5uk_NCX9g","name":"Suzume","cuisine":"Japanese","address":"545 Lorimer St","coordinates":{"latitude":40.713173,"longitude":-73.949425},"review_count":234,"rating":4,"zip_code":"11211"},{"id":"T2fE7hGS83Ba-QNCOqbK4A","name":"Ako","cuisine":"Japanese","address":"205 Bedford Ave","coordinates":{"latitude":40.7169049,"longitude":-73.9585858},"review_count":257,"rating":4,"zip_code":"11211"},{"id":"gk9TTbVQxBPMRm66xR9l6A","name":"Bar Uni","cuisine":"Japanese","address":"674 Manhattan Ave","coordinates":{"latitude":40.72491,"longitude":-73.95113},"review_count":57,"rating":4.5,"zip_code":"11222"},{"id":"loXvaVYhzOO3xTYzntlVBg","name":"Yuri Sushi","cuisine":"Japanese","address":"374 W 46th St","coordinates":{"latitude":40.7608,"longitude":-73.99059},"review_count":58,"rating":4,"zip_code":"10036"},{"id":"OOZgZGmiKocoYRgUOupEcA","name":"karakatta","cuisine":"Japanese","address":"230 Thompson St","coordinates":{"latitude":40.72933,"longitude":-73.99865},"review_count":48,"rating":4,"zip_code":"10012"},{"id":"FXFQJmhK6elesopXdhjvFQ","name":"Amber","cuisine":"Japanese","address":"103 W 70th St","coordinates":{"latitude":40.7764053344727,"longitude":-73.9798736572266},"review_count":64,"rating":4,"zip_code":"10023"},{"id":"c94UwCKd_S1J_ikT0a6mTA","name":"Kuro-Obi at UrbanSpace Vanderbilt","cuisine":"Japanese","address":"230 Park Ave","coordinates":{"latitude":40.7543721,"longitude":-73.9761826},"review_count":66,"rating":3.5,"zip_code":"10169"},{"id":"K_lIwQWgDgCNLlX94_lEvA","name":"Totto Ramen Next Door","cuisine":"Japanese","address":"366 W 52nd St","coordinates":{"latitude":40.76433,"longitude":-73.98766},"review_count":79,"rating":3.5,"zip_code":"10019"},{"id":"y0iJ2BrB2rrOM-hogOO1mg","name":"Yama Ramen","cuisine":"Japanese","address":"60 W 48th St","coordinates":{"latitude":40.7581,"longitude":-73.9806399},"review_count":85,"rating":3.5,"zip_code":"10036"},{"id":"snJZrvebNxanqMmWPhqndg","name":"Sashimi Express II","cuisine":"Japanese","address":"223 E 74th St","coordinates":{"latitude":40.7708,"longitude":-73.95841},"review_count":23,"rating":5,"zip_code":"10021"},{"id":"mZb4Td9YK8f1jwsg9xU_gg","name":"Matsu","cuisine":"Japanese","address":"483 Columbus Ave","coordinates":{"latitude":40.7845979,"longitude":-73.9732188},"review_count":81,"rating":3.5,"zip_code":"10024"},{"id":"b1QWi39qlZTOzi1TeajSYQ","name":"Silo Cafe","cuisine":"Japanese","address":"31 E 32nd St","coordinates":{"latitude":40.7464141845703,"longitude":-73.9831695556641},"review_count":99,"rating":3,"zip_code":"10016"},{"id":"M2bvOwAbCjLUvMbAF6h3-w","name":"Sapporo Ichiban","cuisine":"Japanese","address":"622 Manhattan Ave","coordinates":{"latitude":40.72365,"longitude":-73.95057},"review_count":199,"rating":4,"zip_code":"11222"},{"id":"h8vOeyK0ubtWS75B1McYxQ","name":"A Canaan","cuisine":"Japanese","address":"154 W 29th St","coordinates":{"latitude":40.74736,"longitude":-73.99231},"review_count":156,"rating":3,"zip_code":"10001"},{"id":"PwrYnl3j3YCGzILX_5UHpw","name":"Davelle","cuisine":"Japanese","address":"102 Suffolk St","coordinates":{"latitude":40.71852,"longitude":-73.98605},"review_count":28,"rating":4.5,"zip_code":"10002"},{"id":"Z7gHAR1j_hjdxoWO7kYgeQ","name":"Okinawa Sushi & Grill","cuisine":"Japanese","address":"400 Newark St","coordinates":{"latitude":40.737606,"longitude":-74.037209},"review_count":242,"rating":4,"zip_code":"07030"},{"id":"qJ66pLOdzT8Y3iuVCHkGRw","name":"Akina Sushi","cuisine":"Japanese","address":"424 E 14th St","coordinates":{"latitude":40.730598,"longitude":-73.981544},"review_count":127,"rating":3,"zip_code":"10009"},{"id":"IsCVV0EmG6NXsV2RIYbZCw","name":"Azuki Japanese Restaurant","cuisine":"Japanese","address":"520 8th Ave","coordinates":{"latitude":40.75365,"longitude":-73.99217},"review_count":143,"rating":3,"zip_code":"10018"},{"id":"4Eziz-iTjfj_pgxTo-StrQ","name":"Bamboo Sushi","cuisine":"Japanese","address":"1280 1st Ave","coordinates":{"latitude":40.7656397370609,"longitude":-73.9573489797623},"review_count":105,"rating":3,"zip_code":"10065"},{"id":"d8qCvlsG3jwxQPZc_OGogQ","name":"Hibino","cuisine":"Japanese","address":"333 Henry St","coordinates":{"latitude":40.69017,"longitude":-73.99637},"review_count":357,"rating":4,"zip_code":"11201"},{"id":"QKFzm9Z6NA6ec1j7M1nd8g","name":"Illuzion","cuisine":"Japanese","address":"337 Washington St","coordinates":{"latitude":40.7411,"longitude":-74.02941},"review_count":337,"rating":3.5,"zip_code":"07030"},{"id":"a5H9p1B6m6WPVjakPylvdA","name":"Spicy Shallot","cuisine":"Japanese","address":"77-01 Woodside Ave","coordinates":{"latitude":40.7437053273707,"longitude":-73.8878916857991},"review_count":491,"rating":3.5,"zip_code":"11373"},{"id":"vLaPRzOr2ChuaMCPRveaAQ","name":"Izumi Sushi","cuisine":"Japanese","address":"139 W 28th St","coordinates":{"latitude":40.7469787597656,"longitude":-73.9921646118164},"review_count":122,"rating":3,"zip_code":"10001"},{"id":"8hxvfFZH4kPp35kH5DhnIw","name":"Kumo Sushi","cuisine":"Japanese","address":"165 W 72nd St","coordinates":{"latitude":40.7785911560059,"longitude":-73.9808349609375},"review_count":131,"rating":3,"zip_code":"10023"},{"id":"j-a8HUcsBJXHV2IfF786jw","name":"Kogane Ramen","cuisine":"Japanese","address":"76 Henry St","coordinates":{"latitude":40.698608,"longitude":-73.992675},"review_count":233,"rating":4,"zip_code":"11201"},{"id":"j5nUzWJQ-gzbzPMZknHzQg","name":"Sushi Ichimasa","cuisine":"Japanese","address":"302 W 50th St","coordinates":{"latitude":40.7623394,"longitude":-73.9866043},"review_count":99,"rating":3,"zip_code":"10019"},{"id":"zJcxZQbTSAP3q4Fy-6WAyw","name":"Shalom Japan","cuisine":"Japanese","address":"310 S 4th St","coordinates":{"latitude":40.7091679,"longitude":-73.9558028},"review_count":217,"rating":4,"zip_code":"11211"},{"id":"PpRcR8PPK3bdLCzAevOosw","name":"Honshu","cuisine":"Japanese","address":"95 Greene St","coordinates":{"latitude":40.7157115638256,"longitude":-74.0359251201153},"review_count":190,"rating":4,"zip_code":"07302"},{"id":"6gcGQJ20q0J-ODZ6srB3Ow","name":"Bai Sushi","cuisine":"Japanese","address":"37-03 Broadway","coordinates":{"latitude":40.7597841,"longitude":-73.9202394},"review_count":176,"rating":4,"zip_code":"11103"},{"id":"MSVftNJ5lwPK9TQtHayaPQ","name":"Suzuki","cuisine":"Japanese","address":"114 W 47th St","coordinates":{"latitude":40.7582797854234,"longitude":-73.9827184029637},"review_count":30,"rating":4,"zip_code":"10036"},{"id":"m1cJLpDN4B-_0hGgPfe5OA","name":"Salt + Charcoal","cuisine":"Japanese","address":"171 Grand St","coordinates":{"latitude":40.71453,"longitude":-73.9613511},"review_count":220,"rating":4,"zip_code":"11249"},{"id":"YQyzlr3GLDjl6fokymAhqA","name":"Pad Thai","cuisine":"Japanese","address":"409 8th Ave","coordinates":{"latitude":40.75008,"longitude":-73.99542},"review_count":152,"rating":3,"zip_code":"10001"},{"id":"FJIa0eSaMIcAMba1hVYV3A","name":"Sushi Star","cuisine":"Japanese","address":"462 9th Ave","coordinates":{"latitude":40.75444,"longitude":-73.99532},"review_count":51,"rating":3.5,"zip_code":"10018"},{"id":"FdCQmAHzhbHuaP5lcsYs6w","name":"Gohan","cuisine":"Japanese","address":"14A Orchard St","coordinates":{"latitude":40.71506,"longitude":-73.9916},"review_count":35,"rating":4.5,"zip_code":"10002"},{"id":"DWUGmKmYQgIOFymkF5bKEw","name":"Black Sushi","cuisine":"Japanese","address":"719 8th Ave","coordinates":{"latitude":40.7593557983637,"longitude":-73.9883098751307},"review_count":38,"rating":3.5,"zip_code":"10036"},{"id":"5w8CYpHKq8oQth42wSpt-g","name":"Ariyoshi","cuisine":"Japanese","address":"4113 Queens Blvd","coordinates":{"latitude":40.7438180001399,"longitude":-73.9229787214569},"review_count":245,"rating":3.5,"zip_code":"11104"},{"id":"aAse88crP7lBNMRJk-oWiA","name":"Ganso Ramen","cuisine":"Japanese","address":"25 Bond St","coordinates":{"latitude":40.6888809204102,"longitude":-73.9832611083984},"review_count":634,"rating":3.5,"zip_code":"11201"},{"id":"1xxx4X6harPvGMcPmS15BA","name":"Miso Ramen","cuisine":"Japanese","address":"189 Newark Ave","coordinates":{"latitude":40.7213095265887,"longitude":-74.0456302242358},"review_count":315,"rating":4,"zip_code":"07302"},{"id":"uMZ7xLqeJy1yIweKWe9eNg","name":"Kyoto Sushi","cuisine":"Japanese","address":"161 Nassau Ave","coordinates":{"latitude":40.7250777468913,"longitude":-73.9470219435913},"review_count":140,"rating":4,"zip_code":"11222"},{"id":"fnj0NiZpdmtUl7PzITgv3A","name":"Komegashi Too","cuisine":"Japanese","address":"99 Town Square Pl","coordinates":{"latitude":40.7265105097,"longitude":-74.0330536074767},"review_count":367,"rating":3.5,"zip_code":"07310"},{"id":"01hs_l54-211UuiJPI83lA","name":"Sakura Japanese Cuisine","cuisine":"Japanese","address":"35-15 Ditmars Blvd","coordinates":{"latitude":40.77469,"longitude":-73.9081999},"review_count":169,"rating":4,"zip_code":"11105"},{"id":"PV5AgWdZuropMe7nbgz2FA","name":"Noodle 32","cuisine":"Japanese","address":"11 W 32nd St","coordinates":{"latitude":40.74761,"longitude":-73.98631},"review_count":54,"rating":3.5,"zip_code":"10001"},{"id":"aQHyp7y5Ux1sI8hC6qEwEA","name":"Yonekichi","cuisine":"Japanese","address":"746 9th Ave","coordinates":{"latitude":40.76358,"longitude":-73.988471},"review_count":40,"rating":4,"zip_code":"10019"},{"id":"wJwbAYEyD_sTJsn_3KL8oQ","name":"Yaya Tea Garden","cuisine":"Japanese","address":"284 3rd Ave","coordinates":{"latitude":40.73844,"longitude":-73.98378},"review_count":32,"rating":4,"zip_code":"10010"},{"id":"3BYgbjo8MtaIyLZMdTxrOQ","name":"Geisha Sushi","cuisine":"Japanese","address":"3468 Broadway","coordinates":{"latitude":40.8241613,"longitude":-73.9519775},"review_count":294,"rating":4,"zip_code":"10031"},{"id":"UqR0FxuZ5VPSYL5N4bbxMw","name":"Taste of Tokyo","cuisine":"Japanese","address":"60 Beaver St","coordinates":{"latitude":40.70512,"longitude":-74.00967},"review_count":124,"rating":3,"zip_code":"10004"},{"id":"bwzSQq0sUEc3Dpzl6K3mvw","name":"Go! Go! Curry!","cuisine":"Japanese","address":"567 W 125th St","coordinates":{"latitude":40.8156108,"longitude":-73.957681},"review_count":48,"rating":3.5,"zip_code":"10027"},{"id":"AiiKkuu7xcrOfLE5-R5Ygg","name":"Vivi Bubble Tea","cuisine":"Japanese","address":"117 Washington St","coordinates":{"latitude":40.73797,"longitude":-74.0305},"review_count":162,"rating":3.5,"zip_code":"07030"},{"id":"NCnOkzbyfzDltnBnJySfzw","name":"Amami Bar and Restaurant","cuisine":"Japanese","address":"57 Nassau Ave","coordinates":{"latitude":40.72355,"longitude":-73.95219},"review_count":105,"rating":4,"zip_code":"11222"},{"id":"D6ZEcG1FCZ18nekMWrhgMg","name":"Wokuni","cuisine":"Japanese","address":"327 Lexington Ave","coordinates":{"latitude":40.7492189,"longitude":-73.9773529},"review_count":36,"rating":4,"zip_code":"10016"},{"id":"bUtl50tG5P4S2fYh_BtZ6w","name":"OKA","cuisine":"Japanese","address":"439 3rd Ave","coordinates":{"latitude":40.7433733,"longitude":-73.9796287},"review_count":32,"rating":4,"zip_code":"10016"},{"id":"U0SmczzYhahOeRxftjBPSg","name":"Chef 28","cuisine":"Japanese","address":"29 E 28th St","coordinates":{"latitude":40.74393,"longitude":-73.98493},"review_count":88,"rating":3,"zip_code":"10016"},{"id":"2018M73mRQExwbzoV6ox7g","name":"Nu Sushi","cuisine":"Japanese","address":"76 Pearl St","coordinates":{"latitude":40.703708,"longitude":-74.010337},"review_count":123,"rating":3,"zip_code":"10004"},{"id":"Z-KV06jQbPovawp9dJD3vA","name":"Fukusuke","cuisine":"Japanese","address":"304 E 49th St","coordinates":{"latitude":40.75394,"longitude":-73.96864},"review_count":28,"rating":4.5,"zip_code":"10017"}]}
