{"businesses":[{"id":"nI1UYDCYUTt23TpGxqnLKg","name":"Buddakan","cuisine":"Chinese","address":"75 9th Ave","coordinates":{"latitude":40.7422762672197,"longitude":-74.0048000961542},"review_count":3386,"rating":4,"zip_code":"10011"},{"id":"0CjK3esfpFcxIopebzjFxA","name":"Joe's Shanghai","cuisine":"Chinese","address":"9 Pell St","coordinates":{"latitude":40.7146691442891,"longitude":-73.9977602206654},"review_count":5068,"rating":4,"zip_code":"10013"},{"id":"IhSVn0TaX8xXb3wcQ-fgcA","name":"Vanessa's Dumpling House","cuisine":"Chinese","address":"118A Eldridge St","coordinates":{"latitude":40.71839,"longitude":-73.9917399},"review_count":2229,"rating":4,"zip_code":"10002"},{"id":"X8ZS-dgiMIJvhwf9SaDnjw","name":"Wah Fung No 1","cuisine":"Chinese","address":"79 Chrystie St","coordinates":{"latitude":40.71735,"longitude":-73.99457},"review_count":945,"rating":4.5,"zip_code":"10002"},{"id":"Gd3_3mxOvj2xYiqysV8rbQ","name":"Xi'an Famous Foods","cuisine":"Chinese","address":"81 St Marks Pl","coordinates":{"latitude":40.72782,"longitude":-73.98551},"review_count":1466,"rating":4,"zip_code":"10003"},{"id":"Lbs8QBRN1U7IYBo5Mcv-RQ","name":"88 Lan Zhou Handmade Noodles & Dumplings","cuisine":"Chinese","address":"40 Bowery St","coordinates":{"latitude":40.7156552,"longitude":-73.9969012},"review_count":1377,"rating":4,"zip_code":"10013"},{"id":"HScFap2SwbUlfC-QXVkxFA","name":"Xi'an Famous Foods","cuisine":"Chinese","address":"24 W 45th St","coordinates":{"latitude":40.75585,"longitude":-73.98078},"review_count":1313,"rating":4,"zip_code":"10036"},{"id":"R26zweQ8-xoZS7iHkXQOvw","name":"Shanghai Asian Manor","cuisine":"Chinese","address":"21 Mott St","coordinates":{"latitude":40.71441,"longitude":-73.99902},"review_count":1295,"rating":4,"zip_code":"10013"},{"id":"M-odQWSEfsR2mVEw7nKG-g","name":"Nyonya","cuisine":"Chinese","address":"199 Grand St","coordinates":{"latitude":40.7190148,"longitude":-73.9968228},"review_count":1777,"rating":4,"zip_code":"10013"},{"id":"x_t-FtDa5HVgc-wecp0HBg","name":"Shanghai Cafe","cuisine":"Chinese","address":"100 Mott St","coordinates":{"latitude":40.71726,"longitude":-73.99721},"review_count":2019,"rating":3.5,"zip_code":"10013"},{"id":"H1jops1lmuhrq9lP7lEGJQ","name":"Flor De Mayo","cuisine":"Chinese","address":"484 Amsterdam Ave","coordinates":{"latitude":40.78609,"longitude":-73.97658},"review_count":1046,"rating":4,"zip_code":"10024"},{"id":"B3i4zs5wquFu1UZyzYJ-bQ","name":"BaoHaus","cuisine":"Chinese","address":"238 E 14th St","coordinates":{"latitude":40.7324690923782,"longitude":-73.9857136011124},"review_count":1755,"rating":3.5,"zip_code":"10003"},{"id":"97q5nUQTuBo_h00XCxna2A","name":"Tasty Hand-Pulled Noodles","cuisine":"Chinese","address":"1 Doyers St","coordinates":{"latitude":40.7142,"longitude":-73.99787},"review_count":1353,"rating":4,"zip_code":"10013"},{"id":"wfhMIiMh2A2psCGONOVSlg","name":"Han Dynasty","cuisine":"Chinese","address":"90 3rd Ave","coordinates":{"latitude":40.732072,"longitude":-73.988074},"review_count":996,"rating":4,"zip_code":"10003"},{"id":"xq0cX_DgxiJMXwhmEl9kUA","name":"Café China","cuisine":"Chinese","address":"13 E 37th St","coordinates":{"latitude":40.7499225208569,"longitude":-73.9819464127197},"review_count":1048,"rating":4,"zip_code":"10016"},{"id":"lynQoI3w_pzYfHGeuUU-Qg","name":"Shu Jiao Fu Zhou Cuisine Restaurant","cuisine":"Chinese","address":"118 Eldridge St","coordinates":{"latitude":40.7184290357839,"longitude":-73.9916928979573},"review_count":483,"rating":4.5,"zip_code":"10002"},{"id":"oe8GEFE4QLFAKt87y7zcgA","name":"Very Fresh Noodles","cuisine":"Chinese","address":"425 W 15th St","coordinates":{"latitude":40.7423387008486,"longitude":-74.0061374945942},"review_count":477,"rating":4,"zip_code":"10011"},{"id":"neQM053ovAOrf1sVSAPI9w","name":"Radiance Tea House and Books","cuisine":"Chinese","address":"158 W 55th St","coordinates":{"latitude":40.7639799,"longitude":-73.98065},"review_count":769,"rating":4,"zip_code":"10019"},{"id":"L37A2JWXfwR_PgKColA8xA","name":"Big Wong","cuisine":"Chinese","address":"67 Mott St","coordinates":{"latitude":40.71624,"longitude":-73.99842},"review_count":1252,"rating":3.5,"zip_code":"10013"},{"id":"LpVbI-E9C-CSp7WhU5h2Iw","name":"Fishmarket Restaurant","cuisine":"Chinese","address":"111 South St","coordinates":{"latitude":40.70717,"longitude":-74.00192},"review_count":422,"rating":4.5,"zip_code":"10038"},{"id":"bVkjBJlAIwKAj9Aw1KVWjA","name":"Dim Sum Palace","cuisine":"Chinese","address":"334 W 46th St","coordinates":{"latitude":40.76015,"longitude":-73.9893699},"review_count":651,"rating":4,"zip_code":"10036"},{"id":"FH978pIP1TLRuPAH-MbWIQ","name":"Jing Fong Restaurant","cuisine":"Chinese","address":"20 Elizabeth St","coordinates":{"latitude":40.7159552385198,"longitude":-73.9971831076206},"review_count":1947,"rating":3.5,"zip_code":"10013"},{"id":"_usWsAYSKKV2q8xw-3ajrA","name":"Nom Wah Tea Parlor","cuisine":"Chinese","address":"13 Doyers St","coordinates":{"latitude":40.714490521829,"longitude":-73.998153857324},"review_count":1558,"rating":3.5,"zip_code":"10013"},{"id":"tguMh2GgOcU9fu6WN3dqpw","name":"Buddha Bodai Kosher Vegetarian Restaurant","cuisine":"Chinese","address":"5 Mott St","coordinates":{"latitude":40.7138543,"longitude":-73.9989484},"review_count":822,"rating":4,"zip_code":"10013"},{"id":"bnDfFdiCcPzhuNWUJORvLQ","name":"Noodle Village","cuisine":"Chinese","address":"13 Mott St","coordinates":{"latitude":40.714167,"longitude":-73.998803},"review_count":779,"rating":4,"zip_code":"10013"},{"id":"d_TC6Om2EBTzHVm_lCgNtg","name":"Great NY Noodle Town","cuisine":"Chinese","address":"28 Bowery","coordinates":{"latitude":40.7150363828814,"longitude":-73.9971172437072},"review_count":1092,"rating":3.5,"zip_code":"10013"},{"id":"Va_mnsEvBghHXvc7uZIWJQ","name":"Spice Symphony","cuisine":"Chinese","address":"182 Lexington Ave","coordinates":{"latitude":40.744722,"longitude":-73.981202},"review_count":477,"rating":4,"zip_code":"10016"},{"id":"rYw5rQbWRX9buZHZbxqWdA","name":"Congee Village","cuisine":"Chinese","address":"100 Allen St","coordinates":{"latitude":40.7187,"longitude":-73.99031},"review_count":1354,"rating":3.5,"zip_code":"10002"},{"id":"zubN8Ve-RyoljRZV4NRxEQ","name":"Wo Hop","cuisine":"Chinese","address":"17 Mott St","coordinates":{"latitude":40.7142239034582,"longitude":-73.9988691693115},"review_count":1140,"rating":3.5,"zip_code":"10013"},{"id":"rEbwps11tIERRkwQrIXQog","name":"Hakkasan","cuisine":"Chinese","address":"311 W 43rd St","coordinates":{"latitude":40.758619,"longitude":-73.989961},"review_count":737,"rating":3.5,"zip_code":"10036"},{"id":"fPW_GBZsnBNsIzK62sCHBg","name":"Xi'an Famous Foods","cuisine":"Chinese","address":"45 Bayard St","coordinates":{"latitude":40.715082,"longitude":-73.997342},"review_count":827,"rating":4,"zip_code":"10013"},{"id":"kwqOmEwWJ0D9PyCdFGE3-g","name":"Xi'an Famous Foods","cuisine":"Chinese","address":"14 E 34th St","coordinates":{"latitude":40.747844,"longitude":-73.983901},"review_count":526,"rating":4,"zip_code":"10016"},{"id":"SNhDVaf_n7VDZcfry8mYdA","name":"The Bao","cuisine":"Chinese","address":"13 St Marks Pl","coordinates":{"latitude":40.72939,"longitude":-73.9889199},"review_count":913,"rating":3.5,"zip_code":"10003"},{"id":"BPErPpKSNluwcjbKRgze3w","name":"Xi'an Famous Foods","cuisine":"Chinese","address":"328 E 78th St","coordinates":{"latitude":40.77197,"longitude":-73.95452},"review_count":388,"rating":4,"zip_code":"10075"},{"id":"R7EGjHWw0tNheY6-ahH8fQ","name":"Tuome","cuisine":"Chinese","address":"536 E 5th St","coordinates":{"latitude":40.72412482724,"longitude":-73.9828906263924},"review_count":327,"rating":4.5,"zip_code":"10009"},{"id":"6zM0c7vvoddgza_qvKkATw","name":"Golden Unicorn","cuisine":"Chinese","address":"18 E Broadway","coordinates":{"latitude":40.7136770496642,"longitude":-73.997163364418},"review_count":1454,"rating":3.5,"zip_code":"10002"},{"id":"0vg2Z-HPwkyVVX613j2ysg","name":"Peng's Noodle Folk","cuisine":"Chinese","address":"1659 1st Ave","coordinates":{"latitude":40.77726,"longitude":-73.94932},"review_count":262,"rating":4.5,"zip_code":"10028"},{"id":"uiQ6p_3biJD5S4PrF58t_g","name":"Szechuan Gourmet","cuisine":"Chinese","address":"21 W 39th St","coordinates":{"latitude":40.75236,"longitude":-73.98355},"review_count":837,"rating":3.5,"zip_code":"10018"},{"id":"SyvC0s3y0ZrtnLbwnvw7tw","name":"Tim Ho Wan","cuisine":"Chinese","address":"85 4th Ave","coordinates":{"latitude":40.731505,"longitude":-73.9899313},"review_count":1101,"rating":3.5,"zip_code":"10003"},{"id":"l44CFBTejwL0ElKmkH7xQQ","name":"Decoy","cuisine":"Chinese","address":"529 Hudson St","coordinates":{"latitude":40.734196,"longitude":-74.006519},"review_count":296,"rating":4,"zip_code":"10014"},{"id":"8ig0yf0003DAp4YOGTlbVg","name":"Spicy Village","cuisine":"Chinese","address":"68 Forsyth St","coordinates":{"latitude":40.71695,"longitude":-73.99327},"review_count":486,"rating":4,"zip_code":"10002"},{"id":"6hacsz7FUwprKTjJb6KFog","name":"Joe's Shanghai","cuisine":"Chinese","address":"24 W 56th St","coordinates":{"latitude":40.7627694517048,"longitude":-73.9759005803566},"review_count":1263,"rating":3.5,"zip_code":"10019"},{"id":"bT4CDzyhV-frXV6ijvXnvw","name":"Super Taste","cuisine":"Chinese","address":"26 Eldridge St","coordinates":{"latitude":40.71511,"longitude":-73.99332},"review_count":456,"rating":4,"zip_code":"10002"},{"id":"XkL6fOBtaIqVCMXVCY9row","name":"H K Wonton Garden","cuisine":"Chinese","address":"79 Mulberry St","coordinates":{"latitude":40.7164688110352,"longitude":-73.9992752075195},"review_count":700,"rating":3.5,"zip_code":"10013"},{"id":"uaFHoq-a5XqxF-bsOK9_Qg","name":"Kung Fu Little Steamed Buns Ramen","cuisine":"Chinese","address":"811 8th Ave","coordinates":{"latitude":40.7616286634162,"longitude":-73.9868181646996},"review_count":764,"rating":3.5,"zip_code":"10019"},{"id":"C7CFAdrczXxNhnN-MNJqmw","name":"Niu Noodle House","cuisine":"Chinese","address":"15 Greenwich Ave","coordinates":{"latitude":40.734352,"longitude":-74.000082},"review_count":583,"rating":4,"zip_code":"10014"},{"id":"EFihj7vsRRXiF5la-UURyw","name":"Hop Kee","cuisine":"Chinese","address":"21 Mott St","coordinates":{"latitude":40.71443,"longitude":-73.99889},"review_count":691,"rating":3.5,"zip_code":"10013"},{"id":"U74_3F7r3tMhd6dmTmDBxQ","name":"Macao","cuisine":"Chinese","address":"311 Church St","coordinates":{"latitude":40.71962,"longitude":-74.00391},"review_count":656,"rating":4,"zip_code":"10013"},{"id":"7ZQSMqWzvXMSetXnii2fBg","name":"Excellent Dumpling House","cuisine":"Chinese","address":"165 W 23rd St","coordinates":{"latitude":40.7440494396358,"longitude":-73.995028194335},"review_count":359,"rating":4,"zip_code":"10011"},{"id":"Kqb7MjTPNkjPMoFRd-rWpw","name":"MáLà Project","cuisine":"Chinese","address":"122 1st Ave","coordinates":{"latitude":40.72713,"longitude":-73.98542},"review_count":388,"rating":4,"zip_code":"10009"},{"id":"kWJF8L1u5jdlkLBItUu16w","name":"Bo Ky Restaurant","cuisine":"Chinese","address":"80 Bayard St","coordinates":{"latitude":40.71579,"longitude":-73.99867},"review_count":631,"rating":3.5,"zip_code":"10013"},{"id":"1MqGlFP3b7H77fzUkJMKgw","name":"Mooncake Foods","cuisine":"Chinese","address":"28 Watts St","coordinates":{"latitude":40.723596182527,"longitude":-74.00409635108},"review_count":481,"rating":4,"zip_code":"10013"},{"id":"0k678lCWQyReNi0lARlOmw","name":"China Blue","cuisine":"Chinese","address":"135 Watts St","coordinates":{"latitude":40.724081417449,"longitude":-74.0098607540131},"review_count":476,"rating":4,"zip_code":"10013"},{"id":"RTFIMX31BPeZzx7kJJ1SCA","name":"RedFarm","cuisine":"Chinese","address":"529 Hudson St","coordinates":{"latitude":40.7342,"longitude":-74.00652},"review_count":576,"rating":3.5,"zip_code":"10014"},{"id":"ynB8T3htx8s5V0YV8gVPGA","name":"21 Shanghai House","cuisine":"Chinese","address":"21 Division St","coordinates":{"latitude":40.7140138244835,"longitude":-73.9964454932541},"review_count":359,"rating":4,"zip_code":"10002"},{"id":"ZUBqQZwMGZSOVbfpOI_uyg","name":"Vanessa's Dumpling","cuisine":"Chinese","address":"220 E 14th St","coordinates":{"latitude":40.73277,"longitude":-73.98636},"review_count":956,"rating":3.5,"zip_code":"10003"},{"id":"B87c3bE_u53yNYO1cmHSIw","name":"Flor de Mayo","cuisine":"Chinese","address":"2651 Broadway","coordinates":{"latitude":40.797832,"longitude":-73.969948},"review_count":466,"rating":4,"zip_code":"10025"},{"id":"tsHdT1GDibhYYA0JA7Z9tg","name":"Xi'an Famous Foods","cuisine":"Chinese","address":"37 W 54th St","coordinates":{"latitude":40.7620964050293,"longitude":-73.9773178100586},"review_count":269,"rating":4,"zip_code":"10019"},{"id":"ojbH3wnRu050hRhkmoxRiA","name":"Han Dynasty","cuisine":"Chinese","address":"215 W 85th St","coordinates":{"latitude":40.78752,"longitude":-73.97647},"review_count":409,"rating":4,"zip_code":"10024"},{"id":"UiBQ8Uyu4wfOtEM1Rr8ycA","name":"Shanghai Asian Cuisine","cuisine":"Chinese","address":"14A Elizabeth St","coordinates":{"latitude":40.7159077,"longitude":-73.997383},"review_count":404,"rating":4,"zip_code":"10013"},{"id":"84zvcPTAVCsSVtzCUtSDtA","name":"Cha Chan Tang","cuisine":"Chinese","address":"45 Mott St","coordinates":{"latitude":40.7153,"longitude":-73.99896},"review_count":875,"rating":3.5,"zip_code":"10013"},{"id":"91rrB0aH3caC70oCkxAynA","name":"Deluxe Green Bo Restaurant","cuisine":"Chinese","address":"66 Bayard St","coordinates":{"latitude":40.715540215765,"longitude":-73.9981645926656},"review_count":550,"rating":3.5,"zip_code":"10013"},{"id":"yFub1BhKEP-W-_ZM3_nJoQ","name":"Bodhi Kosher Vegetarian Restaurant","cuisine":"Chinese","address":"77 Mulberry St","coordinates":{"latitude":40.71641,"longitude":-73.99931},"review_count":243,"rating":4,"zip_code":"10013"},{"id":"spJTHaNjEzKwoEiYWR1ggA","name":"Ping's Seafood","cuisine":"Chinese","address":"22 Mott St","coordinates":{"latitude":40.714442,"longitude":-73.998636},"review_count":573,"rating":3.5,"zip_code":"10013"},{"id":"Y1s36Tk63HIzAc76X_fAiQ","name":"Hop Shing Restaurant","cuisine":"Chinese","address":"9 Chatham Sq","coordinates":{"latitude":40.71395,"longitude":-73.99802},"review_count":455,"rating":3.5,"zip_code":"10038"},{"id":"2eR8ftw-GiTEwg3Y7Rm-MA","name":"Mimi Cheng's Dumplings","cuisine":"Chinese","address":"179 2nd Ave","coordinates":{"latitude":40.7305254,"longitude":-73.986285},"review_count":526,"rating":3.5,"zip_code":"10003"},{"id":"ovOupYdkZOWUeDMOdt--ng","name":"China North Dumpling","cuisine":"Chinese","address":"27 Essex St","coordinates":{"latitude":40.715827,"longitude":-73.989845},"review_count":261,"rating":4,"zip_code":"10002"},{"id":"9v-JAffC6qw8Xp67BICByQ","name":"Hot Kitchen","cuisine":"Chinese","address":"104 2nd Ave","coordinates":{"latitude":40.72741,"longitude":-73.9881599},"review_count":389,"rating":3.5,"zip_code":"10003"},{"id":"B98cXrMI16HslKLqg6Nb9A","name":"Oriental Garden Restaurant","cuisine":"Chinese","address":"14 Elizabeth St","coordinates":{"latitude":40.7159199,"longitude":-73.9972499},"review_count":445,"rating":3.5,"zip_code":"10013"},{"id":"vgG8hgJbPLKfx-n9TYqCDw","name":"Ling Kee Beef Jerky","cuisine":"Chinese","address":"42 Canal St","coordinates":{"latitude":40.71466,"longitude":-73.99148},"review_count":139,"rating":4.5,"zip_code":"10002"},{"id":"6tASYtO9zOrXr8-LPnAToQ","name":"Zest Szechuan","cuisine":"Chinese","address":"45 W 39th St","coordinates":{"latitude":40.75274,"longitude":-73.98445},"review_count":327,"rating":4,"zip_code":"10018"},{"id":"bcqTacyE-0XDaZYG_xbTBQ","name":"The Tang","cuisine":"Chinese","address":"120 1st Ave","coordinates":{"latitude":40.72703,"longitude":-73.98539},"review_count":231,"rating":4,"zip_code":"10009"},{"id":"cn3JXMq29UfRkFCUD0Bhbw","name":"Fried Dumpling","cuisine":"Chinese","address":"106 Mosco St","coordinates":{"latitude":40.7145984,"longitude":-73.9993465},"review_count":442,"rating":3.5,"zip_code":"10013"},{"id":"B7bxdtvLYR7Nmex4AIFd4w","name":"RedFarm","cuisine":"Chinese","address":"2170 Broadway","coordinates":{"latitude":40.782051,"longitude":-73.980415},"review_count":506,"rating":3.5,"zip_code":"10024"},{"id":"SVJNB9LqI13jtVyKMZVqeg","name":"Uncle Ted's Modern Chinese Cuisine","cuisine":"Chinese","address":"163 Bleecker St","coordinates":{"latitude":40.72882,"longitude":-73.999961},"review_count":375,"rating":3.5,"zip_code":"10012"},{"id":"Vzx-7-jSEBz2g8NuGVhHvQ","name":"Philippe By Philippe Chow","cuisine":"Chinese","address":"33 E 60th St","coordinates":{"latitude":40.76409,"longitude":-73.97039},"review_count":550,"rating":3.5,"zip_code":"10065"},{"id":"6LfskUyZzmcDSV6h5kOwGw","name":"Peking Duck House","cuisine":"Chinese","address":"28 Mott St","coordinates":{"latitude":40.71464,"longitude":-73.99856},"review_count":714,"rating":3.5,"zip_code":"10013"},{"id":"pBNMZp_tKCAfRNx7-ybcHQ","name":"Calle Dao - Chelsea","cuisine":"Chinese","address":"461 W 23rd St","coordinates":{"latitude":40.7476515,"longitude":-74.0037312},"review_count":198,"rating":4.5,"zip_code":"10011"},{"id":"9-vKFnUby_6-pR6UJxjzMw","name":"Sun Hing Lung Co","cuisine":"Chinese","address":"58 Henry St","coordinates":{"latitude":40.71275,"longitude":-73.99508},"review_count":124,"rating":4.5,"zip_code":"10002"},{"id":"1Duix1fA6zcJGdYAmBPkmw","name":"Dumpling Man","cuisine":"Chinese","address":"100 Saint Marks Pl","coordinates":{"latitude":40.72713,"longitude":-73.98476},"review_count":743,"rating":3.5,"zip_code":"10009"},{"id":"RkcQl4uEJWblWf4xX8ssqQ","name":"Wa Jeal Sichuan Chili House","cuisine":"Chinese","address":"1588 2nd Ave","coordinates":{"latitude":40.77536,"longitude":-73.95317},"review_count":365,"rating":3.5,"zip_code":"10028"},{"id":"lRSiXYB09Z5x1iINqQ7rHA","name":"Dim Sum Go Go","cuisine":"Chinese","address":"5 E Broadway","coordinates":{"latitude":40.7132415735622,"longitude":-73.9977319419107},"review_count":675,"rating":3.5,"zip_code":"10038"},{"id":"kNOr6_g6QfBHdhf89j3g5w","name":"Taiwan Pork Chop House","cuisine":"Chinese","address":"3 Doyers St","coordinates":{"latitude":40.7142303,"longitude":-73.9979609},"review_count":292,"rating":4,"zip_code":"10013"},{"id":"dDXtga5Kgo5B1twdezcZJA","name":"Auntie Guan's Kitchen 108","cuisine":"Chinese","address":"108 W 14th St","coordinates":{"latitude":40.7377213477598,"longitude":-73.9974148512518},"review_count":271,"rating":4,"zip_code":"10011"},{"id":"XiIBASyS65DX3E_staW0JQ","name":"Xi'an Famous Foods","cuisine":"Chinese","address":"2675 Broadway","coordinates":{"latitude":40.79847,"longitude":-73.96934},"review_count":303,"rating":4,"zip_code":"10025"},{"id":"rGmGim1ZDCxnF8n4NiKrYQ","name":"Vegetarian Dim Sum House","cuisine":"Chinese","address":"24 Pell St","coordinates":{"latitude":40.71526,"longitude":-73.998206},"review_count":499,"rating":3.5,"zip_code":"10013"},{"id":"Te2iLepC0UrJRzVKexFukQ","name":"Red Egg","cuisine":"Chinese","address":"202 Centre St","coordinates":{"latitude":40.7188628921887,"longitude":-73.9990730951065},"review_count":704,"rating":3.5,"zip_code":"10013"},{"id":"3Rah-cvFk79duFQ83voQ5A","name":"99 Favor Taste - St. Marks","cuisine":"Chinese","address":"37 St Marks Pl","coordinates":{"latitude":40.728833,"longitude":-73.988094},"review_count":212,"rating":4,"zip_code":"10003"},{"id":"WRPJeH3goSpj5ke3Pkrnfw","name":"Burp Bowl Cafe","cuisine":"Chinese","address":"134 E 27th St","coordinates":{"latitude":40.74183,"longitude":-73.98271},"review_count":143,"rating":4,"zip_code":"10010"},{"id":"lKxmH-hQ6ezKbq4URKrd-Q","name":"May Wah Fast Food","cuisine":"Chinese","address":"190 Hester St","coordinates":{"latitude":40.71825,"longitude":-73.99842},"review_count":273,"rating":4,"zip_code":"10013"},{"id":"XfHgiIsoo1Pr_v04bx9ptg","name":"Sushumai Asian Fusion","cuisine":"Chinese","address":"112 Stanton St","coordinates":{"latitude":40.7211610690848,"longitude":-73.9872866123915},"review_count":73,"rating":4.5,"zip_code":"10002"},{"id":"qGgQMVExGERqGhZNDM2ROg","name":"Wu Liang Ye","cuisine":"Chinese","address":"36 W 48th St","coordinates":{"latitude":40.75781,"longitude":-73.97994},"review_count":448,"rating":3.5,"zip_code":"10036"},{"id":"wDRgZ1i7xcJ51xgtfO-fxQ","name":"Asura Asian Bistro","cuisine":"Chinese","address":"235 W 35th St","coordinates":{"latitude":40.7522492,"longitude":-73.991222},"review_count":269,"rating":3.5,"zip_code":"10001"},{"id":"A-ert0jDRBfku9ogyW_mEg","name":"Spice Symphony","cuisine":"Chinese","address":"150 E 50th St","coordinates":{"latitude":40.7558937072754,"longitude":-73.9715347290039},"review_count":172,"rating":4.5,"zip_code":"10022"},{"id":"FXhSEZfIqjMZh4hR0_8jMQ","name":"China Xiang","cuisine":"Chinese","address":"360 W 42nd Street","coordinates":{"latitude":40.7582902125633,"longitude":-73.9925113993899},"review_count":293,"rating":4,"zip_code":"10036"},{"id":"dpCSDy9uefOEcY44FHss2Q","name":"Hyo Dong Gak","cuisine":"Chinese","address":"51 W 35th St","coordinates":{"latitude":40.750167,"longitude":-73.986186},"review_count":357,"rating":3.5,"zip_code":"10001"},{"id":"53y6b_-YaptXhlm2-STzeA","name":"XO Kitchen","cuisine":"Chinese","address":"148 Hester St","coordinates":{"latitude":40.717449983677,"longitude":-73.9960411841547},"review_count":451,"rating":3.5,"zip_code":"10013"},{"id":"pepM7-yv4-jCT6S1nl6fPg","name":"Asian Spicy Curry Pop-up","cuisine":"Chinese","address":"46 Mulberry St","coordinates":{"latitude":40.715031,"longitude":-73.99931},"review_count":114,"rating":4.5,"zip_code":"10013"},{"id":"scTDvJ2M2jDbb1ntVeIyxA","name":"Hao Noodle and Tea By Madam Zhu's Kitchen","cuisine":"Chinese","address":"401 6th Ave","coordinates":{"latitude":40.7334863190479,"longitude":-73.9998929006093},"review_count":350,"rating":3.5,"zip_code":"10014"},{"id":"WzdVUuFIv1JzLPTZRnTjVA","name":"Carma East","cuisine":"Chinese","address":"507 E 6th St","coordinates":{"latitude":40.7254099,"longitude":-73.98327},"review_count":175,"rating":4,"zip_code":"10009"},{"id":"lpLd3AFaMOV7LfPtvUiq8A","name":"Mission Chinese","cuisine":"Chinese","address":"171 E Broadway","coordinates":{"latitude":40.71386,"longitude":-73.98966},"review_count":624,"rating":3,"zip_code":"10002"},{"id":"Cd11Q5nxqthvg5xQx2SW2g","name":"Tasty Dumpling","cuisine":"Chinese","address":"42 Mulberry St","coordinates":{"latitude":40.7149408310765,"longitude":-73.9995409548283},"review_count":413,"rating":3.5,"zip_code":"10013"},{"id":"ePVlFbTzdVQFWie__kdplg","name":"Main Noodle House","cuisine":"Chinese","address":"1011 6th Ave","coordinates":{"latitude":40.752143,"longitude":-73.986396},"review_count":341,"rating":3.5,"zip_code":"10018"},{"id":"1dFOF1HPaThSCsdiqR7DrA","name":"Land of Plenty","cuisine":"Chinese","address":"204E 58th St","coordinates":{"latitude":40.76063,"longitude":-73.96664},"review_count":267,"rating":3.5,"zip_code":"10022"},{"id":"mOP2_wjgUMqELKDL1Y-U-A","name":"Sammy's Noodle Shop & Grill","cuisine":"Chinese","address":"453 Ave Of The Americas","coordinates":{"latitude":40.73516,"longitude":-73.99875},"review_count":402,"rating":3.5,"zip_code":"10011"},{"id":"za9mYaRVWkwKkQfjRgvU0g","name":"Taiwan Bear House","cuisine":"Chinese","address":"11 Pell St","coordinates":{"latitude":40.7147185237041,"longitude":-73.9977966218067},"review_count":243,"rating":4,"zip_code":"10013"},{"id":"wDuf4Qz9qsC62amLZgWNJQ","name":"Little Alley","cuisine":"Chinese","address":"550 3rd Ave","coordinates":{"latitude":40.74744,"longitude":-73.97728},"review_count":149,"rating":4,"zip_code":"10016"},{"id":"lQ8Fzgji9qmgRXkFcvAsVQ","name":"Chong Qing Xiao Mian","cuisine":"Chinese","address":"796 9th Ave","coordinates":{"latitude":40.76507,"longitude":-73.98739},"review_count":180,"rating":4,"zip_code":"10019"},{"id":"6dVXDdgzDEVt4DvHzpWo9w","name":"Tang Pavilion","cuisine":"Chinese","address":"65 W 55th St","coordinates":{"latitude":40.762849,"longitude":-73.977189},"review_count":274,"rating":3.5,"zip_code":"10019"},{"id":"xK8VkEUjAdfrtUBHhvs4Ww","name":"456 Shanghai Cuisine","cuisine":"Chinese","address":"69 Mott St","coordinates":{"latitude":40.71627,"longitude":-73.99822},"review_count":474,"rating":3.5,"zip_code":"10013"},{"id":"l1nX-f46dmOEmYPoiuLSaw","name":"Peking Duck House","cuisine":"Chinese","address":"236 E 53rd St","coordinates":{"latitude":40.756912,"longitude":-73.968109},"review_count":348,"rating":3.5,"zip_code":"10022"},{"id":"fBST87mwCyiYUSEADXOdSA","name":"Hot Pot Village","cuisine":"Chinese","address":"207 Bowery","coordinates":{"latitude":40.721233234462,"longitude":-73.9932756498456},"review_count":339,"rating":3.5,"zip_code":"10002"},{"id":"WIj12zDqIbBucW1hXYhrew","name":"King's Kitchen","cuisine":"Chinese","address":"92 E Broadway","coordinates":{"latitude":40.713985,"longitude":-73.993675},"review_count":163,"rating":4,"zip_code":"10002"},{"id":"x64xHVZoQj1ZOjzPqVprkw","name":"Little Tong Noodle Shop","cuisine":"Chinese","address":"177 1st Ave","coordinates":{"latitude":40.72939,"longitude":-73.98434},"review_count":180,"rating":4,"zip_code":"10003"},{"id":"6OWMji5GiqRlRPZSb1lJ4A","name":"Fay Da Bakery","cuisine":"Chinese","address":"321 W 6th Ave","coordinates":{"latitude":40.73115,"longitude":-74.00176},"review_count":186,"rating":4,"zip_code":"10012"},{"id":"eMmcNV51xPKNGMCqBccPvw","name":"Sing Kee Seafood Restaurant","cuisine":"Chinese","address":"42 Bowery St","coordinates":{"latitude":40.71555,"longitude":-73.99672},"review_count":167,"rating":4,"zip_code":"10013"},{"id":"mxjv5RgkTr5qw3wjr2fXmA","name":"Xi'an Famous Foods","cuisine":"Chinese","address":"68 Kenmare St","coordinates":{"latitude":40.7209700345993,"longitude":-73.9961278438568},"review_count":134,"rating":4,"zip_code":"10012"},{"id":"JaKLZrh1Y_2qB_0Gc3bk3A","name":"Ollie's Sichuan","cuisine":"Chinese","address":"411 W 42nd St","coordinates":{"latitude":40.75884,"longitude":-73.99319},"review_count":411,"rating":3,"zip_code":"10036"},{"id":"xCHApgtkLpEyh0lz-uhZvg","name":"Szechuan Garden","cuisine":"Chinese","address":"239 W 105th St","coordinates":{"latitude":40.8003719688892,"longitude":-73.9676491308602},"review_count":190,"rating":4,"zip_code":"10025"},{"id":"dVAI5zh29psdbHp9wGXwVQ","name":"M Star Cafe","cuisine":"Chinese","address":"19 Division St","coordinates":{"latitude":40.713928,"longitude":-73.99652},"review_count":236,"rating":3.5,"zip_code":"10002"},{"id":"wurhcLKXD4YJ5XfTxpbE5Q","name":"Grand Sichuan","cuisine":"Chinese","address":"229 9th Ave","coordinates":{"latitude":40.747413,"longitude":-74.001052},"review_count":389,"rating":3.5,"zip_code":"10001"},{"id":"OvdCm3j_5HzItolfvwrEUA","name":"Lilli & Loo","cuisine":"Chinese","address":"792 Lexington Ave","coordinates":{"latitude":40.763858,"longitude":-73.967269},"review_count":337,"rating":3.5,"zip_code":"10065"},{"id":"Lp8vAE5nHSt5zbu-lSGK8A","name":"Hop Lee Restaurant","cuisine":"Chinese","address":"16 Mott St","coordinates":{"latitude":40.71426,"longitude":-73.99849},"review_count":235,"rating":4,"zip_code":"10013"},{"id":"sfsjk1h50ooC2ioY7m48gw","name":"Pig Heaven","cuisine":"Chinese","address":"1420 3rd Ave","coordinates":{"latitude":40.77544,"longitude":-73.95686},"review_count":207,"rating":4,"zip_code":"10028"},{"id":"Qn-qGoIkj-9uApdxb_VTeA","name":"La Vie en Szechuan","cuisine":"Chinese","address":"14 E 33rd St","coordinates":{"latitude":40.7473584983999,"longitude":-73.9843980932541},"review_count":385,"rating":3.5,"zip_code":"10016"},{"id":"g_5V15Xp1OvB1QXuGMstYA","name":"Chef Yu","cuisine":"Chinese","address":"520 8th Ave","coordinates":{"latitude":40.75365,"longitude":-73.99217},"review_count":482,"rating":3,"zip_code":"10018"},{"id":"-xck-yYOqrSl8rGKCVsdGw","name":"Tung Woo Co","cuisine":"Chinese","address":"230 Grand St","coordinates":{"latitude":40.71865,"longitude":-73.99499},"review_count":121,"rating":4,"zip_code":"10013"},{"id":"duofsxNkSFWVre6eV1uhUQ","name":"Little Sheep Mongolian Hot Pot","cuisine":"Chinese","address":"105 Bowery","coordinates":{"latitude":40.71759,"longitude":-73.99489},"review_count":172,"rating":4,"zip_code":"10002"},{"id":"_Ge2eC89Z-jlaDDWglfT8g","name":"Pa Pa Thai Cuisine","cuisine":"Chinese","address":"1069 1st Ave","coordinates":{"latitude":40.7593778206059,"longitude":-73.9624154842934},"review_count":92,"rating":4.5,"zip_code":"10022"},{"id":"MdDj13LgIs0WdbIdiyqB7Q","name":"Pinch Chinese","cuisine":"Chinese","address":"177 Prince St","coordinates":{"latitude":40.72645,"longitude":-74.0018},"review_count":168,"rating":4,"zip_code":"10012"},{"id":"agCuWjaUJ8xBO_PDDQRiGw","name":"S Wan Cafe","cuisine":"Chinese","address":"85 Eldridge St Lower E","coordinates":{"latitude":40.71729,"longitude":-73.99269},"review_count":89,"rating":4,"zip_code":"10002"},{"id":"bGOZTD9O00OkVA1Pkt3OuQ","name":"A A Jing","cuisine":"Chinese","address":"689 9th Ave","coordinates":{"latitude":40.762,"longitude":-73.99041},"review_count":261,"rating":3.5,"zip_code":"10036"},{"id":"oowNI_aUmGEFa_VW8BFgRg","name":"Tri Dim Shanghai","cuisine":"Chinese","address":"1378 3rd Ave","coordinates":{"latitude":40.77395,"longitude":-73.95793},"review_count":151,"rating":4,"zip_code":"10075"},{"id":"hh0W5CPtx2MoyQGb1kAEEA","name":"Chop Shop II","cuisine":"Chinese","address":"41 W 24th St","coordinates":{"latitude":40.7433280944824,"longitude":-73.9911651611328},"review_count":172,"rating":4,"zip_code":"10010"},{"id":"v2dtG37r1ThqtfEfiFsAUg","name":"Shanghai Mong","cuisine":"Chinese","address":"30 W 32nd St","coordinates":{"latitude":40.7476119995117,"longitude":-73.9871597290039},"review_count":429,"rating":3,"zip_code":"10001"},{"id":"n1elkLPlnQX_PArLvuVVIg","name":"Shanghai Heping Restaurant","cuisine":"Chinese","address":"104 Mott St","coordinates":{"latitude":40.7174181193113,"longitude":-73.997328132391},"review_count":308,"rating":3.5,"zip_code":"10013"},{"id":"RoXFN-T1s6moM5smbY_5Gw","name":"Mee Noodle Shop","cuisine":"Chinese","address":"795 9th Ave","coordinates":{"latitude":40.7653751,"longitude":-73.9879042},"review_count":443,"rating":3,"zip_code":"10019"},{"id":"7hyQqnnAisSL-nfIWCPziQ","name":"Chop Shop","cuisine":"Chinese","address":"254 10th Ave","coordinates":{"latitude":40.7486687,"longitude":-74.0031128},"review_count":206,"rating":3.5,"zip_code":"10001"},{"id":"AgTj_2PYIKP519hexQCvCg","name":"Mapo Tofu","cuisine":"Chinese","address":"338 Lexington Ave","coordinates":{"latitude":40.749832,"longitude":-73.977531},"review_count":284,"rating":3.5,"zip_code":"10016"},{"id":"0dDCDQz7DrKkSvu9h2hcQw","name":"Chow House","cuisine":"Chinese","address":"181 Bleecker St","coordinates":{"latitude":40.72915,"longitude":-74.00072},"review_count":67,"rating":4.5,"zip_code":"10012"},{"id":"jc7lVTvmYMIK5RNpENtS6w","name":"Szechuan Mountain House","cuisine":"Chinese","address":"23 St Marks Pl","coordinates":{"latitude":40.72911,"longitude":-73.98858},"review_count":97,"rating":4,"zip_code":"10003"},{"id":"mDajKjZjRN4tVGEJFOgF9w","name":"Wok 88","cuisine":"Chinese","address":"1570 3rd Ave","coordinates":{"latitude":40.78042,"longitude":-73.95322},"review_count":218,"rating":3.5,"zip_code":"10128"},{"id":"5YBYGnZtTGJABXC4Jahhzg","name":"Jasmine Restaurant","cuisine":"Chinese","address":"216 E 49th St","coordinates":{"latitude":40.75467,"longitude":-73.97057},"review_count":157,"rating":4,"zip_code":"10017"},{"id":"si4n0EtvAl3QisVHoKPOuw","name":"Wonton Noodle Garden","cuisine":"Chinese","address":"56 Mott St","coordinates":{"latitude":40.7157921,"longitude":-73.998189},"review_count":334,"rating":3.5,"zip_code":"10013"},{"id":"38KDbZ8yuozUbswBr6OWVA","name":"Ho Yip Restaurant","cuisine":"Chinese","address":"110 Liberty St","coordinates":{"latitude":40.7097946107388,"longitude":-74.0120045095682},"review_count":235,"rating":3.5,"zip_code":"10006"},{"id":"kyJ0CtJ2Lrid_YdZWobf7w","name":"La Caridad 78","cuisine":"Chinese","address":"2197 Broadway","coordinates":{"latitude":40.7832592,"longitude":-73.9807337},"review_count":199,"rating":3.5,"zip_code":"10024"},{"id":"c1HgKFOT4Cc7TqWQD5mQBQ","name":"Cheong Fun Cart","cuisine":"Chinese","address":"159 Hester St.","coordinates":{"latitude":40.7176279773311,"longitude":-73.9963736857056},"review_count":44,"rating":4.5,"zip_code":"10013"},{"id":"eVDV1ALwvre01Xo8v6BCoQ","name":"La Salle Dumpling Room","cuisine":"Chinese","address":"35 W End Ave","coordinates":{"latitude":40.7731596,"longitude":-73.98951},"review_count":88,"rating":4,"zip_code":"10023"},{"id":"-lgNzAEyFr8LCTuBTWnAMg","name":"Dim Sum Palace","cuisine":"Chinese","address":"47 W 55th St","coordinates":{"latitude":40.76259,"longitude":-73.97681},"review_count":126,"rating":4,"zip_code":"10019"},{"id":"HjUwZOlok1TabhS4S1ya2w","name":"Just for Fen","cuisine":"Chinese","address":"229 1st Ave","coordinates":{"latitude":40.7311641211205,"longitude":-73.9830346405506},"review_count":76,"rating":4.5,"zip_code":"10003"},{"id":"YdAtCf_13UK-uvXuOMrhNg","name":"Radiance","cuisine":"Chinese","address":"208 E 50th St","coordinates":{"latitude":40.7555779423723,"longitude":-73.9703503944427},"review_count":139,"rating":4,"zip_code":"10022"},{"id":"Tb4aUIIy74xG9wLDEwpxdw","name":"Dumpling Kingdom","cuisine":"Chinese","address":"227 Sullivan St","coordinates":{"latitude":40.7296503,"longitude":-73.9995577},"review_count":173,"rating":3.5,"zip_code":"10012"},{"id":"IqbHVeqgewmbeSMXBhbqSw","name":"Hunan Manor","cuisine":"Chinese","address":"339 Lexington Ave","coordinates":{"latitude":40.74965,"longitude":-73.97707},"review_count":214,"rating":3.5,"zip_code":"10016"},{"id":"PQ2ZlhuTlJpvMUgvsAwtmQ","name":"Dong Chun Hong","cuisine":"Chinese","address":"312 5th Ave","coordinates":{"latitude":40.7470559,"longitude":-73.985959},"review_count":253,"rating":3.5,"zip_code":"10001"},{"id":"_WXa2M3gz2Mi0ys3s88nDw","name":"La Salle Dumpling Room","cuisine":"Chinese","address":"3141 Broadway","coordinates":{"latitude":40.81403,"longitude":-73.95983},"review_count":148,"rating":4,"zip_code":"10027"},{"id":"H89jrU17lNnguPaHbmzhAw","name":"Amazing 66","cuisine":"Chinese","address":"66 Mott St","coordinates":{"latitude":40.716099,"longitude":-73.997955},"review_count":252,"rating":3.5,"zip_code":"10013"},{"id":"gxvwxZWWSKNFMsVr10YAQg","name":"Drunken Dumpling","cuisine":"Chinese","address":"137 1st Ave","coordinates":{"latitude":40.7279305523596,"longitude":-73.9851133525372},"review_count":265,"rating":3.5,"zip_code":"10003"},{"id":"LwEzFDBX-nUHYHgAddfaxA","name":"Szechuan Gourmet 56","cuisine":"Chinese","address":"242 W 56th St","coordinates":{"latitude":40.765717,"longitude":-73.9828671},"review_count":319,"rating":3,"zip_code":"10019"},{"id":"yzAJOjAV7BnLZpbISHZfWg","name":"Joe's Ginger","cuisine":"Chinese","address":"25 Pell St","coordinates":{"latitude":40.714782,"longitude":-73.998374},"review_count":456,"rating":3,"zip_code":"10013"},{"id":"aije_BqBVVl-6T13QsnRqQ","name":"August Gatherings","cuisine":"Chinese","address":"266 Canal St","coordinates":{"latitude":40.7186556,"longitude":-74.0011004},"review_count":157,"rating":3.5,"zip_code":"10013"},{"id":"8UlRXXPaSI383aiOiJQi5A","name":"Famous Sichuan","cuisine":"Chinese","address":"10 Pell St","coordinates":{"latitude":40.71487,"longitude":-73.99758},"review_count":306,"rating":3.5,"zip_code":"10013"},{"id":"5RjZCsXuWPclyrDsnsXw7w","name":"Xi'an Famous Foods","cuisine":"Chinese","address":"38 E 23rd St","coordinates":{"latitude":40.74033,"longitude":-73.98744},"review_count":100,"rating":4,"zip_code":"10010"},{"id":"Nt3Y26a6OMtdBe8xMMJjqQ","name":"Mee Noodle Shop & Grill","cuisine":"Chinese","address":"922 2nd Ave","coordinates":{"latitude":40.7540692621136,"longitude":-73.9688620062703},"review_count":255,"rating":3.5,"zip_code":"10022"},{"id":"R3UNnA8EbjhNWBHS0wJ0VA","name":"Grand Sichuan Eastern","cuisine":"Chinese","address":"1049 2nd Ave","coordinates":{"latitude":40.75831,"longitude":-73.96636},"review_count":220,"rating":3.5,"zip_code":"10022"},{"id":"Jn7Wtek5_R12TKp2VUJuhw","name":"Shorty Tang Noodle Shop","cuisine":"Chinese","address":"98 8th Ave","coordinates":{"latitude":40.74019,"longitude":-74.00187},"review_count":137,"rating":3.5,"zip_code":"10011"},{"id":"PGeL1b4xNJggpZsHEGoxjg","name":"Mr Chow","cuisine":"Chinese","address":"121 Hudson St","coordinates":{"latitude":40.7201045,"longitude":-74.0087721},"review_count":324,"rating":3,"zip_code":"10013"},{"id":"UtrW_dBuT5aqxSzx0FUICQ","name":"Lili's 57","cuisine":"Chinese","address":"200 W 57th St","coordinates":{"latitude":40.76554,"longitude":-73.98046},"review_count":240,"rating":3.5,"zip_code":"10019"},{"id":"DKGUSLiqNchBNatKoPM9QQ","name":"Junzi Kitchen","cuisine":"Chinese","address":"2896 Broadway","coordinates":{"latitude":40.8057641877461,"longitude":-73.9652019005902},"review_count":90,"rating":4,"zip_code":"10025"},{"id":"lgS9lE0Y9FhzT68zCj5QCw","name":"Hunan Bistro","cuisine":"Chinese","address":"96 3rd Ave","coordinates":{"latitude":40.73234,"longitude":-73.9881},"review_count":169,"rating":3.5,"zip_code":"10003"},{"id":"unz_YBwCWg-O5id5rxSyDA","name":"Hot Kitchen","cuisine":"Chinese","address":"251 E 53rd St","coordinates":{"latitude":40.7570698,"longitude":-73.9674267},"review_count":146,"rating":3.5,"zip_code":"10022"},{"id":"2IrDzLVFUFPp229c1x8YNw","name":"Hong Man","cuisine":"Chinese","address":"27 Eldridge St","coordinates":{"latitude":40.71516,"longitude":-73.99374},"review_count":128,"rating":4,"zip_code":"10002"},{"id":"oJjMYhA6z1_BVaQpSdyl8g","name":"Golden Forest","cuisine":"Chinese","address":"353 Grand St","coordinates":{"latitude":40.7167,"longitude":-73.98945},"review_count":126,"rating":4,"zip_code":"10002"},{"id":"AxalkZb61r5Ks7l1yhhIHQ","name":"Savour Sichuan","cuisine":"Chinese","address":"108 W 39th St","coordinates":{"latitude":40.75311,"longitude":-73.98614},"review_count":155,"rating":3.5,"zip_code":"10018"},{"id":"I_Va7AZSHpEwX75S-3hHLQ","name":"Noodle Fun","cuisine":"Chinese","address":"1744 1st Ave","coordinates":{"latitude":40.7795333862305,"longitude":-73.9470367431641},"review_count":118,"rating":4,"zip_code":"10128"},{"id":"rkeH5HJIuX7ZcOaYNum9xA","name":"Wu's Wonton King","cuisine":"Chinese","address":"165 E Broadway","coordinates":{"latitude":40.7139415501646,"longitude":-73.9899386554248},"review_count":139,"rating":3.5,"zip_code":"10002"},{"id":"2lJwfmyRKO8zFz5Xuiw11w","name":"The Cottage","cuisine":"Chinese","address":"360 Amsterdam Ave","coordinates":{"latitude":40.7820668155281,"longitude":-73.9793799398146},"review_count":274,"rating":3,"zip_code":"10024"},{"id":"7T7L3GgX_rA88SlCfd0QBw","name":"Hing Won","cuisine":"Chinese","address":"48 W 48th St","coordinates":{"latitude":40.75809,"longitude":-73.98026},"review_count":180,"rating":3.5,"zip_code":"10036"},{"id":"bRL9IQG2gpdAAEcaa8V0Qg","name":"East Dumpling","cuisine":"Chinese","address":"46 Eldridge St","coordinates":{"latitude":40.71586,"longitude":-73.99288},"review_count":63,"rating":4.5,"zip_code":"10002"},{"id":"Jy7htqnnxlKB2vZO42_-aw","name":"Ding Szechuan and Hot Pot Restaurant","cuisine":"Chinese","address":"234 W 48th St","coordinates":{"latitude":40.7605285644531,"longitude":-73.9863891601562},"review_count":140,"rating":3.5,"zip_code":"10036"},{"id":"w3wKbjuNCZnYoPOr-FCk5w","name":"New Moon","cuisine":"Chinese","address":"536 3rd Ave","coordinates":{"latitude":40.74692,"longitude":-73.97766},"review_count":53,"rating":4.5,"zip_code":"10016"},{"id":"lFq-2FMJogdokie314E1bQ","name":"Rice & Gold","cuisine":"Chinese","address":"50 Bowery","coordinates":{"latitude":40.71599,"longitude":-73.99683},"review_count":156,"rating":3.5,"zip_code":"10013"},{"id":"lSrdxUNxyMgh5YU903JUiw","name":"Ningbo Cafe","cuisine":"Chinese","address":"21 S End Ave","coordinates":{"latitude":40.708141,"longitude":-74.017791},"review_count":102,"rating":4,"zip_code":"10280"},{"id":"ZCAkVl5SeCDeBWg_xjfYeg","name":"Clay Pot NYC","cuisine":"Chinese","address":"58 St Mark's Pl","coordinates":{"latitude":40.7279880270274,"longitude":-73.9865907985248},"review_count":61,"rating":4.5,"zip_code":"10003"},{"id":"KBZQN540Xz6LbXLRVOMc0w","name":"Hunan Delight","cuisine":"Chinese","address":"1467 York Ave","coordinates":{"latitude":40.770678,"longitude":-73.951296},"review_count":157,"rating":3.5,"zip_code":"10075"},{"id":"YigPOZxASGQX1IniEyCp8g","name":"La Dinastia","cuisine":"Chinese","address":"145 W 72nd St","coordinates":{"latitude":40.77833,"longitude":-73.98022},"review_count":140,"rating":3.5,"zip_code":"10023"},{"id":"Sj2StOWkhHIPE6_sS5RMCQ","name":"Evergreen On 38","cuisine":"Chinese","address":"10 E 38th St","coordinates":{"latitude":40.75051,"longitude":-73.98192},"review_count":186,"rating":3,"zip_code":"10016"},{"id":"jpK6MMfLJwLXCzTeywyNNA","name":"DIM SUM VIP","cuisine":"Chinese","address":"68 Mott St","coordinates":{"latitude":40.71614,"longitude":-73.9979},"review_count":166,"rating":3.5,"zip_code":"10013"},{"id":"02zyTkuXvbGcbA9en_20Gw","name":"Chatham Seafood Restaurant","cuisine":"Chinese","address":"6 Chatham Sq","coordinates":{"latitude":40.714,"longitude":-73.99833},"review_count":175,"rating":3.5,"zip_code":"10038"},{"id":"dhR4FMfoN0-MT5JOs7B-5g","name":"Rice Noodle Cart","cuisine":"Chinese","address":"153 Centre St","coordinates":{"latitude":40.71792,"longitude":-74.00021},"review_count":48,"rating":4.5,"zip_code":"10013"},{"id":"SNDUD4LFjVHWwrdAkokxRg","name":"Mei Yu Spring","cuisine":"Chinese","address":"29 Catherine St","coordinates":{"latitude":40.7125753536096,"longitude":-73.9971762470746},"review_count":57,"rating":4,"zip_code":"10002"},{"id":"Ece_DRuD1yQjRPJBAebRpw","name":"Kung Fu Little Steamed Buns Ramen","cuisine":"Chinese","address":"146 E 55th St","coordinates":{"latitude":40.7592514705491,"longitude":-73.9694294705987},"review_count":221,"rating":3,"zip_code":"10022"},{"id":"UNyGz06_7RendbswIyNYtA","name":"Shu Han Ju","cuisine":"Chinese","address":"465 6th Ave","coordinates":{"latitude":40.73558,"longitude":-73.99843},"review_count":124,"rating":3.5,"zip_code":"10011"},{"id":"8FJ8XVa-duF8rPeyfscUPg","name":"Auntie Guan's Kitchen","cuisine":"Chinese","address":"219 E 23rd St","coordinates":{"latitude":40.73863,"longitude":-73.98193},"review_count":112,"rating":3.5,"zip_code":"10011"},{"id":"jwKPVep2qZYBUA6SLLQPvg","name":"Legend 72","cuisine":"Chinese","address":"127 W 72nd St","coordinates":{"latitude":40.77796,"longitude":-73.9796901},"review_count":174,"rating":3.5,"zip_code":"10023"},{"id":"ku3TyaUBEkuQtQXKq80Zlg","name":"Sun Sai Gai Restaurant","cuisine":"Chinese","address":"220 Canal St","coordinates":{"latitude":40.717346,"longitude":-73.9992751},"review_count":202,"rating":3,"zip_code":"10013"},{"id":"bAPDGHHaLZs-XEFk7ZXGVA","name":"Spice Saigon","cuisine":"Chinese","address":"1237 1st Ave","coordinates":{"latitude":40.7645621771246,"longitude":-73.9585727685255},"review_count":141,"rating":3.5,"zip_code":"10065"},{"id":"Myp2rEB3yEcdaZIRe0S3Ww","name":"Yuan Dim Sum King","cuisine":"Chinese","address":"157 Second Ave","coordinates":{"latitude":40.72975,"longitude":-73.98724},"review_count":120,"rating":3.5,"zip_code":"10003"},{"id":"bDsXyYwzk4I9_7l51D_gaA","name":"Cafe Evergreen","cuisine":"Chinese","address":"1367 1st Ave","coordinates":{"latitude":40.76891,"longitude":-73.9556},"review_count":132,"rating":3.5,"zip_code":"10021"},{"id":"EF0O_YwVCuWioswtEMrjpg","name":"Shanghai Cuisine","cuisine":"Chinese","address":"89 Bayard St","coordinates":{"latitude":40.715768,"longitude":-73.9992981},"review_count":310,"rating":3,"zip_code":"10013"},{"id":"bpeeh-kkay0ZE7mGXsCVKQ","name":"Ahana","cuisine":"Chinese","address":"1154 1st Ave","coordinates":{"latitude":40.7622458,"longitude":-73.9598571},"review_count":113,"rating":4,"zip_code":"10065"},{"id":"s25mujxKWphsyFm0Ji1xYA","name":"Mr Chow","cuisine":"Chinese","address":"324 E 57th St","coordinates":{"latitude":40.7588502019644,"longitude":-73.9643376320601},"review_count":292,"rating":3,"zip_code":"10022"},{"id":"nBm-zxAWg_oA8JNtHxPvcw","name":"Di Di Dumpling","cuisine":"Chinese","address":"38 Lexington Ave","coordinates":{"latitude":40.7401539,"longitude":-73.9845239},"review_count":143,"rating":3.5,"zip_code":"10010"},{"id":"u5-S5ElOzXnavuZ2gFsCpg","name":"Manting","cuisine":"Chinese","address":"150 W 49th St","coordinates":{"latitude":40.7601476826859,"longitude":-73.9829980954528},"review_count":155,"rating":3.5,"zip_code":"10019"},{"id":"Qwd4Tv-CqgO2Yl9zZgkKOQ","name":"Shun Lee Palace","cuisine":"Chinese","address":"155 E 55th St","coordinates":{"latitude":40.75945,"longitude":-73.96907},"review_count":246,"rating":3,"zip_code":"10022"},{"id":"_RhAY03oEBw9HNwUAJyBCw","name":"Shun Lee West","cuisine":"Chinese","address":"43 W 65th St","coordinates":{"latitude":40.7729,"longitude":-73.9813485},"review_count":385,"rating":2.5,"zip_code":"10023"},{"id":"D13m2P0qKQUWNqIW-lpHZg","name":"Yaso Tangbao","cuisine":"Chinese","address":"220 E 42nd St","coordinates":{"latitude":40.74977,"longitude":-73.97318},"review_count":112,"rating":4,"zip_code":"10017"},{"id":"LQ6x_oaOhRrlG9i8p-Fubw","name":"Lychee House","cuisine":"Chinese","address":"141 E 55th St","coordinates":{"latitude":40.7595977783203,"longitude":-73.9694213867188},"review_count":124,"rating":3.5,"zip_code":"10022"},{"id":"zYoL-o9YJpGTwJ-Gmj8AFA","name":"Jue Lan Club","cuisine":"Chinese","address":"49 W 20th St","coordinates":{"latitude":40.7409694,"longitude":-73.9934031},"review_count":224,"rating":3,"zip_code":"10011"},{"id":"CesS-E8Q3ztX6VnkXO6wBg","name":"Chinese Tuxedo","cuisine":"Chinese","address":"5 Doyers St","coordinates":{"latitude":40.71433,"longitude":-73.99804},"review_count":156,"rating":3.5,"zip_code":"10013"},{"id":"NmJ2xtfZrscfWB_a5wEbXQ","name":"Home's Kitchen Chinese Restaurant","cuisine":"Chinese","address":"22 E 21st St","coordinates":{"latitude":40.73944,"longitude":-73.98913},"review_count":162,"rating":3.5,"zip_code":"10010"},{"id":"6kCo3xb87Sc3Aa5ZSWzNnw","name":"Kung Fu Kitchen","cuisine":"Chinese","address":"610 8th Ave","coordinates":{"latitude":40.7555654203146,"longitude":-73.9907654374838},"review_count":189,"rating":3,"zip_code":"10018"},{"id":"dTZ-q8CwEDo9iVKM0tydnQ","name":"Great Sichuan","cuisine":"Chinese","address":"363 3rd Ave","coordinates":{"latitude":40.74082,"longitude":-73.98127},"review_count":174,"rating":3,"zip_code":"10016"},{"id":"fUhBM10aNrkVGvHJ2Hbhqw","name":"Canteen 82","cuisine":"Chinese","address":"467 Columbus Ave","coordinates":{"latitude":40.78406,"longitude":-73.97354},"review_count":188,"rating":3,"zip_code":"10024"},{"id":"AvTezlpt3GXTdSEnXbHP4w","name":"Fatima's Halal Kitchen","cuisine":"Chinese","address":"25-25 Broadway","coordinates":{"latitude":40.7631186084319,"longitude":-73.9275405041124},"review_count":313,"rating":4,"zip_code":"11106"},{"id":"MXYtu8-0eNkW6L4firJfcw","name":"Chinatown Restaurant","cuisine":"Chinese","address":"1650 3rd Ave","coordinates":{"latitude":40.78286,"longitude":-73.95126},"review_count":229,"rating":3,"zip_code":"10128"},{"id":"S-jThCG_S-7_xtm75nkB2Q","name":"Jaya 888","cuisine":"Chinese","address":"90 Baxter St","coordinates":{"latitude":40.7169062,"longitude":-73.9998838},"review_count":255,"rating":3,"zip_code":"10013"},{"id":"i1eA3GawUFL-e_DbL_rg1w","name":"Hua Ji Pork Chop Fast Food","cuisine":"Chinese","address":"7 Allen St","coordinates":{"latitude":40.714809,"longitude":-73.993072},"review_count":68,"rating":4,"zip_code":"10002"},{"id":"AolkHo3ct8gGBlyyOmAkOg","name":"Grand Bo Ky Restaurant","cuisine":"Chinese","address":"216 Grand St","coordinates":{"latitude":40.7189831,"longitude":-73.995878},"review_count":128,"rating":3.5,"zip_code":"10013"},{"id":"MMotl_bi3-5JRra91A2jLA","name":"Satay Malaysian Cuisine","cuisine":"Chinese","address":"99 Washington St","coordinates":{"latitude":40.73731,"longitude":-74.03066},"review_count":424,"rating":4,"zip_code":"07030"},{"id":"rL5F8YnQq9SY0hyece4W2w","name":"Mr Bing","cuisine":"Chinese","address":"230 Park Ave","coordinates":{"latitude":40.7543376550143,"longitude":-73.976532557234},"review_count":139,"rating":3.5,"zip_code":"10021"},{"id":"1YGpTYD8xIuUpK_beMhzSw","name":"The Rice Noodle","cuisine":"Chinese","address":"190 Bleecker St","coordinates":{"latitude":40.729087,"longitude":-74.001525},"review_count":87,"rating":3.5,"zip_code":"10012"},{"id":"nrPfcOC4mGnEL-9CpoGhMg","name":"Ming's Caffe","cuisine":"Chinese","address":"28 Canal St","coordinates":{"latitude":40.714321,"longitude":-73.990509},"review_count":89,"rating":4,"zip_code":"10002"},{"id":"3OT1deSiIYhrcXWJ1sD3wA","name":"Shui Mei Cafe","cuisine":"Chinese","address":"67 E Broadway","coordinates":{"latitude":40.7135318,"longitude":-73.9948386},"review_count":30,"rating":4.5,"zip_code":"10002"},{"id":"mpxgyGnJsomLOzKRsCK1TA","name":"Joy Luck Palace","cuisine":"Chinese","address":"98 Mott St","coordinates":{"latitude":40.7169727141044,"longitude":-73.9975602870106},"review_count":183,"rating":3,"zip_code":"10013"},{"id":"qH8PVeddtVs9cKN2pwgdkQ","name":"Hwa Yuan","cuisine":"Chinese","address":"42 E Broadway","coordinates":{"latitude":40.7137,"longitude":-73.99598},"review_count":78,"rating":4,"zip_code":"10002"},{"id":"bK-Y2zCIMolqRDHsaYUCWA","name":"Royal Seafood Restaurant","cuisine":"Chinese","address":"103 Mott St","coordinates":{"latitude":40.7174,"longitude":-73.9977},"review_count":227,"rating":3,"zip_code":"10013"},{"id":"U5dCWjAxrvLLMH1ErpGfvw","name":"A-jiao","cuisine":"Chinese","address":"1817 2nd Ave","coordinates":{"latitude":40.783159,"longitude":-73.948244},"review_count":97,"rating":3.5,"zip_code":"10128"},{"id":"NjBgTtcJgdXKLvqYt3C8CQ","name":"Bite of Hong Kong 泰仁軒","cuisine":"Chinese","address":"81 Chrystie St","coordinates":{"latitude":40.7174007,"longitude":-73.99437},"review_count":73,"rating":4,"zip_code":"10002"},{"id":"1HjbS4hWLeHEwpC4EuWKYw","name":"Manna House Bakery","cuisine":"Chinese","address":"125 Mott St","coordinates":{"latitude":40.71815,"longitude":-73.99705},"review_count":57,"rating":4,"zip_code":"10013"},{"id":"Bwj7nzWphGV6FaZ_ygTSOg","name":"Happy Hot Hunan","cuisine":"Chinese","address":"969 Amsterdam Ave","coordinates":{"latitude":40.80133,"longitude":-73.96466},"review_count":116,"rating":3.5,"zip_code":"10025"},{"id":"hY3z_joaHduNcF-C3ZWgqA","name":"Formosa Cafe","cuisine":"Chinese","address":"34 Eldridge St","coordinates":{"latitude":40.7156312539499,"longitude":-73.9931514282417},"review_count":88,"rating":3.5,"zip_code":"10002"},{"id":"NZb6ILmE0p4gQ5harzrAvA","name":"DaDong New York","cuisine":"Chinese","address":"3 Bryant Park","coordinates":{"latitude":40.754807,"longitude":-73.985184},"review_count":334,"rating":3,"zip_code":"10036"},{"id":"wCA2kvIfrkzhBQ225VKspA","name":"88 Palace Restaurant","cuisine":"Chinese","address":"88 E Broadway","coordinates":{"latitude":40.714,"longitude":-73.99439},"review_count":178,"rating":3,"zip_code":"10002"},{"id":"3TMP2pncE-0LwoDukbaqlg","name":"Cafe Hong Kong","cuisine":"Chinese","address":"51 Bayard St","coordinates":{"latitude":40.715206,"longitude":-73.997528},"review_count":133,"rating":3,"zip_code":"10013"},{"id":"rpLZDxivPeb9ZXqqgDPfpg","name":"SunShine","cuisine":"Chinese","address":"27 Division St","coordinates":{"latitude":40.71397,"longitude":-73.9961364},"review_count":88,"rating":3.5,"zip_code":"10013"},{"id":"RoqLH-4rDugHlduthnZggg","name":"Flame","cuisine":"Chinese","address":"381 3rd Ave","coordinates":{"latitude":40.74152,"longitude":-73.98097},"review_count":48,"rating":4,"zip_code":"10016"},{"id":"SBJHGtqJyfaU47NPjGAU6A","name":"China Jade","cuisine":"Chinese","address":"1643 2nd Ave","coordinates":{"latitude":40.77747,"longitude":-73.95239},"review_count":68,"rating":4,"zip_code":"10028"},{"id":"JjzCmRn3q8JrlwHx8nFhAA","name":"Tang Hotpot","cuisine":"Chinese","address":"135 Bowery","coordinates":{"latitude":40.71866,"longitude":-73.99435},"review_count":84,"rating":4,"zip_code":"10002"},{"id":"TIckT5ubU4nPbpua1ATG8Q","name":"Ling's Sweet Mini Cakes","cuisine":"Chinese","address":"","coordinates":{"latitude":40.717037287523,"longitude":-73.998997213678},"review_count":23,"rating":4.5,"zip_code":"10013"},{"id":"WRRs3smfm6rHP5k4Slzr3w","name":"Hop Won Restaurant","cuisine":"Chinese","address":"139 E 45th St","coordinates":{"latitude":40.75322,"longitude":-73.97399},"review_count":128,"rating":3,"zip_code":"10017"},{"id":"douRKPVxuo8BEOkMxgVl_w","name":"Lotus Blue","cuisine":"Chinese","address":"15 Union Square W","coordinates":{"latitude":40.736070750946,"longitude":-73.9917466058785},"review_count":51,"rating":4,"zip_code":"10003"},{"id":"gJXNSJ9VXTuCFmp_Kl9TVQ","name":"Shanghai","cuisine":"Chinese","address":"1388 2nd Ave","coordinates":{"latitude":40.768291,"longitude":-73.958381},"review_count":65,"rating":4,"zip_code":"10021"},{"id":"Dj0jblwuWTftL1D7_Kun6Q","name":"Noodles 28","cuisine":"Chinese","address":"417 3rd Ave","coordinates":{"latitude":40.74261,"longitude":-73.97997},"review_count":179,"rating":3,"zip_code":"10016"},{"id":"xH7mEjh4Rn6KdHjXYNoOjw","name":"Yaso Tangbao","cuisine":"Chinese","address":"148 Lawrence St","coordinates":{"latitude":40.6918206366101,"longitude":-73.9863992364001},"review_count":556,"rating":4,"zip_code":"11201"},{"id":"NL7yHrgnOVNtKNRPon5vGQ","name":"Delight 28 Restaurant","cuisine":"Chinese","address":"28 Pell St","coordinates":{"latitude":40.715089,"longitude":-73.998459},"review_count":138,"rating":3,"zip_code":"10013"},{"id":"VooUbgaG0F2FeQZfgBbjkg","name":"Yee Li Restaurant","cuisine":"Chinese","address":"1 Elizabeth St","coordinates":{"latitude":40.715503692627,"longitude":-73.997695595026},"review_count":159,"rating":3,"zip_code":"10013"},{"id":"croh2zWlbPyCQTNS11klcg","name":"Sichuan Manor","cuisine":"Chinese","address":"258 W 44th St","coordinates":{"latitude":40.7581711239604,"longitude":-73.9883149042726},"review_count":50,"rating":4,"zip_code":"10036"},{"id":"75hwcHqtBI0x-Ej0OEklWA","name":"Mimi Cheng's Dumplings","cuisine":"Chinese","address":"380 Broome St","coordinates":{"latitude":40.72048,"longitude":-73.99646},"review_count":104,"rating":3.5,"zip_code":"10013"},{"id":"TWI3efEcCVsTErKFWz4Zqg","name":"Nom Wah Nolita","cuisine":"Chinese","address":"10 Kenmare St","coordinates":{"latitude":40.7204154878855,"longitude":-73.9944789558649},"review_count":108,"rating":3.5,"zip_code":"10012"},{"id":"sR-KTsDa4vafaDak9Ik2sQ","name":"Hunan House","cuisine":"Chinese","address":"40 W 56th St","coordinates":{"latitude":40.76292,"longitude":-73.97653},"review_count":152,"rating":3,"zip_code":"10019"}]}
