{"businesses":[{"id":"veq1Bl1DW3UWMekZJUsG1Q","name":"Gramercy Tavern","cuisine":"American","address":"42 E 20th St","coordinates":{"latitude":40.738527,"longitude":-73.988417},"review_count":2465,"rating":4.5,"zip_code":"10003"},{"id":"nRO136GRieGtxz18uD61DA","name":"Eleven Madison Park","cuisine":"American","address":"11 Madison Ave","coordinates":{"latitude":40.7416907417333,"longitude":-73.9872074872255},"review_count":1781,"rating":4.5,"zip_code":"10010"},{"id":"b8a-8u_A51v2IzyjLVsx6w","name":"Del Frisco's Double Eagle Steak House","cuisine":"American","address":"1221 Ave Of The Americas","coordinates":{"latitude":40.7593318,"longitude":-73.9819719},"review_count":2404,"rating":4.5,"zip_code":"10020"},{"id":"dMhRafXdr765DHe0k-QfaQ","name":"ABC Kitchen","cuisine":"American","address":"35 E 18th St","coordinates":{"latitude":40.738085,"longitude":-73.989472},"review_count":2655,"rating":4,"zip_code":"10003"},{"id":"PBUIaPtgnhmdHE3KHglK-g","name":"Jean-Georges","cuisine":"American","address":"1 Central Park W","coordinates":{"latitude":40.7691122743293,"longitude":-73.9814290717583},"review_count":1679,"rating":4.5,"zip_code":"10023"},{"id":"pfmAcS-g6SiNG0KlLvrqnA","name":"Beauty & Essex","cuisine":"American","address":"146 Essex St","coordinates":{"latitude":40.72037,"longitude":-73.98677},"review_count":2820,"rating":4,"zip_code":"10002"},{"id":"_gzXNKarTxagBp6_PkmQKw","name":"Gotham Bar and Grill","cuisine":"American","address":"12 E 12th St","coordinates":{"latitude":40.734186,"longitude":-73.993696},"review_count":1421,"rating":4.5,"zip_code":"10003"},{"id":"uoT2_Wrt1noD6kZOID7tUg","name":"Jane","cuisine":"American","address":"100 W Houston St","coordinates":{"latitude":40.72732,"longitude":-74.00026},"review_count":2850,"rating":4,"zip_code":"10012"},{"id":"Rc1lxc5lSKJYd162JHNMfQ","name":"Bea","cuisine":"American","address":"403 W 43rd St","coordinates":{"latitude":40.7591968,"longitude":-73.9923361},"review_count":1741,"rating":4,"zip_code":"10036"},{"id":"wXpCNNTT2kqh-fTnSWXdEA","name":"Shake Shack","cuisine":"American","address":"366 Columbus Ave","coordinates":{"latitude":40.7808207060578,"longitude":-73.9765516723468},"review_count":2225,"rating":4,"zip_code":"10024"},{"id":"PYcL2z9gHj6-ZTlViT9Nqw","name":"Minetta Tavern","cuisine":"American","address":"113 Macdougal St","coordinates":{"latitude":40.7300047976758,"longitude":-74.0006073834151},"review_count":1947,"rating":4,"zip_code":"10012"},{"id":"1Ed-tb_0dBGrXfsYyehmvg","name":"Momofuku Ssam Bar","cuisine":"American","address":"207 2nd Ave","coordinates":{"latitude":40.73169,"longitude":-73.985846},"review_count":2210,"rating":4,"zip_code":"10003"},{"id":"1z5Nu66M6W8mk5Ap4osZwA","name":"The NoMad Restaurant","cuisine":"American","address":"1170 Broadway","coordinates":{"latitude":40.7449,"longitude":-73.988482},"review_count":1300,"rating":4,"zip_code":"10001"},{"id":"fVbUVAiLiGgLA_nxBFxyww","name":"Thursday Kitchen","cuisine":"American","address":"424 E 9th St","coordinates":{"latitude":40.7275,"longitude":-73.9838},"review_count":834,"rating":4.5,"zip_code":"10009"},{"id":"HfJhenvKDi-ds8SUJFwrLg","name":"Momofuku Noodle Bar","cuisine":"American","address":"171 1st Ave","coordinates":{"latitude":40.7292063820076,"longitude":-73.9844848239426},"review_count":3834,"rating":3.5,"zip_code":"10003"},{"id":"cCesIqo-LQt0cRlZAnrAZQ","name":"Friedman's","cuisine":"American","address":"132 W 31st St","coordinates":{"latitude":40.748297,"longitude":-73.990649},"review_count":1685,"rating":4,"zip_code":"10001"},{"id":"_LJFf9YqpYxvExTvVxb7Rw","name":"The Modern","cuisine":"American","address":"9 W 53rd St","coordinates":{"latitude":40.7610060884932,"longitude":-73.9767725608521},"review_count":809,"rating":4.5,"zip_code":"10019"},{"id":"IUvJ8jmojYu1FsOQ0PfFcg","name":"Aquagrill","cuisine":"American","address":"210 Spring St","coordinates":{"latitude":40.7253545576709,"longitude":-74.0037010931698},"review_count":1211,"rating":4,"zip_code":"10012"},{"id":"2n01u4yKfIrWuOzRVvIZmw","name":"Crif Dogs","cuisine":"American","address":"113 Saint Marks Pl","coordinates":{"latitude":40.72707,"longitude":-73.98379},"review_count":1981,"rating":4,"zip_code":"10009"},{"id":"ssGhu4n3emZ9kEPVf371IQ","name":"Cookshop","cuisine":"American","address":"156 10th Ave","coordinates":{"latitude":40.7454251,"longitude":-74.0056084},"review_count":1787,"rating":4,"zip_code":"10011"},{"id":"z5hRX3iJ5Ty_S38iG_WY3Q","name":"Tanner Smiths","cuisine":"American","address":"204 W 55th St","coordinates":{"latitude":40.76428,"longitude":-73.98172},"review_count":1063,"rating":4.5,"zip_code":"10019"},{"id":"UXVDyIzmO5kmJnlv-HDXLg","name":"Cafeteria","cuisine":"American","address":"119 7th Ave","coordinates":{"latitude":40.740567590122,"longitude":-73.9980747946},"review_count":2922,"rating":3.5,"zip_code":"10011"},{"id":"1LIptXhtDh58vAA-QPFL4w","name":"Cask Bar & Kitchen","cuisine":"American","address":"167 E 33rd St","coordinates":{"latitude":40.745414,"longitude":-73.979004},"review_count":1200,"rating":4,"zip_code":"10016"},{"id":"yZJbealagfujEkgesAl2hA","name":"Lupa","cuisine":"American","address":"170 Thompson St","coordinates":{"latitude":40.7276,"longitude":-74.000045},"review_count":1345,"rating":4,"zip_code":"10012"},{"id":"SjG7CnTIuUBIo9T4BThkGQ","name":"Employees Only","cuisine":"American","address":"510 Hudson St","coordinates":{"latitude":40.73343,"longitude":-74.00607},"review_count":1294,"rating":4,"zip_code":"10014"},{"id":"4Objcs7HXSGuzpb0SOa-Jw","name":"Blue Hill","cuisine":"American","address":"75 Washington Pl","coordinates":{"latitude":40.7320640251595,"longitude":-73.9996931018524},"review_count":870,"rating":4.5,"zip_code":"10011"},{"id":"JL_p-OHtSEYVfoeLQQgqDA","name":"Casellula","cuisine":"American","address":"401 W 52nd St","coordinates":{"latitude":40.76499,"longitude":-73.98835},"review_count":834,"rating":4,"zip_code":"10019"},{"id":"lXGCo-K7eftxRT_6E59-Iw","name":"Union Square Café","cuisine":"American","address":"101 E 19th St","coordinates":{"latitude":40.73775,"longitude":-73.987874},"review_count":1039,"rating":4,"zip_code":"10003"},{"id":"Rgm8BwcoqfIVSl2QSEOhbQ","name":"Craft","cuisine":"American","address":"43 E 19th St","coordinates":{"latitude":40.73818,"longitude":-73.98866},"review_count":903,"rating":4,"zip_code":"10003"},{"id":"DRitJoNGTkHXZvH_YpLIAw","name":"Marc Forgione","cuisine":"American","address":"134 Reade St","coordinates":{"latitude":40.71647,"longitude":-74.0095599},"review_count":819,"rating":4,"zip_code":"10013"},{"id":"mHBhUxHgDGjsB1LJl4qW0w","name":"Hillstone Restaurant","cuisine":"American","address":"153 E 53rd St","coordinates":{"latitude":40.7582412110122,"longitude":-73.9688767764436},"review_count":952,"rating":4,"zip_code":"10022"},{"id":"Me4TxTbPPQZQopW1wOGx5g","name":"Jack's Wife Freda","cuisine":"American","address":"224 Lafayette St","coordinates":{"latitude":40.72213,"longitude":-73.99756},"review_count":1500,"rating":4,"zip_code":"10012"},{"id":"Ucxhqn56VtC-eYjdNsg7Og","name":"Vitae","cuisine":"American","address":"4 E 46th St","coordinates":{"latitude":40.7555884,"longitude":-73.9785483},"review_count":719,"rating":4,"zip_code":"10017"},{"id":"XoDR_T-ZKYJtZgCocEDcyA","name":"Print","cuisine":"American","address":"653 11th Ave","coordinates":{"latitude":40.7645793122181,"longitude":-73.9958291255028},"review_count":773,"rating":4,"zip_code":"10036"},{"id":"MctQwL9Mp5X7DJk13VoERg","name":"Westville Chelsea","cuisine":"American","address":"246 W 18th St","coordinates":{"latitude":40.7417526245117,"longitude":-74.0000762939453},"review_count":991,"rating":4,"zip_code":"10011"},{"id":"IOHaEgK1zDvUvB3SfKuGCw","name":"Parker & Quinn","cuisine":"American","address":"64 W 39th St","coordinates":{"latitude":40.7526021925429,"longitude":-73.9850091145378},"review_count":1009,"rating":4,"zip_code":"10018"},{"id":"wrvIZaT5rTmk0YpIvQbvHw","name":"Murray's Cheese Bar","cuisine":"American","address":"264 Bleecker St","coordinates":{"latitude":40.7312,"longitude":-74.00322},"review_count":645,"rating":4,"zip_code":"10014"},{"id":"B2S5HWRfxe9G-BhKJix9Yg","name":"Pegu Club","cuisine":"American","address":"77 W Houston St","coordinates":{"latitude":40.726579,"longitude":-73.999861},"review_count":924,"rating":4,"zip_code":"10012"},{"id":"k5NAz3-goMXKoUqPfOZ1Hw","name":"The Smith","cuisine":"American","address":"55 3rd Ave","coordinates":{"latitude":40.7310675,"longitude":-73.9886217},"review_count":1748,"rating":3.5,"zip_code":"10003"},{"id":"01isnBO1rFO2LTOeNfYl9w","name":"Hillstone Restaurant","cuisine":"American","address":"378 Park Ave S","coordinates":{"latitude":40.7427534,"longitude":-73.9847308},"review_count":801,"rating":4,"zip_code":"10010"},{"id":"sVG1whNWHhlbjP6p027YcA","name":"Brindle Room","cuisine":"American","address":"277 E 10th St","coordinates":{"latitude":40.72829,"longitude":-73.98271},"review_count":876,"rating":4,"zip_code":"10009"},{"id":"_tHF8-3rbyMesgdkQzB2yQ","name":"Serendipity 3","cuisine":"American","address":"225 E 60th St","coordinates":{"latitude":40.7618668,"longitude":-73.9649001},"review_count":3485,"rating":3,"zip_code":"10022"},{"id":"2_oy2iBeT0Rg-oz4f0GF1A","name":"The Jeffrey Craft Beer & Bites","cuisine":"American","address":"311 E 60th St","coordinates":{"latitude":40.7611,"longitude":-73.963},"review_count":565,"rating":4,"zip_code":"10022"},{"id":"xkvv0n7jbl4Ra3Vm_jfxaA","name":"Upland","cuisine":"American","address":"345 Park Ave S","coordinates":{"latitude":40.7417865091611,"longitude":-73.9847700297832},"review_count":736,"rating":4,"zip_code":"10010"},{"id":"0BzxIsoRuFvxbMPl-iH70A","name":"Market Table","cuisine":"American","address":"54 Carmine St","coordinates":{"latitude":40.7297659255873,"longitude":-74.0037665277862},"review_count":738,"rating":4,"zip_code":"10014"},{"id":"JYNBy2r3LVhJbLHE1bASfg","name":"The Smith","cuisine":"American","address":"1900 Broadway","coordinates":{"latitude":40.7716201269986,"longitude":-73.9818377981476},"review_count":1288,"rating":3.5,"zip_code":"10023"},{"id":"2VpurA2lb-q90nmALklNcA","name":"Perry St","cuisine":"American","address":"176 Perry St","coordinates":{"latitude":40.73442,"longitude":-74.00971},"review_count":856,"rating":4,"zip_code":"10014"},{"id":"B_HFzZkFsZgmzcea6R4exw","name":"One If By Land Two If By Sea","cuisine":"American","address":"17 Barrow St","coordinates":{"latitude":40.732592,"longitude":-74.002797},"review_count":1269,"rating":3.5,"zip_code":"10014"},{"id":"zMsmQ6WLgQAjVZyVbirO1A","name":"Dovetail","cuisine":"American","address":"103 W 77th St","coordinates":{"latitude":40.780944,"longitude":-73.976599},"review_count":681,"rating":4,"zip_code":"10024"},{"id":"I6optu9x0JAf8oT5lqJ8qw","name":"Blue Dog Kitchen Bar","cuisine":"American","address":"308 W 50th St","coordinates":{"latitude":40.7623561,"longitude":-73.9866376},"review_count":920,"rating":4,"zip_code":"10019"},{"id":"efYELOeAJ-CjKpzayEfblg","name":"Cornerstone Cafe","cuisine":"American","address":"17 Ave B","coordinates":{"latitude":40.7220618263077,"longitude":-73.983249573445},"review_count":966,"rating":4,"zip_code":"10009"},{"id":"CfWe636m2CAUg4FAdl_zVQ","name":"Ricardo Steak House","cuisine":"American","address":"2145 2nd Ave","coordinates":{"latitude":40.7934520370731,"longitude":-73.940475679068},"review_count":781,"rating":4,"zip_code":"10029"},{"id":"Kbk_759zwP0Rk3SAXdrWHg","name":"David Burke Kitchen","cuisine":"American","address":"23 Grand St","coordinates":{"latitude":40.72279,"longitude":-74.00491},"review_count":1091,"rating":3.5,"zip_code":"10013"},{"id":"tD1pDzU-x8gGodC4nGnY9g","name":"NORMA'S","cuisine":"American","address":"119 W 56th St","coordinates":{"latitude":40.7640495,"longitude":-73.9782548},"review_count":1496,"rating":3.5,"zip_code":"10019"},{"id":"hRZyaQ80R9s9ztEBDJqiuw","name":"Essex","cuisine":"American","address":"120 Essex St","coordinates":{"latitude":40.7196975497428,"longitude":-73.9873982202378},"review_count":1745,"rating":3.5,"zip_code":"10002"},{"id":"5ZEFbq_AQV5VQFG2JKYzlA","name":"Giorgio's of Gramercy","cuisine":"American","address":"27 E 21st St","coordinates":{"latitude":40.7394209879325,"longitude":-73.9885425567627},"review_count":687,"rating":4,"zip_code":"10010"},{"id":"2mzyXxnstSPcpDS3u5g_7w","name":"Park Avenue Autumn/Winter/Spring/Summer","cuisine":"American","address":"360 Park Ave S","coordinates":{"latitude":40.7419710606337,"longitude":-73.9852105826139},"review_count":664,"rating":4,"zip_code":"10010"},{"id":"Ps0cOZevNA1M9M5_z7W3oQ","name":"Joseph Leonard","cuisine":"American","address":"170 Waverly Pl","coordinates":{"latitude":40.7336021670705,"longitude":-74.001675412843},"review_count":597,"rating":4,"zip_code":"10014"},{"id":"Z65cd3Z7JvwK8TnSVg-cfA","name":"District Tap House","cuisine":"American","address":"246 W 38th St","coordinates":{"latitude":40.75409,"longitude":-73.99039},"review_count":671,"rating":4,"zip_code":"10018"},{"id":"UBCNhz-TSvBP3zo5PjFWrQ","name":"Aureole","cuisine":"American","address":"135 W 42nd St","coordinates":{"latitude":40.7555870079476,"longitude":-73.9852531626821},"review_count":775,"rating":4,"zip_code":"10036"},{"id":"OqNmzS2N2I750zYgUC6IgA","name":"Riverpark","cuisine":"American","address":"450 E 29th St","coordinates":{"latitude":40.7393734243765,"longitude":-73.9734843398117},"review_count":680,"rating":4,"zip_code":"10016"},{"id":"844H9r0tRQZmxiEtjeTW0A","name":"The Bar Room","cuisine":"American","address":"9 W 53rd St","coordinates":{"latitude":40.7610309319265,"longitude":-73.9765593703613},"review_count":435,"rating":4,"zip_code":"10019"},{"id":"7fSrrMD75A210TJg8oq-6Q","name":"The Red Cat","cuisine":"American","address":"227 10th Ave","coordinates":{"latitude":40.74815,"longitude":-74.00425},"review_count":650,"rating":4,"zip_code":"10011"},{"id":"0EtZ1xhnXWp4-ysNVwItYA","name":"Distilled","cuisine":"American","address":"211 W Broadway","coordinates":{"latitude":40.7189994,"longitude":-74.0062975},"review_count":664,"rating":4,"zip_code":"10013"},{"id":"FtxaAg8ohX2vp9A3sQ2HQw","name":"Mas Farmhouse","cuisine":"American","address":"39 Downing St","coordinates":{"latitude":40.729303,"longitude":-74.003774},"review_count":466,"rating":4,"zip_code":"10014"},{"id":"4LV-7hGnfimAhoAuYhgvEg","name":"Prune","cuisine":"American","address":"54 E 1st St","coordinates":{"latitude":40.723909,"longitude":-73.989379},"review_count":973,"rating":3.5,"zip_code":"10003"},{"id":"TMzgYJWl-DeKaA3kGcuK8A","name":"The Eddy","cuisine":"American","address":"342 E 6th St","coordinates":{"latitude":40.7264594,"longitude":-73.986646},"review_count":327,"rating":4.5,"zip_code":"10003"},{"id":"unWoFZeSWa0DK1YMekO_Uw","name":"Trademark Taste & Grind","cuisine":"American","address":"38 W 36th St","coordinates":{"latitude":40.7502555847168,"longitude":-73.9854583740234},"review_count":404,"rating":4.5,"zip_code":"10018"},{"id":"V6xlMNLFTsxB4W0VVcRK_Q","name":"230 Fifth Rooftop Bar","cuisine":"American","address":"230 5th Ave","coordinates":{"latitude":40.7438322669668,"longitude":-73.9880068207382},"review_count":2479,"rating":3,"zip_code":"10001"},{"id":"EegEULbC3qoMA-FaEjivtA","name":"Barbuto","cuisine":"American","address":"775 Washington St","coordinates":{"latitude":40.7377203192966,"longitude":-74.0080020711638},"review_count":816,"rating":4,"zip_code":"10014"},{"id":"GticI2JB8Iw2ktRfLv6aRQ","name":"Momofuku Ko","cuisine":"American","address":"8 Extra Pl","coordinates":{"latitude":40.724776,"longitude":-73.991682},"review_count":208,"rating":4.5,"zip_code":"10003"},{"id":"YigI9naNis2hvBtlkXLTvQ","name":"Ichabod's","cuisine":"American","address":"15 Irving Pl","coordinates":{"latitude":40.7348034779301,"longitude":-73.9883648628205},"review_count":516,"rating":4,"zip_code":"10003"},{"id":"SF2G4QfcSV03sMCSsv5s2g","name":"The Cellar","cuisine":"American","address":"900 Broadway","coordinates":{"latitude":40.73889,"longitude":-73.9897},"review_count":591,"rating":4,"zip_code":"10003"},{"id":"6ujYWjs1FTksvuVxuzjUYA","name":"Almond","cuisine":"American","address":"12 E 22nd St","coordinates":{"latitude":40.7400817871094,"longitude":-73.9887542724609},"review_count":898,"rating":3.5,"zip_code":"10010"},{"id":"u5iwtmfzGCqGYCYOTzQrQA","name":"Midwinter Kitchen","cuisine":"American","address":"327 2nd Ave","coordinates":{"latitude":40.73542,"longitude":-73.98293},"review_count":346,"rating":4.5,"zip_code":"10003"},{"id":"YHGGyH4hn_5UyV1rWgA5hg","name":"Tommy Bahama Restaurant | Bar | Store - New York","cuisine":"American","address":"551 5th Ave","coordinates":{"latitude":40.7553882217953,"longitude":-73.9792002147005},"review_count":493,"rating":4,"zip_code":"10176"},{"id":"N5UY113nNpeKdLPv0cbMjQ","name":"The Wild Son","cuisine":"American","address":"53 Little W 12th St","coordinates":{"latitude":40.74073,"longitude":-74.00836},"review_count":271,"rating":4.5,"zip_code":"10014"},{"id":"owYYuyLvlsdjLz68c3SSfg","name":"Taboonette","cuisine":"American","address":"30 E 13th St","coordinates":{"latitude":40.7347009,"longitude":-73.9927323},"review_count":528,"rating":4,"zip_code":"10003"},{"id":"oopgHvduXbtgwNRmybEhgQ","name":"Sons of Essex","cuisine":"American","address":"133 Essex St","coordinates":{"latitude":40.720315,"longitude":-73.987774},"review_count":929,"rating":4,"zip_code":"10002"},{"id":"7y7E2wavr-HBwEmq2snMLw","name":"Saxon + Parole","cuisine":"American","address":"316 Bowery","coordinates":{"latitude":40.72521,"longitude":-73.99247},"review_count":678,"rating":4,"zip_code":"10012"},{"id":"RW-v9cm9rQZS9cSihuXfvw","name":"Brandy Library","cuisine":"American","address":"25 N Moore St","coordinates":{"latitude":40.720073,"longitude":-74.007227},"review_count":528,"rating":4,"zip_code":"10013"},{"id":"jM32lvyFQYttLJnpT5rXoQ","name":"Momofuku Má Pêche","cuisine":"American","address":"Chambers Hotel","coordinates":{"latitude":40.762963,"longitude":-73.975373},"review_count":1028,"rating":3.5,"zip_code":"10019"},{"id":"R7EGjHWw0tNheY6-ahH8fQ","name":"Tuome","cuisine":"American","address":"536 E 5th St","coordinates":{"latitude":40.72412482724,"longitude":-73.9828906263924},"review_count":327,"rating":4.5,"zip_code":"10009"},{"id":"vscYK65F_MUH8WqACKSdog","name":"The Musket Room","cuisine":"American","address":"265 Elizabeth St","coordinates":{"latitude":40.72392,"longitude":-73.99378},"review_count":332,"rating":4.5,"zip_code":"10012"},{"id":"x7hsZRd_MyrUgAW91FM9qA","name":"Benson's NYC","cuisine":"American","address":"181 Essex St","coordinates":{"latitude":40.7218302,"longitude":-73.9866963},"review_count":277,"rating":4.5,"zip_code":"10002"},{"id":"Xd_l7jtUAZZAAvK8-mI2Jw","name":"The Smith","cuisine":"American","address":"1150 Broadway","coordinates":{"latitude":40.74424,"longitude":-73.98878},"review_count":541,"rating":4,"zip_code":"10010"},{"id":"hDgpiXE5_d4Is1sJ5kUBQg","name":"Wine:30","cuisine":"American","address":"41 E 30th St","coordinates":{"latitude":40.7448157,"longitude":-73.9837861},"review_count":675,"rating":4,"zip_code":"10016"},{"id":"jpw7iGUzsj_AECKt351X8w","name":"Wolfnights","cuisine":"American","address":"99 Rivington St","coordinates":{"latitude":40.7198896,"longitude":-73.9885666},"review_count":429,"rating":4,"zip_code":"10002"},{"id":"Cz6It2NB_QBXCjnlsWGZSA","name":"Boulton & Watt","cuisine":"American","address":"5 Ave A","coordinates":{"latitude":40.7224963,"longitude":-73.986439},"review_count":610,"rating":4,"zip_code":"10009"},{"id":"kWyz_wmazyLRWd3MqWlvqQ","name":"Rattle and Hum","cuisine":"American","address":"14 E 33rd St","coordinates":{"latitude":40.747236,"longitude":-73.984278},"review_count":663,"rating":4,"zip_code":"10016"},{"id":"vwVRoM9gVWuwJw1_6xfyag","name":"The Summit Bar","cuisine":"American","address":"133 Avenue C","coordinates":{"latitude":40.72503,"longitude":-73.9784584},"review_count":375,"rating":4,"zip_code":"10009"},{"id":"3Gz07E5YJjDTJPSuzsAStQ","name":"Ocean Prime","cuisine":"American","address":"123 W 52nd St","coordinates":{"latitude":40.76173,"longitude":-73.98063},"review_count":309,"rating":4.5,"zip_code":"10019"},{"id":"7Oq1UdUHUGZGH_QI6N-0LQ","name":"Hearth","cuisine":"American","address":"403 E 12th St","coordinates":{"latitude":40.7300466,"longitude":-73.9832498},"review_count":635,"rating":4,"zip_code":"10009"},{"id":"2wQsfQkorp9L03vPEFAZJw","name":"Hudson Clearwater","cuisine":"American","address":"447 Hudson St","coordinates":{"latitude":40.73109,"longitude":-74.00699},"review_count":472,"rating":4,"zip_code":"10014"},{"id":"puIxzUYl8hhVfWJRaMsZcA","name":"The Mercer Kitchen","cuisine":"American","address":"99 Prince St","coordinates":{"latitude":40.72481,"longitude":-73.99876},"review_count":1406,"rating":3.5,"zip_code":"10012"},{"id":"jvPYm9rYK-5ddnjU30Oz4Q","name":"Avant Garden","cuisine":"American","address":"130 E 7th St","coordinates":{"latitude":40.7261499,"longitude":-73.98402},"review_count":213,"rating":4.5,"zip_code":"10009"},{"id":"B8R7R6AMs5yC12oc494hcA","name":"The Cannibal Beer & Butcher","cuisine":"American","address":"113 E 29th St","coordinates":{"latitude":40.74378,"longitude":-73.982649},"review_count":484,"rating":4,"zip_code":"10016"},{"id":"OiSjFh06dsNonI0cPXMSOw","name":"Bondurants","cuisine":"American","address":"303 E 85th St","coordinates":{"latitude":40.777292,"longitude":-73.951854},"review_count":424,"rating":4,"zip_code":"10028"},{"id":"0ALbdMnTBX0vkSPLzIDMlw","name":"Corkbuzz Wine Studio","cuisine":"American","address":"13 E 13th St","coordinates":{"latitude":40.73501,"longitude":-73.99314},"review_count":356,"rating":4,"zip_code":"10003"},{"id":"YMHxv6VFriKz1KevVXl0Cw","name":"Gallow Green","cuisine":"American","address":"542 W 27th St","coordinates":{"latitude":40.7508871,"longitude":-74.0041249},"review_count":621,"rating":3.5,"zip_code":"10001"},{"id":"PnGSE8JGbMZKtdHi9go7Kg","name":"The Milling Room","cuisine":"American","address":"446 Columbus Ave","coordinates":{"latitude":40.7835485472543,"longitude":-73.9744088718635},"review_count":312,"rating":4.5,"zip_code":"10024"},{"id":"Z6izDRJONqb0jHP8DMhgJg","name":"Chefs Club","cuisine":"American","address":"275 Mulberry St","coordinates":{"latitude":40.7242753115717,"longitude":-73.9953147647292},"review_count":348,"rating":4,"zip_code":"10012"},{"id":"NTwOc9yQ1xl5deeVzZqxfw","name":"Tavern29","cuisine":"American","address":"47 E 29th St","coordinates":{"latitude":40.74431,"longitude":-73.98394},"review_count":725,"rating":4,"zip_code":"10016"},{"id":"SH1j1nOkHXcC-avHBIWqDw","name":"The Grey Dog - Nolita","cuisine":"American","address":"244 Mulberry St","coordinates":{"latitude":40.7229552925316,"longitude":-73.9957295673222},"review_count":476,"rating":4,"zip_code":"10012"},{"id":"-vF3hX7v1R4oAjfNgifZvA","name":"Feast","cuisine":"American","address":"102 3rd Ave","coordinates":{"latitude":40.7325189,"longitude":-73.9881274},"review_count":385,"rating":4,"zip_code":"10003"},{"id":"M2wnfA4K3DVwuAv0DCPTdQ","name":"Covina","cuisine":"American","address":"127 E 27th St","coordinates":{"latitude":40.7423054,"longitude":-73.9832149},"review_count":246,"rating":4.5,"zip_code":"10016"},{"id":"kMljfja7weqfl_lzspjzHA","name":"Cafe Cluny","cuisine":"American","address":"284 W 12th St","coordinates":{"latitude":40.737385,"longitude":-74.003966},"review_count":654,"rating":4,"zip_code":"10014"},{"id":"zUv1BNm_a9-3DkxrCG3tng","name":"Friedman's","cuisine":"American","address":"450 10th Ave","coordinates":{"latitude":40.755311,"longitude":-73.998389},"review_count":415,"rating":4,"zip_code":"10018"},{"id":"6vEOMyq9Zb7QVqBecvgY_A","name":"Maysville","cuisine":"American","address":"17 W 26th St","coordinates":{"latitude":40.7442415033062,"longitude":-73.9897458650818},"review_count":497,"rating":4,"zip_code":"10010"},{"id":"F4vv1nvkqN8ktbn_a4lj1g","name":"Asiate","cuisine":"American","address":"80 Columbus Cir","coordinates":{"latitude":40.7689502648012,"longitude":-73.9831059158054},"review_count":486,"rating":4,"zip_code":"10023"},{"id":"kC6VZfrwFvav9PryA3eRCA","name":"Bar SixtyFive","cuisine":"American","address":"30 Rockefeller Plz","coordinates":{"latitude":40.7591284113218,"longitude":-73.9796703204086},"review_count":240,"rating":4.5,"zip_code":"10112"},{"id":"rCpO-kMHljieU0geK0RJQw","name":"Noreetuh","cuisine":"American","address":"128 1st Ave","coordinates":{"latitude":40.7272682,"longitude":-73.9852219},"review_count":347,"rating":4,"zip_code":"10009"},{"id":"a0AvIH1UnFmqAXhZDEQtrw","name":"Tocqueville Restaurant","cuisine":"American","address":"1 E 15th St","coordinates":{"latitude":40.7366267514796,"longitude":-73.9926824178943},"review_count":317,"rating":4,"zip_code":"10003"},{"id":"tOn-wEQ06ScrgeU5Ljw7Gw","name":"Alfie's","cuisine":"American","address":"800 9th Ave","coordinates":{"latitude":40.765437,"longitude":-73.987278},"review_count":429,"rating":4,"zip_code":"10019"},{"id":"1raNn0l3I4H9PcAJce69Sw","name":"Sojourn","cuisine":"American","address":"244 E 79th St","coordinates":{"latitude":40.77343,"longitude":-73.95568},"review_count":513,"rating":4,"zip_code":"10075"},{"id":"9M5AX_NthLQADRCcspua7Q","name":"Delicatessen","cuisine":"American","address":"54 Prince St","coordinates":{"latitude":40.7235331792628,"longitude":-73.9963895840614},"review_count":1077,"rating":3.5,"zip_code":"10012"},{"id":"63nYipWuA42RZmESBMUNkQ","name":"The Bluebell Cafe","cuisine":"American","address":"293 3rd Ave","coordinates":{"latitude":40.73845,"longitude":-73.98321},"review_count":530,"rating":4,"zip_code":"10010"},{"id":"w7iv-eE7jCNKV9EBmRdkVw","name":"Rocket Pig","cuisine":"American","address":"463 W 24th St","coordinates":{"latitude":40.74834,"longitude":-74.00338},"review_count":193,"rating":4.5,"zip_code":"10001"},{"id":"luA6pI0K6AWU_ivxqykdiA","name":"44 & X Hell's Kitchen","cuisine":"American","address":"622 10th Ave","coordinates":{"latitude":40.7611032,"longitude":-73.9941787},"review_count":743,"rating":3.5,"zip_code":"10036"},{"id":"0Bm2vjJW5Fw7_Maer6kDUw","name":"Melt Shop","cuisine":"American","address":"135 W 50th St","coordinates":{"latitude":40.76062,"longitude":-73.98192},"review_count":448,"rating":4,"zip_code":"10020"},{"id":"d-DQwNxs77Pah2ys0q7w1Q","name":"American Cut Steakhouse","cuisine":"American","address":"363 Greenwich St","coordinates":{"latitude":40.71915,"longitude":-74.00994},"review_count":475,"rating":4,"zip_code":"10013"},{"id":"TYKqS9eoC4xiixTNP_xsMQ","name":"STK Downtown","cuisine":"American","address":"26 Little W 12th St","coordinates":{"latitude":40.73988,"longitude":-74.0072},"review_count":936,"rating":3.5,"zip_code":"10014"},{"id":"qLLxS7RwNEjP_jq_KQrPfA","name":"Traif","cuisine":"American","address":"229 S 4th St","coordinates":{"latitude":40.710658,"longitude":-73.958872},"review_count":1734,"rating":4.5,"zip_code":"11211"},{"id":"xbrQ2dHuQoFJmNxAuOky4A","name":"Vic's","cuisine":"American","address":"31 Great Jones St","coordinates":{"latitude":40.72683,"longitude":-73.99328},"review_count":328,"rating":4,"zip_code":"10012"},{"id":"S4Euw4DYSqeU4KcteFXqHg","name":"The Little Beet Table","cuisine":"American","address":"333 Park Ave S","coordinates":{"latitude":40.74116,"longitude":-73.98545},"review_count":392,"rating":4,"zip_code":"10010"},{"id":"IixurYOSr0oQsv7Am-H4eQ","name":"The Crooked Tree","cuisine":"American","address":"110 Saint Marks Pl","coordinates":{"latitude":40.72694,"longitude":-73.98434},"review_count":384,"rating":4,"zip_code":"10009"},{"id":"fc8op9vARoRwfTSXzs4ShQ","name":"The Green Table","cuisine":"American","address":"75 9th Ave","coordinates":{"latitude":40.7424814823856,"longitude":-74.0058920192666},"review_count":522,"rating":4,"zip_code":"10011"},{"id":"5NRZM0Z8pMOno5VgpCPFzA","name":"Thalia","cuisine":"American","address":"828 8th Ave","coordinates":{"latitude":40.7621150199429,"longitude":-73.9859832636592},"review_count":768,"rating":3.5,"zip_code":"10019"},{"id":"JXcYD52B4190gIh6_RSXCg","name":"Lilly's Craft and Kitchen","cuisine":"American","address":"675 9th Ave","coordinates":{"latitude":40.76138,"longitude":-73.99071},"review_count":408,"rating":4,"zip_code":"10036"},{"id":"oSAiyZF-xTqdRkwN5KrV_Q","name":"Del Frisco's Grille","cuisine":"American","address":"50 Rockefeller Plz","coordinates":{"latitude":40.7596424,"longitude":-73.9783362},"review_count":572,"rating":3.5,"zip_code":"10020"},{"id":"qMHzIYzoHYe55I7L65iEQw","name":"Foragers Table","cuisine":"American","address":"233 8th Ave","coordinates":{"latitude":40.744541,"longitude":-73.9990926},"review_count":450,"rating":4,"zip_code":"10011"},{"id":"eTR6nfHvQzvKX7Dcd6JrfA","name":"District Social","cuisine":"American","address":"252 W 37th St","coordinates":{"latitude":40.7535743713379,"longitude":-73.9914321899414},"review_count":372,"rating":4,"zip_code":"10018"},{"id":"P2CTp4xyaNCe2AXSiLeOSQ","name":"The Odeon","cuisine":"American","address":"145 W Broadway","coordinates":{"latitude":40.71692,"longitude":-74.00792},"review_count":546,"rating":4,"zip_code":"10013"},{"id":"5UxJoqkdYrUEjArx8YITMw","name":"Atlantic Grill","cuisine":"American","address":"49 W 64th St","coordinates":{"latitude":40.7720441790118,"longitude":-73.9814548431266},"review_count":495,"rating":4,"zip_code":"10023"},{"id":"AKHA6ZU8uM3vmLwH2hqH_A","name":"Loring Place","cuisine":"American","address":"21 W 8th St","coordinates":{"latitude":40.73299,"longitude":-73.99754},"review_count":218,"rating":4.5,"zip_code":"10011"},{"id":"scjoZtbTQHi35xhAlUm2iQ","name":"L'ADRESSE","cuisine":"American","address":"1065 Ave Of The Americas","coordinates":{"latitude":40.7538691176513,"longitude":-73.9850637753937},"review_count":238,"rating":4,"zip_code":"10018"},{"id":"AcbabScZqRVPwC-aaim0Fw","name":"The Park","cuisine":"American","address":"118 10th Ave","coordinates":{"latitude":40.744191,"longitude":-74.006297},"review_count":1639,"rating":3,"zip_code":"10011"},{"id":"uBhLATTsbHYzR5kwjQIvwQ","name":"Landmarc at the Time Warner Center","cuisine":"American","address":"10 Columbus Cir","coordinates":{"latitude":40.768939,"longitude":-73.98276},"review_count":986,"rating":3.5,"zip_code":"10019"},{"id":"nMWqlWid2YfDeutioit_0w","name":"Bill's Bar & Burger","cuisine":"American","address":"16 W 51st St","coordinates":{"latitude":40.7592895642551,"longitude":-73.9775347709656},"review_count":965,"rating":3.5,"zip_code":"10019"},{"id":"z8j7rx9RpkR5vQjFumUP7A","name":"Cornelia Street Cafe","cuisine":"American","address":"29 Cornelia St","coordinates":{"latitude":40.7315,"longitude":-74.00249},"review_count":628,"rating":3.5,"zip_code":"10014"},{"id":"AFaUZLXXTSlh19y2mks0eA","name":"Georgio's Country Grill","cuisine":"American","address":"801 9th Ave","coordinates":{"latitude":40.7655982971191,"longitude":-73.9878158569336},"review_count":561,"rating":3.5,"zip_code":"10019"},{"id":"8lLs3dsSN-Am2_EtNfbXqA","name":"Community Food & Juice","cuisine":"American","address":"2893 Broadway","coordinates":{"latitude":40.8057975769043,"longitude":-73.9656753540039},"review_count":813,"rating":3.5,"zip_code":"10025"},{"id":"M7FR0flXH4yUq5Gh7-7Vog","name":"Fedora","cuisine":"American","address":"239 W 4th St","coordinates":{"latitude":40.73457,"longitude":-74.00306},"review_count":314,"rating":4,"zip_code":"10014"},{"id":"KoGN70ndDHkJmMXiDCBS3A","name":"BG Restaurant","cuisine":"American","address":"754 5th Ave","coordinates":{"latitude":40.76359,"longitude":-73.97374},"review_count":306,"rating":4,"zip_code":"10019"},{"id":"4D8t3t1gyCdqfOjTI5t6JQ","name":"Hill and Dale","cuisine":"American","address":"115 Allen St","coordinates":{"latitude":40.719597,"longitude":-73.990546},"review_count":392,"rating":4,"zip_code":"10002"},{"id":"MyQV4i518ZO4CLudtR8gLA","name":"The Bar Room","cuisine":"American","address":"117 E 60th St","coordinates":{"latitude":40.763409,"longitude":-73.968449},"review_count":390,"rating":4,"zip_code":"10022"},{"id":"GCAQmtRdNhqVit5KGJ46Qg","name":"Estela","cuisine":"American","address":"47 E Houston St","coordinates":{"latitude":40.724759,"longitude":-73.994728},"review_count":414,"rating":4,"zip_code":"10012"},{"id":"o5HNVvccTdsiGjT4Pubddg","name":"Wallflower","cuisine":"American","address":"235 W 12th St","coordinates":{"latitude":40.7377405,"longitude":-74.0021002},"review_count":217,"rating":4.5,"zip_code":"10014"},{"id":"ryng69yOCoveA68KE6jl-Q","name":"STK Midtown","cuisine":"American","address":"1114 Avenue of the Americas","coordinates":{"latitude":40.7550757601193,"longitude":-73.9829850196838},"review_count":633,"rating":3.5,"zip_code":"10036"},{"id":"DodCeSN_hkXCJDoJ0uVxKg","name":"Nix","cuisine":"American","address":"72 University Pl","coordinates":{"latitude":40.733268,"longitude":-73.993713},"review_count":334,"rating":4,"zip_code":"10003"},{"id":"ZhbHXqkEYNKLAbamW5peJQ","name":"Narcissa","cuisine":"American","address":"25 Cooper Sq","coordinates":{"latitude":40.7279081084989,"longitude":-73.9909284946934},"review_count":422,"rating":4,"zip_code":"10003"},{"id":"btDc58odxR_71u8RCtQwOw","name":"Dig Inn","cuisine":"American","address":"40 W 55th St","coordinates":{"latitude":40.7623202,"longitude":-73.976755},"review_count":409,"rating":4,"zip_code":"10019"},{"id":"4hukJNoy9F2ILYJZWl4Xlw","name":"Set L.E.S","cuisine":"American","address":"127 Ludlow St","coordinates":{"latitude":40.7198495417833,"longitude":-73.9885318279266},"review_count":303,"rating":4,"zip_code":"10002"},{"id":"y6XohzcYjUAQOD8U3NT_yw","name":"The Stag's Head","cuisine":"American","address":"252 E 51st St","coordinates":{"latitude":40.755592,"longitude":-73.968588},"review_count":388,"rating":4,"zip_code":"10022"},{"id":"n-JSnKZcF1Bs-RPcIlb0qw","name":"Elephant & Castle","cuisine":"American","address":"68 Greenwich Ave","coordinates":{"latitude":40.736236,"longitude":-74.000671},"review_count":496,"rating":4,"zip_code":"10011"},{"id":"BSv3awhABROYjjwlQaQ-Qw","name":"Tiny's & the Bar Upstairs","cuisine":"American","address":"135 W Broadway","coordinates":{"latitude":40.716698,"longitude":-74.00816},"review_count":467,"rating":4,"zip_code":"10013"},{"id":"hKdvsbuQRtjajWYwjaoOQw","name":"Tavern on the Green","cuisine":"American","address":"67 Central Park W","coordinates":{"latitude":40.772194,"longitude":-73.9776},"review_count":982,"rating":3.5,"zip_code":"10023"},{"id":"R15b1EaOvR3xe9xLacMJdg","name":"DB Bistro Moderne","cuisine":"American","address":"55 W 44th St","coordinates":{"latitude":40.75594,"longitude":-73.98211},"review_count":614,"rating":3.5,"zip_code":"10036"},{"id":"pDUQF3IgvqZfT31luMgwTA","name":"CK14  The Crooked Knife","cuisine":"American","address":"232 W 14th St","coordinates":{"latitude":40.739015,"longitude":-74.001506},"review_count":413,"rating":4,"zip_code":"10011"},{"id":"zX4R11dsiD3Mmfd9HqZiLQ","name":"Dig Inn","cuisine":"American","address":"1178 Broadway","coordinates":{"latitude":40.74531,"longitude":-73.98852},"review_count":298,"rating":4,"zip_code":"10001"},{"id":"uCsyRxfIfiRqQQuK_JlfZA","name":"Harlem Tavern","cuisine":"American","address":"2153 Frederick Douglass Blvd","coordinates":{"latitude":40.8047,"longitude":-73.95558},"review_count":1021,"rating":3.5,"zip_code":"10026"},{"id":"Jhx4OoFjXFp0YxqbW0KQog","name":"Butter Midtown","cuisine":"American","address":"70 W 45th St","coordinates":{"latitude":40.7562781,"longitude":-73.9823303},"review_count":734,"rating":3.5,"zip_code":"10036"},{"id":"zn4PW7NVdgCvg7vxVXQ_Qg","name":"PS 450","cuisine":"American","address":"450 Park Ave S","coordinates":{"latitude":40.74489,"longitude":-73.983032},"review_count":893,"rating":3,"zip_code":"10016"},{"id":"6Guo-aozyLnQFtAuP8ZXZg","name":"Queens Comfort","cuisine":"American","address":"3618 30th Ave","coordinates":{"latitude":40.764518,"longitude":-73.916909},"review_count":1795,"rating":4,"zip_code":"11103"},{"id":"L5QhUDjbVD5hRh0e0kfUeQ","name":"Annabel","cuisine":"American","address":"809 9th Ave","coordinates":{"latitude":40.765841,"longitude":-73.987619},"review_count":278,"rating":4,"zip_code":"10019"},{"id":"os09iVkYkzIg9G1xEIepiA","name":"Momofuku Nishi","cuisine":"American","address":"232 8th Ave","coordinates":{"latitude":40.7443479,"longitude":-73.9988054},"review_count":392,"rating":4,"zip_code":"10011"},{"id":"YgQ1AVY9JLSMjSRX3Hzj1g","name":"LIC Market","cuisine":"American","address":"21-52 44th Dr","coordinates":{"latitude":40.74745,"longitude":-73.94552},"review_count":680,"rating":4,"zip_code":"11101"},{"id":"NRcffNvufYo2Jul0h24_qw","name":"Bryant Park Grill","cuisine":"American","address":"25 W 40th St","coordinates":{"latitude":40.7531844154514,"longitude":-73.982928054245},"review_count":785,"rating":3.5,"zip_code":"10018"},{"id":"4TLA47W1Z2xHKNQTjMHfYg","name":"Elmo","cuisine":"American","address":"156 7th Ave","coordinates":{"latitude":40.742,"longitude":-73.99755},"review_count":641,"rating":3.5,"zip_code":"10011"},{"id":"Xq9uOJz0U1iugBqRoQt1hA","name":"Tír na Nóg","cuisine":"American","address":"315 W 39th St","coordinates":{"latitude":40.75585,"longitude":-73.99214},"review_count":315,"rating":4,"zip_code":"10018"},{"id":"nm5rcWNmfevNXLNQAITi5w","name":"Clinton Hall","cuisine":"American","address":"90 Washington St","coordinates":{"latitude":40.70803,"longitude":-74.014869},"review_count":426,"rating":4,"zip_code":"10006"},{"id":"Nz3ednIoYXg1NwOn7jnTOQ","name":"The Counter","cuisine":"American","address":"7 Times Square","coordinates":{"latitude":40.7554585,"longitude":-73.9869055},"review_count":713,"rating":3.5,"zip_code":"10036"},{"id":"Phi_yESeDQJduuMDdwX4ZA","name":"Slane","cuisine":"American","address":"384 3rd Ave","coordinates":{"latitude":40.74184,"longitude":-73.9814},"review_count":415,"rating":4,"zip_code":"10016"},{"id":"T-ciFE0hc6O2JDY8Y1cDgg","name":"Foxy Johns Bar & Kitchen","cuisine":"American","address":"143 E 47th St","coordinates":{"latitude":40.75445,"longitude":-73.97274},"review_count":208,"rating":4,"zip_code":"10017"},{"id":"9Ck47L49P2QK-3wv-BiFrA","name":"Tipsy Parson","cuisine":"American","address":"156 9th Ave","coordinates":{"latitude":40.74423,"longitude":-74.0026},"review_count":564,"rating":3.5,"zip_code":"10011"},{"id":"V_6vz43QxigVJS-afdbtoQ","name":"Union Bar & Kitchen","cuisine":"American","address":"300 Spring St","coordinates":{"latitude":40.72572,"longitude":-74.00798},"review_count":262,"rating":4,"zip_code":"10013"},{"id":"sooTvMm8hrbHtJkxnu943A","name":"Redeye Grill","cuisine":"American","address":"890 7th Ave","coordinates":{"latitude":40.765225820596,"longitude":-73.980664908886},"review_count":496,"rating":3.5,"zip_code":"10106"},{"id":"BEYmqrP1_TC0nhnTGKkkJg","name":"Ella Kitchen & Bar","cuisine":"American","address":"249 Columbus Ave","coordinates":{"latitude":40.7770496467021,"longitude":-73.9788913948279},"review_count":345,"rating":4,"zip_code":"10023"},{"id":"kDJbzzmCEjFbyDQ-lSygvw","name":"Fresh Salt","cuisine":"American","address":"146 Beekman St","coordinates":{"latitude":40.70707,"longitude":-74.00244},"review_count":357,"rating":4,"zip_code":"10038"},{"id":"E2mNgb479B3BCfwi2G_KdQ","name":"Flat Top","cuisine":"American","address":"1241 Amsterdam Ave","coordinates":{"latitude":40.810041,"longitude":-73.958693},"review_count":359,"rating":4,"zip_code":"10027"},{"id":"p5JbHNDAXBJpqcGTsmTMBQ","name":"Mother's Ruin","cuisine":"American","address":"18 Spring St","coordinates":{"latitude":40.72127,"longitude":-73.99503},"review_count":393,"rating":3.5,"zip_code":"10012"},{"id":"Li52Rr6BM4bGNYdpn7H8_w","name":"Cooper's Craft & Kitchen","cuisine":"American","address":"169 8th Ave","coordinates":{"latitude":40.742702,"longitude":-74.000778},"review_count":313,"rating":4,"zip_code":"10011"},{"id":"38YuedP0ItlKbC-ncJ1XCQ","name":"Tavern on Jane","cuisine":"American","address":"31 8th Ave","coordinates":{"latitude":40.73822,"longitude":-74.00426},"review_count":368,"rating":4,"zip_code":"10014"},{"id":"t7xqAMBQNH4ppsPSOMzFyg","name":"Treadwell Park","cuisine":"American","address":"1125 1st Ave","coordinates":{"latitude":40.7614,"longitude":-73.9609},"review_count":277,"rating":4,"zip_code":"10065"},{"id":"UmbueYC2QcDFJy6ju7M6dw","name":"Porter House Bar and Grill","cuisine":"American","address":"10 Columbus Cir","coordinates":{"latitude":40.7689230155194,"longitude":-73.9826309680939},"review_count":531,"rating":3.5,"zip_code":"10019"},{"id":"CWl-eedNeE6tEPNTz52nZA","name":"Macbar","cuisine":"American","address":"54 Prince St","coordinates":{"latitude":40.72351,"longitude":-73.99629},"review_count":636,"rating":3.5,"zip_code":"10012"},{"id":"nC4HwtW5_nDICBAVPqN9pw","name":"Sagaponack Bar & Grill","cuisine":"American","address":"4 W 22nd St","coordinates":{"latitude":40.7409324645996,"longitude":-73.9907836914062},"review_count":202,"rating":4,"zip_code":"10010"},{"id":"r-EDS_eO70HUgDmOk5_8Qw","name":"Juniper","cuisine":"American","address":"237 W 35th St","coordinates":{"latitude":40.752472,"longitude":-73.991463},"review_count":377,"rating":4,"zip_code":"10001"},{"id":"0Q3xCYWK2N-wJfXjLa9dFg","name":"Bâtard","cuisine":"American","address":"239 West Broadway","coordinates":{"latitude":40.7195533039813,"longitude":-74.0057982895201},"review_count":283,"rating":4,"zip_code":"10013"},{"id":"8fn5gUBncPJifhsEKmAejQ","name":"The Fat Radish","cuisine":"American","address":"17 Orchard St","coordinates":{"latitude":40.715293924183,"longitude":-73.9917185036817},"review_count":501,"rating":3.5,"zip_code":"10002"},{"id":"_eZPWzxHhAEEaJ7CXYavCA","name":"El Rey Coffee And Luncheonette","cuisine":"American","address":"100 Stanton","coordinates":{"latitude":40.7213779,"longitude":-73.9879345},"review_count":193,"rating":4,"zip_code":"10002"},{"id":"51_f1MyuRFpEIpzb57YmEA","name":"Hendriks","cuisine":"American","address":"557 3rd Ave","coordinates":{"latitude":40.747395,"longitude":-73.97649},"review_count":304,"rating":4,"zip_code":"10016"},{"id":"fSQ3CCtFSJ2S8VXDi02-3Q","name":"Cafe Luxembourg","cuisine":"American","address":"200 W 70th St","coordinates":{"latitude":40.7774217133356,"longitude":-73.9831341388358},"review_count":413,"rating":4,"zip_code":"10023"},{"id":"Lw044EfH1h3XhUhri3ExfA","name":"BLACKBARN","cuisine":"American","address":"19 E 26th St","coordinates":{"latitude":40.7431036278527,"longitude":-73.9870538457459},"review_count":367,"rating":4,"zip_code":"10010"},{"id":"qFw918xVIktxYVWL5mpUEg","name":"Friedman's Lunch","cuisine":"American","address":"75 9th Ave","coordinates":{"latitude":40.7426318197007,"longitude":-74.0062284491822},"review_count":526,"rating":3.5,"zip_code":"10011"},{"id":"mWi1AZgb8HJjDsnz5lXsLA","name":"Hunt & Fish Club","cuisine":"American","address":"125 W 44th St","coordinates":{"latitude":40.75673,"longitude":-73.9843},"review_count":315,"rating":4,"zip_code":"10036"},{"id":"oCeDS1HexV3bWSJLxmjqXQ","name":"Onieals Grand Street","cuisine":"American","address":"174 Grand St","coordinates":{"latitude":40.71971,"longitude":-73.99785},"review_count":292,"rating":4,"zip_code":"10013"},{"id":"2lOF2K5CoZ1QqmfRNF_mcA","name":"Ryan's Daughter","cuisine":"American","address":"350 E 85th St","coordinates":{"latitude":40.77628,"longitude":-73.95048},"review_count":216,"rating":4,"zip_code":"10028"},{"id":"Xu8H24NxJJxEE-9wGp_AMA","name":"The Brazen Tavern","cuisine":"American","address":"356 W 44th St","coordinates":{"latitude":40.7593269348145,"longitude":-73.9913101196289},"review_count":206,"rating":4,"zip_code":"10036"},{"id":"8IRT0TGqsc9Ng27f_TFhnQ","name":"Spiegel","cuisine":"American","address":"26 1st Ave","coordinates":{"latitude":40.723690032959,"longitude":-73.9877853393555},"review_count":244,"rating":4,"zip_code":"10009"},{"id":"kkyHnaqIBW7WaJ-z_YooCA","name":"Untitled","cuisine":"American","address":"99 Gansevoort St","coordinates":{"latitude":40.7394209890756,"longitude":-74.0085880969783},"review_count":228,"rating":4,"zip_code":"10014"},{"id":"KfGUOaZobIxU5zVzLdgvdA","name":"Nickel & Diner","cuisine":"American","address":"1 Howard St","coordinates":{"latitude":40.7189312923323,"longitude":-73.9994524691619},"review_count":273,"rating":4,"zip_code":"10013"},{"id":"oBcqZs0CAZjsLuMB-mNJ6A","name":"Sticky's Finger Joint","cuisine":"American","address":"484 3rd Ave","coordinates":{"latitude":40.7450537283956,"longitude":-73.9788596423278},"review_count":318,"rating":4,"zip_code":"10016"},{"id":"Y95SZ-ancPj62E-q5OGmMQ","name":"Dig Inn","cuisine":"American","address":"275 Madison Ave","coordinates":{"latitude":40.7512672314928,"longitude":-73.9802131576778},"review_count":348,"rating":4,"zip_code":"10016"},{"id":"3xJAmXIUO8cRSnPcUoMdCw","name":"Spring Natural Restaurant","cuisine":"American","address":"98 Kenmare St","coordinates":{"latitude":40.7212623953819,"longitude":-73.9969895035028},"review_count":715,"rating":3.5,"zip_code":"10012"},{"id":"FFwDFLVBTQvuacl4l1ODew","name":"Gentleman Farmer","cuisine":"American","address":"40 Rivington St","coordinates":{"latitude":40.7210141970542,"longitude":-73.9910638332367},"review_count":240,"rating":4,"zip_code":"10002"},{"id":"vYGi3439teYg1wPzqVcHUA","name":"Grand Banks","cuisine":"American","address":"Pier 25","coordinates":{"latitude":40.7203368579858,"longitude":-74.0161881289114},"review_count":300,"rating":4,"zip_code":"10013"},{"id":"trbr9pYDDmXCj9z8m2d6LQ","name":"Smoke Jazz & Supper Club","cuisine":"American","address":"2751 Broadway","coordinates":{"latitude":40.8012384,"longitude":-73.9681818},"review_count":320,"rating":4,"zip_code":"10025"},{"id":"ddMGbYACeF6O-u6qFca2KQ","name":"44 1/2","cuisine":"American","address":"626 10th Ave","coordinates":{"latitude":40.76108,"longitude":-73.99419},"review_count":436,"rating":3.5,"zip_code":"10036"},{"id":"TWVmYLuG-w6fsrzKpmX6XQ","name":"Brasserie 8 1/2","cuisine":"American","address":"9 W 57th St","coordinates":{"latitude":40.7638,"longitude":-73.97518},"review_count":387,"rating":3.5,"zip_code":"10019"},{"id":"nHU9WZRVASyqguAIqLXK8w","name":"Made Nice","cuisine":"American","address":"8 W 28th St","coordinates":{"latitude":40.74481,"longitude":-73.98818},"review_count":188,"rating":4,"zip_code":"10001"},{"id":"xh9vrGDaAQIfhlDUJliJsw","name":"The Trailer Park Lounge","cuisine":"American","address":"271 W 23rd St","coordinates":{"latitude":40.74532,"longitude":-73.99782},"review_count":568,"rating":3.5,"zip_code":"10011"},{"id":"eoz2NahxyivVRs8Ll9Ljjg","name":"Aldo Sohm Wine Bar","cuisine":"American","address":"151 W 51st St","coordinates":{"latitude":40.7613464555977,"longitude":-73.9811449219513},"review_count":184,"rating":4,"zip_code":"10019"},{"id":"Oq1mej1BYfjcdPKkM_5o8g","name":"High Street On Hudson","cuisine":"American","address":"637 Hudson St","coordinates":{"latitude":40.73888,"longitude":-74.00574},"review_count":298,"rating":4,"zip_code":"10014"},{"id":"0U8gOnAAVEDzVtXy8x2mbg","name":"The Sea Grill","cuisine":"American","address":"19 W 49th St","coordinates":{"latitude":40.7585418305194,"longitude":-73.9785391916665},"review_count":296,"rating":4,"zip_code":"10020"},{"id":"w2Bt2DkJu7tiX2KzqlO0NQ","name":"Bar Sardine","cuisine":"American","address":"183 W 10th St","coordinates":{"latitude":40.7343842119037,"longitude":-74.0027010019169},"review_count":181,"rating":4,"zip_code":"10014"},{"id":"s4_ruNWE136n8awcA9oBbA","name":"The Smile","cuisine":"American","address":"26 Bond St","coordinates":{"latitude":40.726621,"longitude":-73.993545},"review_count":426,"rating":3.5,"zip_code":"10012"},{"id":"1Q3oaJahyGRogDWgpo7PIw","name":"Five Leaves","cuisine":"American","address":"18 Bedford Ave","coordinates":{"latitude":40.72371830945,"longitude":-73.95159863632},"review_count":1429,"rating":4,"zip_code":"11222"},{"id":"pV-f6jq8mqNWymbPyPNmzg","name":"BOBO","cuisine":"American","address":"181 W 10th St","coordinates":{"latitude":40.73449,"longitude":-74.0026199},"review_count":424,"rating":3.5,"zip_code":"10014"},{"id":"ED2I3t5rOf81cddCsLA4tw","name":"Terroir Tribeca","cuisine":"American","address":"24 Harrison St","coordinates":{"latitude":40.718804998517,"longitude":-74.0099987815497},"review_count":248,"rating":4,"zip_code":"10013"},{"id":"MHtbBc2np3sR7jiV9GphNg","name":"Tribeca's Kitchen","cuisine":"American","address":"200 Church St","coordinates":{"latitude":40.7162705535921,"longitude":-74.0072225927912},"review_count":281,"rating":4,"zip_code":"10013"},{"id":"F0MuzanyO6YEen8VtP5LOg","name":"Pennsylvania 6 NYC","cuisine":"American","address":"132 W 31st St","coordinates":{"latitude":40.7483655239542,"longitude":-73.9907944748688},"review_count":341,"rating":4,"zip_code":"10001"},{"id":"l5_AVUx_Er6nl_YOu4RJrg","name":"Punch","cuisine":"American","address":"913 Broadway","coordinates":{"latitude":40.7396,"longitude":-73.9898},"review_count":409,"rating":3.5,"zip_code":"10010"},{"id":"5K0b-fEk96xUJCV_5ytNog","name":"Contra","cuisine":"American","address":"138 Orchard St","coordinates":{"latitude":40.719878,"longitude":-73.989063},"review_count":243,"rating":4,"zip_code":"10002"},{"id":"1gK-0_lGqjxbwiHWcXXdzg","name":"ABCV","cuisine":"American","address":"38 E 19th St","coordinates":{"latitude":40.7379039812942,"longitude":-73.9888740099824},"review_count":222,"rating":4,"zip_code":"10003"},{"id":"fEig4z0y_qCMRLvW7HRuqA","name":"Harding's","cuisine":"American","address":"32 E 21st St","coordinates":{"latitude":40.73938,"longitude":-73.98871},"review_count":294,"rating":4,"zip_code":"10010"},{"id":"vtKxYnrZld4w6wG82Vm4pg","name":"Tribeca Grill","cuisine":"American","address":"375 Greenwich St","coordinates":{"latitude":40.7195,"longitude":-74.009819},"review_count":543,"rating":3.5,"zip_code":"10013"},{"id":"Gn7oaWjBoEGHe1_bfsBikg","name":"Virginia's","cuisine":"American","address":"647 E 11th St","coordinates":{"latitude":40.72666,"longitude":-73.9773},"review_count":141,"rating":4,"zip_code":"10009"},{"id":"j3HLOkrjzBjcvYPiIHua1A","name":"Jasper's Taphouse + Kitchen","cuisine":"American","address":"761 9th Ave","coordinates":{"latitude":40.764266,"longitude":-73.9886122},"review_count":234,"rating":4,"zip_code":"10019"},{"id":"ygl43IfAeM8X4XYlSTr90w","name":"Clyde Frazier's Wine and Dine","cuisine":"American","address":"485 10th Ave","coordinates":{"latitude":40.756784795428,"longitude":-73.9979356060821},"review_count":448,"rating":3.5,"zip_code":"10018"},{"id":"gz6KhGs-NHVPvYDMEFVHCA","name":"Rose and Basil","cuisine":"American","address":"104 E 7th St","coordinates":{"latitude":40.7265658172408,"longitude":-73.9851362389845},"review_count":216,"rating":4,"zip_code":"10009"},{"id":"WDCA17TmVOAMWgMLHc2E6Q","name":"Bo's Kitchen & Bar Room","cuisine":"American","address":"6 W 24th St","coordinates":{"latitude":40.7426259948421,"longitude":-73.9902863558197},"review_count":298,"rating":4,"zip_code":"10010"},{"id":"tRZcEKBNNwiZw1_Px_POag","name":"Smith and Mills","cuisine":"American","address":"71 N Moore St","coordinates":{"latitude":40.7201345264912,"longitude":-74.0098889172077},"review_count":259,"rating":4,"zip_code":"10013"},{"id":"ZS4d0-qFwDwV7yreo38nAA","name":"Sanctuary T","cuisine":"American","address":"337B W Broadway","coordinates":{"latitude":40.7223798,"longitude":-74.0035218},"review_count":393,"rating":3.5,"zip_code":"10013"},{"id":"ePqKbqXFBCbwBaWiN2Jo9w","name":"Ampersand","cuisine":"American","address":"294 3rd Ave","coordinates":{"latitude":40.7386178790617,"longitude":-73.9834206895483},"review_count":149,"rating":4.5,"zip_code":"10010"},{"id":"m-bEhZKBos1VZabVTg5CKg","name":"Philip Marie","cuisine":"American","address":"569 Hudson St","coordinates":{"latitude":40.73591,"longitude":-74.00624},"review_count":521,"rating":3.5,"zip_code":"10014"},{"id":"vGS5X12NYXCl8NpynlxRuw","name":"Oscar Wilde","cuisine":"American","address":"45 W 27th St","coordinates":{"latitude":40.74514,"longitude":-73.9900399},"review_count":269,"rating":4,"zip_code":"10001"},{"id":"wP0s8Jv2eFRMfjFj7isYUw","name":"Mulberry & Vine","cuisine":"American","address":"73 Warren St","coordinates":{"latitude":40.7150751,"longitude":-74.0101342},"review_count":246,"rating":4,"zip_code":"10007"},{"id":"Kd_T6_srwhHT7ydql27H7Q","name":"Proper West","cuisine":"American","address":"54 W 39th St","coordinates":{"latitude":40.7526130492966,"longitude":-73.9848813489212},"review_count":281,"rating":3.5,"zip_code":"10018"},{"id":"Y39SdfmS0Z_GepcFnFqlMA","name":"Natureworks","cuisine":"American","address":"113 E 31st St","coordinates":{"latitude":40.745068,"longitude":-73.981859},"review_count":220,"rating":4,"zip_code":"10016"},{"id":"bpOgimL_paWkF1AusXE8cA","name":"The View Restaurant & Lounge","cuisine":"American","address":"1535 Broadway","coordinates":{"latitude":40.7586,"longitude":-73.98618},"review_count":847,"rating":3,"zip_code":"10036"},{"id":"np7wKWwTAhetwpXqsWpFkQ","name":"Little Park","cuisine":"American","address":"85 W Broadway","coordinates":{"latitude":40.715206,"longitude":-74.009132},"review_count":299,"rating":4,"zip_code":"10007"},{"id":"Z8pm4rLTBki7OLgtbcTXEg","name":"Corner Social","cuisine":"American","address":"321 Malcolm X Blvd","coordinates":{"latitude":40.8085637,"longitude":-73.9450228},"review_count":788,"rating":3,"zip_code":"10027"},{"id":"6TIkBQs6D8IZ0uwpn7c_Pw","name":"Beetle House","cuisine":"American","address":"308 E 6th St","coordinates":{"latitude":40.72708,"longitude":-73.98801},"review_count":631,"rating":3.5,"zip_code":"10003"},{"id":"Esgyg0dRzBQJFMuVSaCYww","name":"As Is NYC","cuisine":"American","address":"734 10th Ave","coordinates":{"latitude":40.7645799,"longitude":-73.9914759},"review_count":149,"rating":4,"zip_code":"10019"},{"id":"8G6H30Krmj8-OHs6hZfT1g","name":"Belle Harlem","cuisine":"American","address":"2363 Adam Clayton Powell Blvd","coordinates":{"latitude":40.8173,"longitude":-73.94171},"review_count":78,"rating":5,"zip_code":"10030"},{"id":"CtVc-dAD0kK62DHJUMgOlw","name":"Dig Inn","cuisine":"American","address":"150 E 52nd St","coordinates":{"latitude":40.757252942108,"longitude":-73.970579388082},"review_count":245,"rating":4,"zip_code":"10022"},{"id":"PHSsvGDW6Rh2pGWEDTrDew","name":"Death Ave","cuisine":"American","address":"315 10th Ave","coordinates":{"latitude":40.75112,"longitude":-74.00208},"review_count":308,"rating":4,"zip_code":"10001"},{"id":"h37t9rA06Sr4EetJjKrfzw","name":"Don Angie","cuisine":"American","address":"103 Greenwich Ave","coordinates":{"latitude":40.73778,"longitude":-74.00197},"review_count":97,"rating":4.5,"zip_code":"10014"},{"id":"3buS71YuT8Uv7rJcvXnmlQ","name":"Van Diemen's Bar + Kitchen","cuisine":"American","address":"383 3rd Ave","coordinates":{"latitude":40.7415345160577,"longitude":-73.9808177947998},"review_count":332,"rating":3.5,"zip_code":"10016"}]}
