{"businesses":[{"id":"TUoya6mwmxr0Zpr8oZSXlg","name":"Thip Osha","cuisine":"Thai","address":"795 Grand St","coordinates":{"latitude":40.712123,"longitude":-73.941437},"review_count":33,"rating":4,"zip_code":"11211"},{"id":"pjnaG8CTsXgr_sTFKkvMYw","name":"Talent 2 Thai Kitchen","cuisine":"Thai","address":"592 9th Ave","coordinates":{"latitude":40.7587,"longitude":-73.99207},"review_count":24,"rating":3,"zip_code":"10036"},{"id":"GSOwJ5Gr8X4eGbkIjCzMWA","name":"Thaism","cuisine":"Thai","address":"278 Smith St","coordinates":{"latitude":40.6824841,"longitude":-73.9935637},"review_count":98,"rating":3.5,"zip_code":"11231"},{"id":"uzSAWlBfrm-9xufAKbY9OA","name":"Erb Thai","cuisine":"Thai","address":"681 Manhattan Ave","coordinates":{"latitude":40.724933,"longitude":-73.951759},"review_count":107,"rating":2.5,"zip_code":"11222"},{"id":"FsHqkVb0kmLq1VW7P-xz1A","name":"Tomo Japanese Fusion","cuisine":"Thai","address":"1077 Flushing Ave","coordinates":{"latitude":40.7047424316406,"longitude":-73.9292984008789},"review_count":140,"rating":3,"zip_code":"11237"},{"id":"X3T2rK-GrEgVUai-MeXAzg","name":"Thongyib Thai Cart","cuisine":"Thai","address":"405 Park Ave","coordinates":{"latitude":40.7598555582005,"longitude":-73.9723258723791},"review_count":12,"rating":4,"zip_code":"10022"},{"id":"KIERtmoOTz7r103MWw08nA","name":"Cafe Chili","cuisine":"Thai","address":"172 Court St","coordinates":{"latitude":40.68801,"longitude":-73.99334},"review_count":126,"rating":3,"zip_code":"11201"},{"id":"Eyn7hQENF8R9DrBwBHO6lQ","name":"Pata Cafe","cuisine":"Thai","address":"5614 Van Horn St","coordinates":{"latitude":40.7326341,"longitude":-73.8769762},"review_count":28,"rating":4.5,"zip_code":"11373"},{"id":"ybPMdh4XiTTwLWOMUXdwlw","name":"Thai 101 Bistro","cuisine":"Thai","address":"448 Myrtle Ave","coordinates":{"latitude":40.6930313110352,"longitude":-73.9674987792969},"review_count":150,"rating":3,"zip_code":"11205"},{"id":"Qacx-Vge9JcfkCPdkhle3Q","name":"Chef's Secret","cuisine":"Thai","address":"137 E 45th St","coordinates":{"latitude":40.75334,"longitude":-73.97398},"review_count":68,"rating":2,"zip_code":"10017"},{"id":"shHhP5lfZwrAYFL3K04_lg","name":"Hero Thai-Izakaya","cuisine":"Thai","address":"34-16 Broadway","coordinates":{"latitude":40.76038,"longitude":-73.9225699},"review_count":22,"rating":4,"zip_code":"11106"},{"id":"zYIKxE7eKeglXweoABjSwg","name":"Thai BKK","cuisine":"Thai","address":"2021 Lexington Ave","coordinates":{"latitude":40.80283,"longitude":-73.93838},"review_count":46,"rating":3.5,"zip_code":"10035"},{"id":"StFf9fVnAlhwrUWan0C4Ww","name":"Wanisa Home Kitchen","cuisine":"Thai","address":"142 Smith St","coordinates":{"latitude":40.68703,"longitude":-73.99051},"review_count":47,"rating":4,"zip_code":"11201"},{"id":"YCBjn0t4bMaQb8Bk7l37ng","name":"Gan Asia","cuisine":"Thai","address":"691 Amsterdam Ave","coordinates":{"latitude":40.7923393,"longitude":-73.971405},"review_count":42,"rating":2.5,"zip_code":"10025"},{"id":"hSDbm_GLRNHsMZo_SjBXRw","name":"Real Thai Cuisine","cuisine":"Thai","address":"530 9th Ave","coordinates":{"latitude":40.75669,"longitude":-73.99369},"review_count":25,"rating":3,"zip_code":"10018"},{"id":"ql3_yRC2POTxtRgUUrp8pA","name":"Sripraphai","cuisine":"Thai","address":"176 N 9th St","coordinates":{"latitude":40.718545,"longitude":-73.95635},"review_count":35,"rating":3,"zip_code":"11211"},{"id":"5rX_7IkvFx5MKqS3ikQe3Q","name":"Fortune House","cuisine":"Thai","address":"82 Henry St","coordinates":{"latitude":40.6984406,"longitude":-73.9927368},"review_count":95,"rating":3,"zip_code":"11201"},{"id":"jOGL9SOeMH2F6HO5qxbDHw","name":"Boon Thai","cuisine":"Thai","address":"681 Manhattan Ave","coordinates":{"latitude":40.724933,"longitude":-73.951759},"review_count":44,"rating":3.5,"zip_code":"11222"},{"id":"3pOAiE7W7nDEeVFNy_vmfw","name":"A La Mode Oriental","cuisine":"Thai","address":"37 W 54th St","coordinates":{"latitude":40.7621,"longitude":-73.97732},"review_count":30,"rating":2,"zip_code":"10019"},{"id":"tw3PUp40GLxuHWqYKsiGFQ","name":"Ridgewood Thai","cuisine":"Thai","address":"7204 Forest Ave","coordinates":{"latitude":40.699845,"longitude":-73.899577},"review_count":144,"rating":3,"zip_code":"11385"},{"id":"mlpocFeAfMUgV1-0myDn2A","name":"Spice Thai","cuisine":"Thai","address":"193 Smith St","coordinates":{"latitude":40.685208812356,"longitude":-73.9914359897375},"review_count":100,"rating":3,"zip_code":"11201"},{"id":"iB1tr_xJk7aAt0AhewoB9Q","name":"Thai-Nam Restaurant","cuisine":"Thai","address":"137 E 45th St","coordinates":{"latitude":40.7532501,"longitude":-73.9740524},"review_count":40,"rating":2,"zip_code":"10017"},{"id":"1BJo1JcwYHUuk-UfJLEwUQ","name":"Vera Thai Restaurant","cuisine":"Thai","address":"43-01 Queens Blvd","coordinates":{"latitude":40.74386,"longitude":-73.9212},"review_count":24,"rating":3.5,"zip_code":"11104"},{"id":"OR9oqAJW-U5ZnqhwH12Nuw","name":"Khao Nom","cuisine":"Thai","address":"76-20 Woodside Ave","coordinates":{"latitude":40.7432992,"longitude":-73.8880863},"review_count":24,"rating":4,"zip_code":"11373"},{"id":"9ieA0TyApI94wEqqW_r93w","name":"Aaron's Chinese and Thai","cuisine":"Thai","address":"338 9th Ave","coordinates":{"latitude":40.750379,"longitude":-73.998141},"review_count":46,"rating":1.5,"zip_code":"10001"},{"id":"hgjwwRqwOfBrrGPRco7KEA","name":"Teeda Thai Cuisine","cuisine":"Thai","address":"218 Columbia St","coordinates":{"latitude":40.68472,"longitude":-74.00301},"review_count":54,"rating":3.5,"zip_code":"11201"},{"id":"UC3n_0vZ5zI1fvi7UzNZAg","name":"Sabai Thai Restaurant","cuisine":"Thai","address":"432 Park Ave S","coordinates":{"latitude":40.74422,"longitude":-73.98365},"review_count":21,"rating":4.5,"zip_code":"10016"},{"id":"PPQSf_1JWkbjFHi1S0nSNA","name":"Lamoon","cuisine":"Thai","address":"8140 Broadway","coordinates":{"latitude":40.7428524,"longitude":-73.8830175},"review_count":30,"rating":5,"zip_code":"11373"},{"id":"RjxtXkvbVBCDpJdt8pn5lg","name":"Note Thai","cuisine":"Thai","address":"279 Bushwick Ave","coordinates":{"latitude":40.70647,"longitude":-73.93948},"review_count":111,"rating":2.5,"zip_code":"11206"},{"id":"9c8M-3W7vuP4idvgi2LXSw","name":"Fulton Thai","cuisine":"Thai","address":"848 Fulton St","coordinates":{"latitude":40.683459,"longitude":-73.967407},"review_count":95,"rating":3,"zip_code":"11238"},{"id":"Il1K0hzGEiJgLLBCZCfA1A","name":"Thai Thai Grocery Store","cuisine":"Thai","address":"7613 Woodside Ave","coordinates":{"latitude":40.7435913085938,"longitude":-73.8883056640625},"review_count":19,"rating":4,"zip_code":"11373"},{"id":"vBQ1tfFZS2IWjO2nhNsewQ","name":"Rhong-Tiam Thai Truck","cuisine":"Thai","address":"31 E 21st St","coordinates":{"latitude":40.7150710530191,"longitude":-73.9605347930137},"review_count":20,"rating":3.5,"zip_code":"11205"},{"id":"mpLOVmnuHnYEtBVtVy3xYQ","name":"TumYum","cuisine":"Thai","address":"917 105th St","coordinates":{"latitude":40.79949,"longitude":-73.96553},"review_count":4,"rating":4.5,"zip_code":"10025"},{"id":"3RuiiqUg8C3HZ-RuvlqtBg","name":"Tawa Wok","cuisine":"Thai","address":"608 Grove St","coordinates":{"latitude":40.7322445520707,"longitude":-74.0408217887441},"review_count":66,"rating":2.5,"zip_code":"07310"},{"id":"C5t0mPGdT_sOlcg-RkGcjA","name":"Empire","cuisine":"Thai","address":"8 Murray St","coordinates":{"latitude":40.7131452,"longitude":-74.0077389},"review_count":17,"rating":2,"zip_code":"10007"},{"id":"7zaqOuu7vb1XIf3uNUBPnQ","name":"Thaimee Magic","cuisine":"Thai","address":"353 W 14th St","coordinates":{"latitude":40.7408261,"longitude":-74.0047136},"review_count":5,"rating":3,"zip_code":"10014"},{"id":"BwZgxjMkONG-wVJfO8Nd2g","name":"Thai Lemongrass","cuisine":"Thai","address":"273 A Mott St","coordinates":{"latitude":40.7239,"longitude":-73.99479},"review_count":20,"rating":2,"zip_code":"10012"},{"id":"I6XC8dNxUzIcIOEbq3LJsQ","name":"Number One Chinese Restaurant","cuisine":"Thai","address":"6514 Park Ave","coordinates":{"latitude":40.78975,"longitude":-74.00513},"review_count":10,"rating":3.5,"zip_code":"07093"},{"id":"YMcDo3UccCPvIJrQ5Yt9Yw","name":"Rama Thai Cuisine","cuisine":"Thai","address":"881 Woodward Ave","coordinates":{"latitude":40.7025939,"longitude":-73.901464},"review_count":33,"rating":3.5,"zip_code":"11385"},{"id":"0QcOIcnGZVf2CW7ibeKh_Q","name":"Long Grain Thai & Japanese","cuisine":"Thai","address":"710 Amsterdam Ave","coordinates":{"latitude":40.793201,"longitude":-73.971397},"review_count":13,"rating":2,"zip_code":"10025"},{"id":"DYOyC7JQ0DBCY59b7HKb6A","name":"Thai Mis Delicias","cuisine":"Thai","address":"20th St 5th Ave","coordinates":{"latitude":40.7419449,"longitude":-73.9966639},"review_count":5,"rating":3,"zip_code":"10011"},{"id":"-6wpiKE7vCkFVb7GLCVcIw","name":"Sushi Thai Cuisine","cuisine":"Thai","address":"1185 Bedford Ave","coordinates":{"latitude":40.68276,"longitude":-73.95349},"review_count":117,"rating":2,"zip_code":"11216"},{"id":"gz8Pq_xgajTRf_5___82Cg","name":"Mitoushi 8","cuisine":"Thai","address":"70-11 Grand Ave","coordinates":{"latitude":40.7277260130886,"longitude":-73.8927069665119},"review_count":22,"rating":4,"zip_code":"11378"},{"id":"9x7kLfuIYwvBDuFBUwd0yw","name":"Luckyimthai Truck","cuisine":"Thai","address":"245 Park Ave","coordinates":{"latitude":40.7551191469239,"longitude":-73.9748699},"review_count":2,"rating":4,"zip_code":"10167"},{"id":"rehmlZmUNL2AthW-VTXJJQ","name":"Tasty Thai","cuisine":"Thai","address":"72-04 Forest Ave","coordinates":{"latitude":40.69984,"longitude":-73.89958},"review_count":10,"rating":5,"zip_code":"11385"},{"id":"O27EskZ0dVdfBM9UlPPgeg","name":"CitiThai","cuisine":"Thai","address":"1764 1st Ave","coordinates":{"latitude":40.78034,"longitude":-73.94663},"review_count":1,"rating":5,"zip_code":"10128"},{"id":"tk_hI5v8KufzFaIP57_57g","name":"Golden Thai","cuisine":"Thai","address":"469 Irving Ave","coordinates":{"latitude":40.69566,"longitude":-73.90798},"review_count":44,"rating":3,"zip_code":"11237"},{"id":"Gvg0ZLMsyZkLWHhT6uJs7w","name":"Green Leaf","cuisine":"Thai","address":"72-60 Metropolitan Ave","coordinates":{"latitude":40.71244,"longitude":-73.87957},"review_count":38,"rating":3.5,"zip_code":"11379"},{"id":"kzvcRu47MA2fPvW0WRPICA","name":"Kao","cuisine":"Thai","address":"3 Greenwich Ave","coordinates":{"latitude":40.73387,"longitude":-73.9997999},"review_count":4,"rating":3,"zip_code":"10014"},{"id":"u7eDoHJvOXXzFTxcYZY16g","name":"Don Muang Airport","cuisine":"Thai","address":"146 Broadway","coordinates":{"latitude":40.709999,"longitude":-73.963493},"review_count":6,"rating":3.5,"zip_code":"11211"},{"id":"VMDmMIWR059HKMp_Mj3Msw","name":"Thai Tree","cuisine":"Thai","address":"36-17 Greenpoint Ave","coordinates":{"latitude":40.7379204227519,"longitude":-73.9293925641142},"review_count":11,"rating":3,"zip_code":"11101"},{"id":"5Znd8FNSiFPiGLmKeGTOng","name":"Thai Nam","cuisine":"Thai","address":"424 Amsterdam Ave","coordinates":{"latitude":40.78417,"longitude":-73.97793},"review_count":11,"rating":2,"zip_code":"10024"},{"id":"qtDKasElRD_CPw7HnIOXHA","name":"Island Thai Street Food","cuisine":"Thai","address":"","coordinates":{"latitude":40.758373260498,"longitude":-73.9680099487305},"review_count":1,"rating":4,"zip_code":"10022"},{"id":"VvY0xHte6YJqtd74Srt9gQ","name":"Spice","cuisine":"Thai","address":"60 University Pl","coordinates":{"latitude":40.7329788,"longitude":-73.993988},"review_count":2,"rating":2.5,"zip_code":"10003"},{"id":"59EsyFYqlFfS6MlxuNRk4Q","name":"Thai Palace","cuisine":"Thai","address":"304 W 40th St","coordinates":{"latitude":40.7560081481934,"longitude":-73.991455078125},"review_count":7,"rating":1.5,"zip_code":"10018"},{"id":"bZq9iz6OgrK6DSH1TBO1kA","name":"Avenue A Asian World","cuisine":"Thai","address":"103 Ave A","coordinates":{"latitude":40.72585,"longitude":-73.98387},"review_count":2,"rating":3,"zip_code":"10009"},{"id":"fYKcfxFWcdAxp1pHvjpjdw","name":"Village MA","cuisine":"Thai","address":"107 MacDougal St","coordinates":{"latitude":40.72992,"longitude":-74.00095},"review_count":7,"rating":1.5,"zip_code":"10012"},{"id":"F5T1HMAb5iRBFrIOcz7e3w","name":"Liu Garden","cuisine":"Thai","address":"560 Wilson Ave","coordinates":{"latitude":40.690765,"longitude":-73.908683},"review_count":21,"rating":2.5,"zip_code":"11207"},{"id":"hq73x-YmjAh4KFsQdbQx7A","name":"Wickedly Hot Thai Cuisine","cuisine":"Thai","address":"299 E 11th St","coordinates":{"latitude":40.7303352,"longitude":-73.9859467},"review_count":5,"rating":1.5,"zip_code":"10003"},{"id":"ubX4CD4GqXpXjLfuBJo8HQ","name":"Spicy Republic","cuisine":"Thai","address":"972 Second Ave","coordinates":{"latitude":40.7557,"longitude":-73.96771},"review_count":2,"rating":2.5,"zip_code":"10021"},{"id":"k3h6SC78ItelIurfUB0pcg","name":"Bang Thai","cuisine":"Thai","address":"210 Thompson St","coordinates":{"latitude":40.72878,"longitude":-73.99924},"review_count":2,"rating":2.5,"zip_code":"10012"},{"id":"OrMGhduP_X_EiF3Wpy4RHw","name":"Izu","cuisine":"Thai","address":"9 E 13th St","coordinates":{"latitude":40.73508,"longitude":-73.9933},"review_count":2,"rating":2.5,"zip_code":"10003"},{"id":"Yv-_cU8CIJLUWXIMAjQPMQ","name":"Spice","cuisine":"Thai","address":"71 First Ave","coordinates":{"latitude":40.725536,"longitude":-73.987213},"review_count":1,"rating":3,"zip_code":"10003"},{"id":"ACuZg-9J4bE6hRgu8p501g","name":"Thai Street Food","cuisine":"Thai","address":"89 Broadway","coordinates":{"latitude":40.7077189,"longitude":-74.0119285},"review_count":3,"rating":4.5,"zip_code":"10006"},{"id":"0RItxr4jWz00T39OflvikQ","name":"Thai Paragon","cuisine":"Thai","address":"1406 Madison Ave","coordinates":{"latitude":40.78821,"longitude":-73.95363},"review_count":6,"rating":3.5,"zip_code":"10029"},{"id":"m4_k7yyNyU3yuUtb9CbpmQ","name":"Thai Evolution","cuisine":"Thai","address":"536 3rd Ave","coordinates":{"latitude":40.74687,"longitude":-73.97752},"review_count":3,"rating":2.5,"zip_code":"10016"},{"id":"-Q8MYIWoE4EsGQtudIOY0w","name":"Bua Thai Ramen & Robata Grill","cuisine":"Thai","address":"1611 2nd Ave","coordinates":{"latitude":40.7764,"longitude":-73.95321},"review_count":9,"rating":4,"zip_code":"10028"},{"id":"viB_c1ywQJJOr-zVQHkr0A","name":"Roomservice","cuisine":"Thai","address":"349 E 12th St","coordinates":{"latitude":40.73039,"longitude":-73.98381},"review_count":1,"rating":5,"zip_code":"10003"},{"id":"TfO9b3q0urwXlSaDXKrirQ","name":"Poy Laung Thai Restaurant","cuisine":"Thai","address":"206 Bedford Ave","coordinates":{"latitude":40.7171131,"longitude":-73.9587056},"review_count":1,"rating":1,"zip_code":"11211"},{"id":"IXH26OJiL2hUSwNW_NJEhQ","name":"Warung Roadside","cuisine":"Thai","address":null,"coordinates":{"latitude":40.7120753,"longitude":-73.9286508},"review_count":2,"rating":5,"zip_code":"11237"},{"id":"ri2YWZ2jMuxauAUA__4uvw","name":"SITA THAI","cuisine":"Thai","address":"3609 Broadway Ave","coordinates":{"latitude":40.82889,"longitude":-73.94899},"review_count":1,"rating":5,"zip_code":"10031"}]}
