{"businesses":[{"id":"q0HBfS9eJ9AeuaWQ3Ronqw","name":"Joe G Pizza & Restaurant","cuisine":"Italian","address":"244 W 56th St","coordinates":{"latitude":40.76564,"longitude":-73.9830099},"review_count":105,"rating":4,"zip_code":"10019"},{"id":"ufntl2yxDlAzPJ6G73eAcQ","name":"Regional Restaurant","cuisine":"Italian","address":"2607 Broadway","coordinates":{"latitude":40.79625,"longitude":-73.97094},"review_count":334,"rating":3,"zip_code":"10025"},{"id":"ZxobXn7eEYDOzQKYHH9ARQ","name":"Sorbillo Pizzeria","cuisine":"Italian","address":"334 Bowery","coordinates":{"latitude":40.726,"longitude":-73.99218},"review_count":98,"rating":4,"zip_code":"10012"},{"id":"Hm08ax_3XYLp_1XUXlAOmQ","name":"Per Lei","cuisine":"Italian","address":"1347 2nd Ave","coordinates":{"latitude":40.76813,"longitude":-73.9592},"review_count":162,"rating":3.5,"zip_code":"10021"},{"id":"O5Cm2yU32-Epf4HKEFAJEQ","name":"Il Postino","cuisine":"Italian","address":"337 East 49th St","coordinates":{"latitude":40.75373,"longitude":-73.96749},"review_count":87,"rating":4,"zip_code":"10017"},{"id":"oau9HuGnei8D7vusubVYYw","name":"Le Verdure","cuisine":"Italian","address":"200 5th Ave","coordinates":{"latitude":40.74197,"longitude":-73.9895},"review_count":97,"rating":3.5,"zip_code":"10010"},{"id":"-7iUpGTNDdy4WjxLGYp-_g","name":"Trattoria Italienne","cuisine":"Italian","address":"19 W 24th St","coordinates":{"latitude":40.7430619,"longitude":-73.9903948},"review_count":66,"rating":4,"zip_code":"10010"},{"id":"0LpWRWQx8Agm-mZtsOQ5gg","name":"Neapolitan Express","cuisine":"Italian","address":"40 Wall St","coordinates":{"latitude":40.707015,"longitude":-74.009735},"review_count":149,"rating":3.5,"zip_code":"10005"},{"id":"zwOAiVT4pAmpNGXzj-t5MA","name":"Lilia","cuisine":"Italian","address":"567 Union Ave","coordinates":{"latitude":40.71757,"longitude":-73.95236},"review_count":435,"rating":4,"zip_code":"11211"},{"id":"HV5DMBmEpQ_Nu6NSekJquA","name":"Harry's Italian","cuisine":"Italian","address":"225 Murray St","coordinates":{"latitude":40.7151660438782,"longitude":-74.0147876008234},"review_count":197,"rating":3.5,"zip_code":"10282"},{"id":"anP9HCa1F8x3SkvaKdcIZw","name":"Vinny Vincenz","cuisine":"Italian","address":"231 1st Ave","coordinates":{"latitude":40.731155,"longitude":-73.983039},"review_count":167,"rating":3.5,"zip_code":"10003"},{"id":"gNFZnphlgmtGQOBwf4GPiA","name":"Rosella's Pizzeria","cuisine":"Italian","address":"164 William St","coordinates":{"latitude":40.710117,"longitude":-74.005661},"review_count":183,"rating":3.5,"zip_code":"10038"},{"id":"geTFpY84Tp-nVTXflnxtDA","name":"V & T Pizzeria & Restaurant","cuisine":"Italian","address":"1024 Amsterdam Ave","coordinates":{"latitude":40.80334,"longitude":-73.96383},"review_count":294,"rating":3,"zip_code":"10025"},{"id":"ywP0OEqRC6sp4NK1-QhW-g","name":"Parm","cuisine":"Italian","address":"Brookfield Pl","coordinates":{"latitude":40.7144510120714,"longitude":-74.0161083107869},"review_count":255,"rating":3,"zip_code":"10080"},{"id":"i5cdbiw1KRyg4w0X44ZBwA","name":"Mezzaluna","cuisine":"Italian","address":"1295 3rd Ave","coordinates":{"latitude":40.771125,"longitude":-73.959251},"review_count":106,"rating":3.5,"zip_code":"10021"},{"id":"V7z1ZkTOtV-dNOKhZsAlMw","name":"Patsy's Pizzeria","cuisine":"Italian","address":"801 2nd Ave","coordinates":{"latitude":40.750427,"longitude":-73.972129},"review_count":163,"rating":3.5,"zip_code":"10017"},{"id":"Y3xDbSHXs6apMA4JLGJZ1Q","name":"Sac's Place","cuisine":"Italian","address":"2541 Broadway","coordinates":{"latitude":40.7628982173022,"longitude":-73.9270855469213},"review_count":423,"rating":4,"zip_code":"11106"},{"id":"e5VNqnVitx8OrnINaMMCsA","name":"Fedoroff's Roast Pork","cuisine":"Italian","address":"178 N 10th St","coordinates":{"latitude":40.7189526,"longitude":-73.9555245},"review_count":129,"rating":4.5,"zip_code":"11211"},{"id":"ujbH5MZQzC2SSuRF3XvNfQ","name":"Mi Garba","cuisine":"Italian","address":"129 4th Ave","coordinates":{"latitude":40.733253210783,"longitude":-73.9898487925529},"review_count":87,"rating":4,"zip_code":"10003"},{"id":"Irw7QQBsndbB2ATXeB4pYA","name":"Da Tommaso NYC","cuisine":"Italian","address":"903 8th Ave","coordinates":{"latitude":40.7646068,"longitude":-73.9845812},"review_count":134,"rating":3.5,"zip_code":"10019"},{"id":"WbkM29ZUAJtsatHEPBZtAQ","name":"Laboratorio","cuisine":"Italian","address":"329 W 51st St","coordinates":{"latitude":40.76364,"longitude":-73.98678},"review_count":44,"rating":4,"zip_code":"10019"},{"id":"SHG9wQ5PfyXDgJDYkrPu7Q","name":"Vago Restaurant","cuisine":"Italian","address":"509 3rd Ave","coordinates":{"latitude":40.7458699,"longitude":-73.9778},"review_count":91,"rating":4,"zip_code":"10016"},{"id":"ubNySbvyISy8q3oy9tsJaA","name":"Il Pesce","cuisine":"Italian","address":"200 5th Ave","coordinates":{"latitude":40.7421891564824,"longitude":-73.9898860988724},"review_count":80,"rating":4,"zip_code":"10010"},{"id":"WBXiKTyBBE5GUN_c2VD5bA","name":"Trattoria Il Mulino","cuisine":"Italian","address":"36 E 20th St","coordinates":{"latitude":40.7385529485744,"longitude":-73.9886629208922},"review_count":176,"rating":3.5,"zip_code":"10003"},{"id":"78TCGIG1eHMYdyvMpFdDbQ","name":"Follia NYC","cuisine":"Italian","address":"179 3rd Ave","coordinates":{"latitude":40.7349243164062,"longitude":-73.9855880737305},"review_count":82,"rating":4,"zip_code":"10003"},{"id":"cbBT_vKaBJgt92p2Y7Rv2A","name":"Fran's Italian Deli","cuisine":"Italian","address":"202 Hudson St","coordinates":{"latitude":40.738735,"longitude":-74.0295879},"review_count":203,"rating":4.5,"zip_code":"07030"},{"id":"XyICIfSun7HWtBEUFux2PQ","name":"Bocca Di Bacco","cuisine":"Italian","address":"169 9th Ave","coordinates":{"latitude":40.7445631,"longitude":-74.0030779},"review_count":145,"rating":3.5,"zip_code":"10011"},{"id":"Hc0p6xWxJthMZIlckFzgZA","name":"Eleven B","cuisine":"Italian","address":"174 Ave B","coordinates":{"latitude":40.72745,"longitude":-73.97974},"review_count":177,"rating":3.5,"zip_code":"10009"},{"id":"MlOdJ9tK3idyXGR4Yo7ttQ","name":"Estancia 460","cuisine":"Italian","address":"460 Greenwich St","coordinates":{"latitude":40.72379,"longitude":-74.0097399},"review_count":108,"rating":4,"zip_code":"10013"},{"id":"mwDGX4OH3smoducpde2Elw","name":"Quartino Bottega Organica","cuisine":"Italian","address":"11 Bleecker St","coordinates":{"latitude":40.7255491,"longitude":-73.9929031},"review_count":174,"rating":3.5,"zip_code":"10012"},{"id":"ieoPAi6nbdEkrwv4vGVSwg","name":"Via Trenta Osteria & Wine Bar","cuisine":"Italian","address":"36-19 30th Ave","coordinates":{"latitude":40.764806,"longitude":-73.916585},"review_count":386,"rating":4,"zip_code":"11103"},{"id":"WNOUPEZ6J8SZVSaK6Q3e-A","name":"Porto By Antonio - Wood Burning Pizza & Pasta","cuisine":"Italian","address":"8921 Old River Rd","coordinates":{"latitude":40.8048834508642,"longitude":-73.9934416639218},"review_count":363,"rating":4,"zip_code":"07047"},{"id":"QhRQE6nOMLd00kV2k-IsbQ","name":"Augustino's","cuisine":"Italian","address":"1104 Washington St","coordinates":{"latitude":40.75024,"longitude":-74.02732},"review_count":228,"rating":4,"zip_code":"07030"},{"id":"oq-3mheTFeiOq6ojzdzSNg","name":"Cloister Cafe","cuisine":"Italian","address":"238 E 9th St","coordinates":{"latitude":40.729324,"longitude":-73.987892},"review_count":424,"rating":2.5,"zip_code":"10003"},{"id":"G-op2xLJqocfg1AwJNge8Q","name":"Il Piccolo Bufalo","cuisine":"Italian","address":"141 Mulberry St","coordinates":{"latitude":40.71883,"longitude":-73.99781},"review_count":200,"rating":3.5,"zip_code":"10013"},{"id":"505bv6h3VnN6SekdHCr8Sw","name":"Nocello","cuisine":"Italian","address":"257 W 55th St","coordinates":{"latitude":40.7654190063477,"longitude":-73.9833374023438},"review_count":125,"rating":3.5,"zip_code":"10019"},{"id":"lTa_the-LGQxdwKhwfwVyw","name":"La Nonna","cuisine":"Italian","address":"134 Mulberry St","coordinates":{"latitude":40.71851,"longitude":-73.9976},"review_count":198,"rating":3.5,"zip_code":"10013"},{"id":"7dhXkHB_Eg1UJ7Yf9wQCjQ","name":"Sofia's of Little Italy","cuisine":"Italian","address":"143 Mulberry St","coordinates":{"latitude":40.71888,"longitude":-73.99777},"review_count":298,"rating":3,"zip_code":"10013"},{"id":"HSKcCmRFqzqG542Hy_eftw","name":"Siena","cuisine":"Italian","address":"1580 3rd Ave","coordinates":{"latitude":40.78073,"longitude":-73.953},"review_count":103,"rating":4,"zip_code":"10128"},{"id":"tZVN5tsprJpUOF953jcg1w","name":"Libretto's Pizzeria","cuisine":"Italian","address":"546 3rd Ave","coordinates":{"latitude":40.747318,"longitude":-73.977317},"review_count":130,"rating":3.5,"zip_code":"10016"},{"id":"L0hPFGt-sD_QVmhr01SSEQ","name":"Gente Ristorante","cuisine":"Italian","address":"153 E 45th St","coordinates":{"latitude":40.753194,"longitude":-73.973632},"review_count":146,"rating":3.5,"zip_code":"10017"},{"id":"hq09sqXaYiEogbTrrJ9X5g","name":"Da Capo","cuisine":"Italian","address":"322 Columbus Ave","coordinates":{"latitude":40.77972,"longitude":-73.97752},"review_count":53,"rating":4.5,"zip_code":"10023"},{"id":"q6ux26c-SfK-679y9lvVbw","name":"Settepani","cuisine":"Italian","address":"196 Lenox Ave","coordinates":{"latitude":40.80435,"longitude":-73.94766},"review_count":171,"rating":3.5,"zip_code":"10026"},{"id":"MTQpqHo-cCAPK7c9fd6zHw","name":"Il Mattone","cuisine":"Italian","address":"49 Beach St","coordinates":{"latitude":40.720799,"longitude":-74.0091255},"review_count":38,"rating":4.5,"zip_code":"10013"},{"id":"e6pF5tzU3W2ufrWDZxVIeg","name":"Claudio Pizzeria","cuisine":"Italian","address":"334 8th Ave","coordinates":{"latitude":40.7475857039896,"longitude":-73.9967348479919},"review_count":54,"rating":4,"zip_code":"10001"},{"id":"zo4JHfD2nWPUiqgsgDOaHQ","name":"Rao's","cuisine":"Italian","address":"455 E 114th St","coordinates":{"latitude":40.79392,"longitude":-73.93427},"review_count":125,"rating":4.5,"zip_code":"10029"},{"id":"3vuc7Gz95kY83gzxq1wnxA","name":"Francesco's Pizzeria","cuisine":"Italian","address":"186 Columbus Ave","coordinates":{"latitude":40.77523,"longitude":-73.98075},"review_count":166,"rating":3.5,"zip_code":"10023"},{"id":"WI_AYZSW8ds1GjFq3PQJRA","name":"Satis Bistro","cuisine":"Italian","address":"212 Washington St","coordinates":{"latitude":40.7144521915461,"longitude":-74.037669933778},"review_count":545,"rating":4,"zip_code":"07302"},{"id":"1qotQS-eDg6_TdBU0cQiPg","name":"Vincent's Restaurant","cuisine":"Italian","address":"119 Mott St","coordinates":{"latitude":40.7179220761959,"longitude":-73.9975306433213},"review_count":223,"rating":3,"zip_code":"10013"},{"id":"mtmEa4vFYa764G97sqQ9dQ","name":"Sapori D'Italia","cuisine":"Italian","address":"105 Mulberry St","coordinates":{"latitude":40.71735,"longitude":-73.99855},"review_count":51,"rating":5,"zip_code":"10013"},{"id":"Aazjxg21VH2cncWYBAv68Q","name":"Sottocasa Pizzeria- Boerum Hill","cuisine":"Italian","address":"298 Atlantic Ave","coordinates":{"latitude":40.68838,"longitude":-73.98895},"review_count":520,"rating":4.5,"zip_code":"11201"},{"id":"Gun7lX-5SYRWzJsNsu-U6g","name":"Sant Ambroeus","cuisine":"Italian","address":"265 Lafayette St","coordinates":{"latitude":40.7234184,"longitude":-73.9965676},"review_count":97,"rating":3.5,"zip_code":"10012"},{"id":"DKLbMLQHvggfIKw2jj6rnA","name":"Felice 83","cuisine":"Italian","address":"1593 1st Ave","coordinates":{"latitude":40.775049,"longitude":-73.951078},"review_count":182,"rating":3.5,"zip_code":"10028"},{"id":"0xS2Jj-RZuFQKgxEWuVxzA","name":"Armonie","cuisine":"Italian","address":"1649 Park Ave","coordinates":{"latitude":40.799791923483,"longitude":-73.942575354665},"review_count":99,"rating":4,"zip_code":"10035"},{"id":"So6xT7Hl0HDcPqipvGfZdA","name":"Pastai","cuisine":"Italian","address":"186 9th Ave","coordinates":{"latitude":40.7454222076169,"longitude":-74.0019670059103},"review_count":155,"rating":3.5,"zip_code":"10011"},{"id":"qZv3GwHh9VHhv9th-N7Wmg","name":"Manganaro's Hero Boy","cuisine":"Italian","address":"494 9th Ave","coordinates":{"latitude":40.7556311,"longitude":-73.9944614},"review_count":158,"rating":3,"zip_code":"10018"},{"id":"3kfr1uOuvj3U7mqaAoO_Kw","name":"Famous Amadeus Pizza","cuisine":"Italian","address":"408 8th Ave","coordinates":{"latitude":40.74979,"longitude":-73.99481},"review_count":197,"rating":3,"zip_code":"10001"},{"id":"bgxUUa_oI67p-eb2-oAKDA","name":"CAFÉ MEDI","cuisine":"Italian","address":"107 Rivington St","coordinates":{"latitude":40.7199,"longitude":-73.98803},"review_count":143,"rating":3.5,"zip_code":"10002"},{"id":"hbhuxhgYtuWtLlwBKt0hrQ","name":"Johnny Pepperoni","cuisine":"Italian","address":"219 11th St","coordinates":{"latitude":40.75011,"longitude":-74.02969},"review_count":287,"rating":4,"zip_code":"07030"},{"id":"C-V8rvmamxMzu7EoQkcFrg","name":"Kestè Wall Street","cuisine":"Italian","address":"77 Fulton St","coordinates":{"latitude":40.7089545,"longitude":-74.0050526},"review_count":66,"rating":4,"zip_code":"10038"},{"id":"ZTsN8TdMXl8SW_AKd_ablw","name":"Forno Rosso","cuisine":"Italian","address":"327 Gold St","coordinates":{"latitude":40.69446,"longitude":-73.98316},"review_count":445,"rating":4,"zip_code":"11201"},{"id":"kmXcL7vE1RrkueK9I2UOTg","name":"Bocca","cuisine":"Italian","address":"135 W 50th St","coordinates":{"latitude":40.76062,"longitude":-73.98192},"review_count":125,"rating":3.5,"zip_code":"10020"},{"id":"I0N_QtJy7sLiuW_vmvRIhg","name":"Maruzzella","cuisine":"Italian","address":"1483 1st Ave","coordinates":{"latitude":40.7713240506196,"longitude":-73.953663110733},"review_count":70,"rating":4,"zip_code":"10075"},{"id":"tV5NNPI9f-BAB6FSl96CdQ","name":"Luigi's Gourmet Grill","cuisine":"Italian","address":"936 8th Ave","coordinates":{"latitude":40.76555,"longitude":-73.98342},"review_count":100,"rating":3.5,"zip_code":"10019"},{"id":"v3YA3DF9wKY_aWCKNdDEPg","name":"Casa Toscana","cuisine":"Italian","address":"1000 8th Ave","coordinates":{"latitude":40.7685425,"longitude":-73.9817814},"review_count":45,"rating":4.5,"zip_code":"10019"},{"id":"ejuFKvSfGl0JMZO9yzSXNw","name":"Louie's Pizza","cuisine":"Italian","address":"81-34 Baxter Ave","coordinates":{"latitude":40.7459,"longitude":-73.8834},"review_count":332,"rating":4.5,"zip_code":"11373"},{"id":"uboO7T3XSnl8iq0uQWhMXA","name":"Café Altro Paradiso","cuisine":"Italian","address":"234 Spring St","coordinates":{"latitude":40.72549,"longitude":-74.00489},"review_count":105,"rating":3.5,"zip_code":"10013"},{"id":"XcfZqLrXdABSZLViQ34VTw","name":"Chelsea Ristorante","cuisine":"Italian","address":"108 8th Ave","coordinates":{"latitude":40.7406654953957,"longitude":-74.001794680953},"review_count":126,"rating":3.5,"zip_code":"10011"},{"id":"u74abDRXzo1vVhM-m5To5g","name":"Dolcino Trattoria Toscana Italian","cuisine":"Italian","address":"517 2nd Ave","coordinates":{"latitude":40.7416076660156,"longitude":-73.9785766601562},"review_count":81,"rating":3.5,"zip_code":"10016"},{"id":"nvisU3jrXgA7xL5nEt3iXA","name":"Don Giovanni Ristorante","cuisine":"Italian","address":"214 10th Ave","coordinates":{"latitude":40.7472138000271,"longitude":-74.0042828600478},"review_count":222,"rating":3,"zip_code":"10011"},{"id":"gU6_qALmeWysg2YXMzMrtw","name":"Serafina","cuisine":"Italian","address":"1022 Madison Ave","coordinates":{"latitude":40.7762350782493,"longitude":-73.9623423504256},"review_count":256,"rating":3,"zip_code":"10075"},{"id":"Fit_iIDn__NPVZpVlKFBFQ","name":"Osteria 106","cuisine":"Italian","address":"53 W 106 St","coordinates":{"latitude":40.79904,"longitude":-73.96166},"review_count":34,"rating":4.5,"zip_code":"10025"},{"id":"2FP0l2DLhhXKFB6WIRsHhg","name":"Bin 14","cuisine":"Italian","address":"1314 Washington St","coordinates":{"latitude":40.75302,"longitude":-74.02647},"review_count":407,"rating":3.5,"zip_code":"07030"},{"id":"_N92SH1Zi-Hbxn_bNHFz0Q","name":"Noodle Pudding","cuisine":"Italian","address":"38 Henry St","coordinates":{"latitude":40.69979,"longitude":-73.99203},"review_count":494,"rating":4,"zip_code":"11201"},{"id":"pEJ5Zw3ogzbCpWAa6buJjg","name":"Vite Bar","cuisine":"Italian","address":"2507 Broadway","coordinates":{"latitude":40.7634138,"longitude":-73.9281187},"review_count":88,"rating":4.5,"zip_code":"11106"},{"id":"s5nPO911cYB2chdwqSqT9g","name":"La Nonna Ristorante & Bar","cuisine":"Italian","address":"184 Kent Ave","coordinates":{"latitude":40.718468787527,"longitude":-73.9639185527139},"review_count":217,"rating":4,"zip_code":"11249"},{"id":"PntYFpmgQjAuccjszMFbBw","name":"Bettola","cuisine":"Italian","address":"412 Amsterdam Ave","coordinates":{"latitude":40.78373,"longitude":-73.9783},"review_count":149,"rating":3.5,"zip_code":"10024"},{"id":"aLM9irVFlNoVlS9dGuW_Lg","name":"Amata","cuisine":"Italian","address":"209 E 56th St","coordinates":{"latitude":40.759426,"longitude":-73.967063},"review_count":58,"rating":4.5,"zip_code":"10022"},{"id":"sppl_-Hw-UMX5tlTd_0poA","name":"Serafina Meatpacking","cuisine":"Italian","address":"7 Ninth Ave","coordinates":{"latitude":40.7393803425011,"longitude":-74.0065133571625},"review_count":231,"rating":3,"zip_code":"10014"},{"id":"lDhlNQHgzyxgi3By7Ko2LA","name":"Fiore","cuisine":"Italian","address":"284 Grand St","coordinates":{"latitude":40.71293,"longitude":-73.95787},"review_count":360,"rating":4,"zip_code":"11211"},{"id":"qYDoWRdntIApGW6fEUHWIQ","name":"Biricchino","cuisine":"Italian","address":"260 W 29th St","coordinates":{"latitude":40.7488743960857,"longitude":-73.9954686909914},"review_count":85,"rating":3.5,"zip_code":"10001"},{"id":"QUTSHrHw3qRZjf749VM1Yg","name":"Serafina Osteria","cuisine":"Italian","address":"38 E 58th St","coordinates":{"latitude":40.76273,"longitude":-73.97155},"review_count":100,"rating":3.5,"zip_code":"10022"},{"id":"vCqcAGPFRN0pA7vjjJYwzA","name":"Mr. Panzerotto","cuisine":"Italian","address":"124 Macdougal St","coordinates":{"latitude":40.7299099,"longitude":-74.00025},"review_count":56,"rating":4,"zip_code":"10012"},{"id":"wUoLj0v2cJ9T4mgebQqoZw","name":"Giardino D'oro","cuisine":"Italian","address":"5 Gold St","coordinates":{"latitude":40.70758,"longitude":-74.00715},"review_count":77,"rating":4,"zip_code":"10038"},{"id":"d7LM2UaxRQachlWhZGP_tg","name":"Casa Bella Restaurant","cuisine":"Italian","address":"127 Mulberry St","coordinates":{"latitude":40.718179080217,"longitude":-73.9979933232788},"review_count":323,"rating":3,"zip_code":"10013"},{"id":"KscSF2Bnwa_wlg1MbdFjvQ","name":"Tre Sorelle","cuisine":"Italian","address":"61 Reade St","coordinates":{"latitude":40.7149022072554,"longitude":-74.0064939111471},"review_count":122,"rating":3.5,"zip_code":"10007"},{"id":"22RnbE0EAPsv50XzJhtnyg","name":"Giorgione","cuisine":"Italian","address":"307 Spring St","coordinates":{"latitude":40.72615,"longitude":-74.008445},"review_count":129,"rating":3.5,"zip_code":"10013"},{"id":"Ng092KqBbDX6FWUtpWghww","name":"Cipriani Wall Street","cuisine":"Italian","address":"55 Wall St","coordinates":{"latitude":40.70611,"longitude":-74.00921},"review_count":166,"rating":3.5,"zip_code":"10005"},{"id":"YLVvBYOumnR9ewrrqQbcxA","name":"Anthony & Son Panini Shoppe","cuisine":"Italian","address":"433 Graham Ave","coordinates":{"latitude":40.71792,"longitude":-73.945234},"review_count":235,"rating":4,"zip_code":"11211"},{"id":"CBsNd6iuSyiSMPw2pOzRHw","name":"Bar Italia Madison","cuisine":"Italian","address":"768 Madison Ave","coordinates":{"latitude":40.76793,"longitude":-73.96857},"review_count":103,"rating":3.5,"zip_code":"10065"},{"id":"xEdAaZTNNHRZbvzBuSjcCg","name":"House of Lasagna","cuisine":"Italian","address":"334 Lexington Ave","coordinates":{"latitude":40.7497237,"longitude":-73.9775697},"review_count":113,"rating":3.5,"zip_code":"10016"},{"id":"p-BHJdQ57eM-WlKTP7B44w","name":"Antika Pizzeria","cuisine":"Italian","address":"36-08 30th Ave","coordinates":{"latitude":40.7646599,"longitude":-73.9172211},"review_count":348,"rating":4,"zip_code":"11106"},{"id":"opCMbGK-fvGPRSBibPzu3w","name":"Famous Amadeus Pizza","cuisine":"Italian","address":"840 8th Ave","coordinates":{"latitude":40.7626,"longitude":-73.98566},"review_count":189,"rating":3,"zip_code":"10019"},{"id":"uy9JPyjgthV64RCJN-EyAw","name":"Harry Cipriani","cuisine":"Italian","address":"781 5th Ave","coordinates":{"latitude":40.76439,"longitude":-73.97271},"review_count":128,"rating":3,"zip_code":"10022"},{"id":"ry0nAQiUn8bpNAruY_5wfw","name":"Scalino","cuisine":"Italian","address":"659 Manhattan Ave","coordinates":{"latitude":40.7244699,"longitude":-73.95151},"review_count":170,"rating":4.5,"zip_code":"11222"},{"id":"SJwnDYp53mHEbeZK2nXnbg","name":"Cipriani","cuisine":"Italian","address":"110 E 42nd St","coordinates":{"latitude":40.75145,"longitude":-73.97707},"review_count":90,"rating":3.5,"zip_code":"10017"},{"id":"VZp3EjUNoRtxYfXbJQKH-w","name":"Renato's Pizza Masters","cuisine":"Italian","address":"278 Central Ave","coordinates":{"latitude":40.7442813,"longitude":-74.0503861},"review_count":263,"rating":4,"zip_code":"07307"},{"id":"Vm6_cXz8hbvZhot0m1aaRg","name":"Italianissimo Ristorante","cuisine":"Italian","address":"307 E 84th St","coordinates":{"latitude":40.7765,"longitude":-73.95197},"review_count":81,"rating":4,"zip_code":"10028"},{"id":"yETcEIV9G7qxdwPdbivCmQ","name":"Piccola Venezia Restaurant","cuisine":"Italian","address":"4201 28th Ave","coordinates":{"latitude":40.764797,"longitude":-73.911766},"review_count":202,"rating":4,"zip_code":"11103"},{"id":"2jY0GUd2_Bx3Bai-9ZnE-g","name":"Al Forno Pizzeria","cuisine":"Italian","address":"1484 2nd Ave","coordinates":{"latitude":40.772102,"longitude":-73.955597},"review_count":142,"rating":3.5,"zip_code":"10075"},{"id":"laQ3UStO-W9fkSaM2Y4eLw","name":"Barilla Restaurants","cuisine":"Italian","address":"1290 6th Ave","coordinates":{"latitude":40.7608455063764,"longitude":-73.9793730976227},"review_count":190,"rating":3,"zip_code":"10104"},{"id":"PccEsrdFfkB3UsVndMspLQ","name":"Porto Bello Restaurant","cuisine":"Italian","address":"208 Thompson St","coordinates":{"latitude":40.72871,"longitude":-73.99932},"review_count":85,"rating":4,"zip_code":"10012"},{"id":"BPtbFrgWhGIMe0tb9w8eEQ","name":"PQR","cuisine":"Italian","address":"1631 2nd Ave","coordinates":{"latitude":40.7770939076836,"longitude":-73.95254369493},"review_count":52,"rating":4,"zip_code":"10028"},{"id":"eby9pE6FzmwjoYRVzDpzew","name":"Sette Mezzo","cuisine":"Italian","address":"969 Lexington Ave","coordinates":{"latitude":40.7693455389848,"longitude":-73.9627933502197},"review_count":55,"rating":4,"zip_code":"10021"},{"id":"IIsJN_ilLI36zGAF3SMCCQ","name":"La Piccola Cucina","cuisine":"Italian","address":"964 Amsterdam Ave","coordinates":{"latitude":40.8015,"longitude":-73.96534},"review_count":92,"rating":4,"zip_code":"10025"},{"id":"7aXY5AkXafxkDsq6k9E7Mg","name":"Little Luzzo's","cuisine":"Italian","address":"119 E 96th St","coordinates":{"latitude":40.786342,"longitude":-73.951553},"review_count":124,"rating":3.5,"zip_code":"10128"},{"id":"m4MPLIv-WsGdcB7GReE06Q","name":"Quattro Gatti Restaurant","cuisine":"Italian","address":"205 E 81st St","coordinates":{"latitude":40.77552,"longitude":-73.95587},"review_count":72,"rating":4,"zip_code":"10028"},{"id":"LAAlsJYd7gY-TkSpAlOfCA","name":"Melani Pizzeria","cuisine":"Italian","address":"170 Rivington St","coordinates":{"latitude":40.71915,"longitude":-73.9846},"review_count":55,"rating":4,"zip_code":"10002"},{"id":"2Nwmd7-1d1rI6lb9QSSYYA","name":"Sola Pasta Bar","cuisine":"Italian","address":"330 W Broadway","coordinates":{"latitude":40.72229,"longitude":-74.00403},"review_count":72,"rating":4,"zip_code":"10013"},{"id":"rJfGgBleDYCVq2rkBr_w-Q","name":"Barano","cuisine":"Italian","address":"26 Broadway","coordinates":{"latitude":40.71037,"longitude":-73.96794},"review_count":154,"rating":4.5,"zip_code":"11249"},{"id":"r5UZU74BHCbesEQ8K94YTA","name":"Luigi's Pizzeria","cuisine":"Italian","address":"1701 1st Ave","coordinates":{"latitude":40.778446,"longitude":-73.948632},"review_count":152,"rating":3,"zip_code":"10128"},{"id":"k2o2DJOZT0oGTM-zmAJUfQ","name":"Adelina's","cuisine":"Italian","address":"159 Greenpoint Ave","coordinates":{"latitude":40.730495,"longitude":-73.9533809},"review_count":139,"rating":4,"zip_code":"11222"},{"id":"Lw58gDv9ipwtOcg2EIJp3w","name":"Napoli Pizza & Pasta","cuisine":"Italian","address":"33-02 35th Ave","coordinates":{"latitude":40.75718,"longitude":-73.92686},"review_count":252,"rating":4,"zip_code":"11106"},{"id":"HJg9TbpyWvb6-AFPdb7NCA","name":"King","cuisine":"Italian","address":"18 King St","coordinates":{"latitude":40.7275,"longitude":-74.00346},"review_count":95,"rating":3.5,"zip_code":"10014"},{"id":"OmB4X44Ru8gjD6qgSNlXdg","name":"Primola","cuisine":"Italian","address":"1226 2nd Ave","coordinates":{"latitude":40.7638675,"longitude":-73.9616489},"review_count":93,"rating":3.5,"zip_code":"10065"},{"id":"t-Pm38_XhMnGfOYgkhaNRA","name":"Le Fanfare","cuisine":"Italian","address":"1103 Manhattan Ave","coordinates":{"latitude":40.736202,"longitude":-73.955558},"review_count":122,"rating":4,"zip_code":"11222"},{"id":"C5wHXhhX7mjDSA-RJ0AiLg","name":"Inatteso Cafe Casano","cuisine":"Italian","address":"38 West St","coordinates":{"latitude":40.7064411460336,"longitude":-74.0169924848933},"review_count":79,"rating":4,"zip_code":"10004"},{"id":"WE_dce2JKcv-VoFNaqiJ4w","name":"Carmine's Pizzeria","cuisine":"Italian","address":"358 Graham Ave","coordinates":{"latitude":40.714987,"longitude":-73.94414},"review_count":368,"rating":4,"zip_code":"11211"},{"id":"cstY7raneU90iTj5hCOC0A","name":"Baita At La Birreria","cuisine":"Italian","address":"200 5th Ave","coordinates":{"latitude":40.742165,"longitude":-73.989894},"review_count":148,"rating":3,"zip_code":"10010"},{"id":"OsEMa_QiTDiwSmoRmf8O3g","name":"Dante at GENUINE","cuisine":"Italian","address":"191 Grand St","coordinates":{"latitude":40.71907,"longitude":-73.99724},"review_count":34,"rating":4.5,"zip_code":"10013"},{"id":"FpRcx4WDN3CM1BtUZmh9DA","name":"Two Boots Upper East Side","cuisine":"Italian","address":"1617 2nd Ave","coordinates":{"latitude":40.7765069,"longitude":-73.9529177},"review_count":188,"rating":3,"zip_code":"10028"},{"id":"yXwzpfdsDQqg9k5odYonFw","name":"Bricco Ristorante Italiano","cuisine":"Italian","address":"304 W 56th St","coordinates":{"latitude":40.766083,"longitude":-73.984023},"review_count":115,"rating":3.5,"zip_code":"10019"},{"id":"35TekDVXNNnWWz4tDvg-_w","name":"Rosticeria Da Gigi","cuisine":"Italian","address":"916 Washington St","coordinates":{"latitude":40.7478555804946,"longitude":-74.0280557568127},"review_count":157,"rating":4,"zip_code":"07030"},{"id":"Jsl8X_QjMLST0IyzTH4z5Q","name":"Pizza Mercato","cuisine":"Italian","address":"11 Waverly Pl","coordinates":{"latitude":40.73015,"longitude":-73.9941599},"review_count":142,"rating":3.5,"zip_code":"10003"},{"id":"clLjkdzKMfv6bZGeSrEsSw","name":"Napoli's Brick Oven Pizza","cuisine":"Italian","address":"1118 Washington St","coordinates":{"latitude":40.75072,"longitude":-74.02717},"review_count":390,"rating":3.5,"zip_code":"07030"},{"id":"o7Y1WT__Ea5PYSLZwxPSpw","name":"Serafina at The Time Hotel","cuisine":"Italian","address":"224 W 49th St","coordinates":{"latitude":40.76109,"longitude":-73.9854299},"review_count":168,"rating":3,"zip_code":"10019"},{"id":"m3PS0tIaa0ChcP8Y5S-DrQ","name":"MAMA'S TOO!","cuisine":"Italian","address":"2750 Broadway","coordinates":{"latitude":40.80084,"longitude":-73.96766},"review_count":44,"rating":4.5,"zip_code":"10025"},{"id":"fBDnGXpDXFAgpZDB0XDSvQ","name":"Cappone's Salumeria","cuisine":"Italian","address":"75 9th Ave","coordinates":{"latitude":40.739143,"longitude":-74.00702},"review_count":50,"rating":4,"zip_code":"10014"},{"id":"0zxGc7hit7mFSk2o1PvIdQ","name":"Umberto's Clam House","cuisine":"Italian","address":"132 Mulberry St","coordinates":{"latitude":40.71841,"longitude":-73.99767},"review_count":348,"rating":2.5,"zip_code":"10013"},{"id":"FNxOWxts63oDRKwy9Pbfzw","name":"Tarallucci E Vino - Nomad","cuisine":"Italian","address":"44 E 28th St","coordinates":{"latitude":40.7436553,"longitude":-73.9852171},"review_count":70,"rating":4,"zip_code":"10016"},{"id":"skLDCHQcmivdGx5Qd_qBIA","name":"Il Passatore","cuisine":"Italian","address":"14 Bushwick Ave","coordinates":{"latitude":40.71431,"longitude":-73.94217},"review_count":339,"rating":4,"zip_code":"11211"},{"id":"EZNw56hywTm1PJNYOMbfHQ","name":"Morso","cuisine":"Italian","address":"420 E 59th St","coordinates":{"latitude":40.759032,"longitude":-73.960801},"review_count":102,"rating":3.5,"zip_code":"10022"},{"id":"sAhSxnsrDuCXJOpoJcJ1fw","name":"Acqua","cuisine":"Italian","address":"718 Amsterdam Ave","coordinates":{"latitude":40.793395,"longitude":-73.971252},"review_count":133,"rating":3,"zip_code":"10025"},{"id":"bZZzJ2IJiL-ZAn6qen0-xA","name":"Pizza Stop","cuisine":"Italian","address":"2166 Frederick Douglass Blvd","coordinates":{"latitude":40.8048058390532,"longitude":-73.9547390118241},"review_count":31,"rating":4.5,"zip_code":"10026"},{"id":"dsxgbkIKyu7x7JgpAKeZPA","name":"Tarallucci E Vino - Upper West Side","cuisine":"Italian","address":"475 Columbus Ave","coordinates":{"latitude":40.78431,"longitude":-73.97336},"review_count":95,"rating":3.5,"zip_code":"10024"},{"id":"7cOibAFiGbSsSWo27SLIgw","name":"Tutto A Modo Mio","cuisine":"Italian","address":"482 Bergen Blvd","coordinates":{"latitude":40.8244151,"longitude":-73.9972534},"review_count":266,"rating":4,"zip_code":"07657"},{"id":"BiNtCoIGo00Lua93hOrj3Q","name":"Bella Via Restaurant","cuisine":"Italian","address":"4746 Vernon Blvd","coordinates":{"latitude":40.744281,"longitude":-73.953903},"review_count":293,"rating":3.5,"zip_code":"11101"},{"id":"oNJOIxuZlrTYFWwAFMTdkQ","name":"Tre Otto","cuisine":"Italian","address":"1410 Madison Ave","coordinates":{"latitude":40.788425,"longitude":-73.953643},"review_count":117,"rating":3.5,"zip_code":"10029"},{"id":"HV8xairb2qct7wSHqNwqXw","name":"Levante","cuisine":"Italian","address":"26-21 Jackson Ave","coordinates":{"latitude":40.7476347,"longitude":-73.9417521},"review_count":95,"rating":4,"zip_code":"11101"},{"id":"M-2aF4N8jIewBt3UoYEYJg","name":"Fornino- Greenpoint","cuisine":"Italian","address":"849 Manhattan Ave","coordinates":{"latitude":40.728949,"longitude":-73.953999},"review_count":163,"rating":4,"zip_code":"11222"},{"id":"y5b85IZGLxNdksDBFm1GBw","name":"Gene's Restaurant","cuisine":"Italian","address":"73 W 11th St","coordinates":{"latitude":40.735408782959,"longitude":-73.9977264404297},"review_count":71,"rating":4,"zip_code":"10011"},{"id":"5sjCvzf1ICjkgA8RAfWzqQ","name":"Farinella Bakery Pizza","cuisine":"Italian","address":"788 Lexington Ave","coordinates":{"latitude":40.763764,"longitude":-73.967358},"review_count":125,"rating":3,"zip_code":"10065"},{"id":"NBeQAgTo9hlJxgp9xbMO-w","name":"Tufino Pizzeria Napoletana","cuisine":"Italian","address":"36-08 Ditmars Blvd","coordinates":{"latitude":40.773986,"longitude":-73.908126},"review_count":292,"rating":4,"zip_code":"11105"},{"id":"uvQM9dckyv8RZB3hQYrKKw","name":"The Grotto Pizzeria & Ristorante","cuisine":"Italian","address":"69 New St","coordinates":{"latitude":40.70566,"longitude":-74.0124},"review_count":119,"rating":3.5,"zip_code":"10004"},{"id":"h_sq1vPUFjBs2nHb62slDg","name":"Cipriani Dolci","cuisine":"Italian","address":"89 E 42nd St","coordinates":{"latitude":40.7527278758581,"longitude":-73.9775700156476},"review_count":181,"rating":3,"zip_code":"10017"},{"id":"uQBlitra7XJTFJPXUGWBJw","name":"Alphonso's Pizzeria & Trattoria","cuisine":"Italian","address":"525 Grand St","coordinates":{"latitude":40.7143,"longitude":-73.98172},"review_count":94,"rating":3.5,"zip_code":"10002"},{"id":"ugj4h67GK9hcvKgEIy5Tew","name":"Pasta Flyer","cuisine":"Italian","address":"510 6th Ave","coordinates":{"latitude":40.73713,"longitude":-73.99678},"review_count":79,"rating":3.5,"zip_code":"10011"},{"id":"eMSTTuOUlKEnSOr8lPp3Xg","name":"Ammazzacaffè","cuisine":"Italian","address":"702 Grand St","coordinates":{"latitude":40.7113172,"longitude":-73.9446243},"review_count":76,"rating":4.5,"zip_code":"11211"},{"id":"I8wk0uwL6R0RhSprSlPvNw","name":"Roman Nose","cuisine":"Italian","address":"125 Newark Ave","coordinates":{"latitude":40.7200279,"longitude":-74.0433197},"review_count":588,"rating":3.5,"zip_code":"07302"},{"id":"nYJzYoiENZdZW57a75H_Ww","name":"Two Boots Upper West Side","cuisine":"Italian","address":"2547 Broadway","coordinates":{"latitude":40.794354,"longitude":-73.972445},"review_count":156,"rating":3,"zip_code":"10025"},{"id":"oEjWa3AETzPQfM3S1wRiLA","name":"Due","cuisine":"Italian","address":"1396 3rd Ave","coordinates":{"latitude":40.77466,"longitude":-73.95724},"review_count":56,"rating":4,"zip_code":"10075"},{"id":"ycsULlWDvuj-jop3VESy4Q","name":"Arte Restaurant","cuisine":"Italian","address":"21 E 9th St","coordinates":{"latitude":40.7325057983398,"longitude":-73.9945526123047},"review_count":82,"rating":3.5,"zip_code":"10003"},{"id":"FakrQWMNdYoBIp18Tpvn0Q","name":"Pangea","cuisine":"Italian","address":"178 2nd Ave","coordinates":{"latitude":40.730472,"longitude":-73.9859},"review_count":116,"rating":3.5,"zip_code":"10003"},{"id":"1OQSFZYa7yqpVj6e4lf4lg","name":"Fluem Pasta","cuisine":"Italian","address":"241 Pearl St","coordinates":{"latitude":40.70753,"longitude":-74.00538},"review_count":27,"rating":4.5,"zip_code":"10038"},{"id":"yQ7K4uFnxXxpBVbnOSR8kA","name":"Polpette 71","cuisine":"Italian","address":"71 West 71st St","coordinates":{"latitude":40.77668,"longitude":-73.97888},"review_count":63,"rating":4,"zip_code":"10023"},{"id":"s9yeu2AneMTK4zRI96RzlQ","name":"Margherita's Pizzeria","cuisine":"Italian","address":"740 Washington St","coordinates":{"latitude":40.74594,"longitude":-74.02855},"review_count":259,"rating":3.5,"zip_code":"07030"},{"id":"DOmcM66qzKHbj-n1LTJyHQ","name":"Tutta Pesca","cuisine":"Italian","address":"155 3rd St","coordinates":{"latitude":40.7401,"longitude":-74.03134},"review_count":135,"rating":4.5,"zip_code":"07030"},{"id":"o1DJJkCqfKRMojvnJyh_JA","name":"Bar Basso","cuisine":"Italian","address":"235 W 56th St","coordinates":{"latitude":40.76598,"longitude":-73.98255},"review_count":50,"rating":4,"zip_code":"10019"},{"id":"XInU-DVHFwunAnsOL8bOrA","name":"3 Giovani","cuisine":"Italian","address":"548 Laguardia Pl","coordinates":{"latitude":40.72907,"longitude":-73.99839},"review_count":98,"rating":3.5,"zip_code":"10012"},{"id":"pwzLpR9ys1NkE3ppjT88MQ","name":"Pietro Nolita","cuisine":"Italian","address":"174 Elizabeth St","coordinates":{"latitude":40.721,"longitude":-73.99463},"review_count":230,"rating":3,"zip_code":"10012"},{"id":"bwvd5ZwBTXdpCwJktU-P8g","name":"Sabor A Veracruz","cuisine":"Italian","address":"6415 Bergenline Ave","coordinates":{"latitude":40.79295,"longitude":-74.01361},"review_count":109,"rating":4.5,"zip_code":"07093"},{"id":"n7m04vLBK5FCCJcFQ099TA","name":"Bruno's Catering & Pizza","cuisine":"Italian","address":"282 1st Ave","coordinates":{"latitude":40.7328137,"longitude":-73.9808686},"review_count":110,"rating":3,"zip_code":"10009"},{"id":"OHgGIQm3TLyBCi2oxgRYWg","name":"Sirio Ristorante","cuisine":"Italian","address":"151 E 58th St","coordinates":{"latitude":40.761244329549,"longitude":-73.9675754004307},"review_count":62,"rating":4,"zip_code":"10022"},{"id":"14nTZtIl6T6V2YX6B9_WaA","name":"Tali Restaurant","cuisine":"Italian","address":"77 Lexington Ave","coordinates":{"latitude":40.74121,"longitude":-73.98321},"review_count":52,"rating":4,"zip_code":"10010"},{"id":"foRWizWrQ32g6Vv4g9UTnA","name":"Nocciola Ristorante","cuisine":"Italian","address":"237 E 116th St","coordinates":{"latitude":40.7973406168505,"longitude":-73.9382923766971},"review_count":183,"rating":4,"zip_code":"10029"},{"id":"HCceFqcvzUbGFO5Bv6Q_pA","name":"Raviolo","cuisine":"Italian","address":"57 7th Ave S","coordinates":{"latitude":40.73168,"longitude":-74.00368},"review_count":61,"rating":4,"zip_code":"10014"},{"id":"Z22s9SoQOndAey4_SULrvA","name":"Mediterraneo Restaurant","cuisine":"Italian","address":"1260 2nd Ave","coordinates":{"latitude":40.7649733,"longitude":-73.9609846},"review_count":235,"rating":2.5,"zip_code":"10065"},{"id":"T_vLaKsuyJPDpsrSZuc7WA","name":"Battello","cuisine":"Italian","address":"502 Washington Blvd","coordinates":{"latitude":40.7254501288668,"longitude":-74.0325578867018},"review_count":400,"rating":4,"zip_code":"07310"},{"id":"vAMKgIUWCrYxjfhceCCNAQ","name":"Sandro's","cuisine":"Italian","address":"306 E 81st St","coordinates":{"latitude":40.7742854,"longitude":-73.9537163},"review_count":54,"rating":4,"zip_code":"10028"},{"id":"iQTPjiskoE0jfHsoBSR1Jw","name":"Rocco's Italian Sausages & Philly Cheese Steaks","cuisine":"Italian","address":"5010 Northern Blvd","coordinates":{"latitude":40.7527307533468,"longitude":-73.9125879583358},"review_count":114,"rating":4.5,"zip_code":"11101"},{"id":"_eImQkZt0MlQ0jLZH2LrTQ","name":"GP's Restaurant","cuisine":"Italian","address":"24 69th St","coordinates":{"latitude":40.79126,"longitude":-74.00167},"review_count":102,"rating":4.5,"zip_code":"07093"},{"id":"hXIMuwoGoSKnvHdiMDkMnw","name":"Obicà Mozzarella Bar Pizza e Cucina","cuisine":"Italian","address":"590 Madison Ave","coordinates":{"latitude":40.761998,"longitude":-73.97324},"review_count":104,"rating":3,"zip_code":"10022"},{"id":"h8KFYWKeSsBe--9GzAayNw","name":"La Pizza Fresca Ristorante","cuisine":"Italian","address":"31 E 20th St","coordinates":{"latitude":40.7390403747559,"longitude":-73.9888916015625},"review_count":137,"rating":3,"zip_code":"10003"},{"id":"P6mNpH4eBPA-42Z0PFEqtQ","name":"Regina's Grocery","cuisine":"Italian","address":"27 Orchard St","coordinates":{"latitude":40.7155,"longitude":-73.99169},"review_count":16,"rating":4.5,"zip_code":"10002"},{"id":"15d_Y6TVOQFD2KRVkxuAjw","name":"Baci & Abbracci","cuisine":"Italian","address":"204 Grand St","coordinates":{"latitude":40.7139015197754,"longitude":-73.96044921875},"review_count":259,"rating":4,"zip_code":"11211"},{"id":"fH8DkdRerw5LJ7fZZHRfeA","name":"Leuca","cuisine":"Italian","address":"111 N 12th St","coordinates":{"latitude":40.722121,"longitude":-73.956678},"review_count":174,"rating":4,"zip_code":"11249"},{"id":"tJxAlyeT5PRbUIyJ2wsv-A","name":"Bamonte's","cuisine":"Italian","address":"32 Withers St","coordinates":{"latitude":40.71665,"longitude":-73.95123},"review_count":280,"rating":4,"zip_code":"11211"},{"id":"GSZvuUdsCPisoNbttCqEvw","name":"Il Mulino Prime","cuisine":"Italian","address":"331 W Broadway","coordinates":{"latitude":40.7222497494839,"longitude":-74.0037372711639},"review_count":114,"rating":3.5,"zip_code":"10013"},{"id":"bmRbx7Fa5zerZQXvS29CMw","name":"Famous Famiglia Pizzeria","cuisine":"Italian","address":"1398 Madison Ave","coordinates":{"latitude":40.7878304,"longitude":-73.9539108},"review_count":66,"rating":3.5,"zip_code":"10029"},{"id":"wvn-FO-tY9_iWmA_OgMvEA","name":"Frank's Trattoria","cuisine":"Italian","address":"371 1st Ave","coordinates":{"latitude":40.73612,"longitude":-73.979473},"review_count":102,"rating":3.5,"zip_code":"10010"},{"id":"T-RXDLq_VEv7s1_SooYIYQ","name":"Osteria 57","cuisine":"Italian","address":"57 W 10th St","coordinates":{"latitude":40.73467,"longitude":-73.99786},"review_count":32,"rating":4.5,"zip_code":"10011"},{"id":"aHRcUI_UqFNV87GF7WRIDQ","name":"Aunt Jake's","cuisine":"Italian","address":"47 W 8th St","coordinates":{"latitude":40.73329,"longitude":-73.99852},"review_count":53,"rating":4,"zip_code":"10011"},{"id":"ZgSLZ3ap7GG6qbt_9Plb6g","name":"Il Fornaio Bakery Cafe","cuisine":"Italian","address":"29-14 30th Ave","coordinates":{"latitude":40.7675803588504,"longitude":-73.9232428640954},"review_count":153,"rating":4.5,"zip_code":"11102"},{"id":"pTWFuMYed409y99N0zY05Q","name":"Barbaresco Restaurant","cuisine":"Italian","address":"843 Lexington Ave","coordinates":{"latitude":40.76539,"longitude":-73.96556},"review_count":74,"rating":3.5,"zip_code":"10065"},{"id":"Zgxqluk9HIZ0yKNTWMWpbA","name":"Forcella","cuisine":"Italian","address":"485 Lorimer St","coordinates":{"latitude":40.711353,"longitude":-73.9490983},"review_count":394,"rating":3.5,"zip_code":"11211"},{"id":"cRfAN-SRlFuaSd-mp-9iiQ","name":"Restivo Ristorante","cuisine":"Italian","address":"209 7th Ave","coordinates":{"latitude":40.7434605855724,"longitude":-73.9959991865082},"review_count":98,"rating":3.5,"zip_code":"10011"},{"id":"Ry9w-jFALWYhazi6jjyIKw","name":"Rucola","cuisine":"Italian","address":"190 Dean St","coordinates":{"latitude":40.68554,"longitude":-73.98592},"review_count":413,"rating":4,"zip_code":"11217"},{"id":"iFuHNNBLQkeQOn0KoXHhUA","name":"Boccone Mediterranean Tapas & Wine Bar","cuisine":"Italian","address":"506 9th Ave","coordinates":{"latitude":40.75603,"longitude":-73.99398},"review_count":56,"rating":4,"zip_code":"10018"},{"id":"_Klr6rynJ4b_oc7ehRPoZA","name":"Paul & Jimmy's","cuisine":"Italian","address":"123 E 18th St","coordinates":{"latitude":40.73673,"longitude":-73.98732},"review_count":83,"rating":3.5,"zip_code":"10003"},{"id":"LyFVS_a089B96WTEGLNpeA","name":"Ria Bella Pizza","cuisine":"Italian","address":"1049 Manhattan Ave","coordinates":{"latitude":40.7347748800472,"longitude":-73.955205076056},"review_count":101,"rating":4.5,"zip_code":"11222"},{"id":"vYLP5X5b7w9hskxeRkk9eA","name":"Giovannis Deli","cuisine":"Italian","address":"267 Centre Ave","coordinates":{"latitude":40.79216,"longitude":-74.06426},"review_count":154,"rating":4.5,"zip_code":"07094"},{"id":"uRFXDG0vmjKQ39DlGVn0dg","name":"Mezzogiorno","cuisine":"Italian","address":"2791 Broadway","coordinates":{"latitude":40.80285,"longitude":-73.96798},"review_count":48,"rating":4,"zip_code":"10025"},{"id":"i_rg-OLXQbpRUN7O3MeCeA","name":"Piz-zetta","cuisine":"Italian","address":"90 Livingston St","coordinates":{"latitude":40.6912834070746,"longitude":-73.9906029201042},"review_count":209,"rating":4.5,"zip_code":"11201"},{"id":"EkueKakBOazLteBREvD_qA","name":"Serafina Upper West","cuisine":"Italian","address":"2178 Broadway","coordinates":{"latitude":40.7822587931929,"longitude":-73.9805542713186},"review_count":302,"rating":2.5,"zip_code":"10024"},{"id":"e7jRn5TNlF84k7PuvJ1MOA","name":"Manducatis Rustica","cuisine":"Italian","address":"46-33 Vernon Blvd","coordinates":{"latitude":40.7458575124991,"longitude":-73.9528775638914},"review_count":163,"rating":3.5,"zip_code":"11101"},{"id":"rDcXfsees9Yiz47MRRhI9g","name":"Romano Pizza","cuisine":"Italian","address":"4206 Park Ave","coordinates":{"latitude":40.7753189653158,"longitude":-74.0199860930443},"review_count":193,"rating":4,"zip_code":"07086"},{"id":"x6_1vzeCH9YvbvIBmSr2iA","name":"DOC Wine Bar","cuisine":"Italian","address":"83 N 7th St","coordinates":{"latitude":40.719761,"longitude":-73.960367},"review_count":186,"rating":4,"zip_code":"11249"},{"id":"SxevJa1nDYO4KXKSO1Mosw","name":"Luna Pizza","cuisine":"Italian","address":"225 Park Row","coordinates":{"latitude":40.713245675315,"longitude":-73.998651104496},"review_count":57,"rating":4,"zip_code":"10038"},{"id":"nHMDOIX32dGbfpuNUwsLNQ","name":"AlMar","cuisine":"Italian","address":"111 Front St","coordinates":{"latitude":40.702662,"longitude":-73.989177},"review_count":312,"rating":4,"zip_code":"11201"},{"id":"LdWyeeV8DuYINKVTghFwrg","name":"Canaletto","cuisine":"Italian","address":"208 E 60th St","coordinates":{"latitude":40.76174,"longitude":-73.96569},"review_count":51,"rating":4,"zip_code":"10022"},{"id":"Eat-uM_da1JVPxrTgK4mvA","name":"Giuseppe's Pizza","cuisine":"Italian","address":"341 Lexington Ave","coordinates":{"latitude":40.74969,"longitude":-73.97704},"review_count":77,"rating":3.5,"zip_code":"10016"},{"id":"COVGkASgKQ5aqIGn9evmgA","name":"Arancini Bros","cuisine":"Italian","address":"120 Essex St","coordinates":{"latitude":40.7191861062729,"longitude":-73.9876049843888},"review_count":23,"rating":4.5,"zip_code":"10002"},{"id":"4ixWiPyYysS2i8LAg4qzrQ","name":"La Villetta","cuisine":"Italian","address":"398 E 52nd St","coordinates":{"latitude":40.7549171,"longitude":-73.9650879},"review_count":58,"rating":4,"zip_code":"10022"},{"id":"1mp7uP6Kz_Zz4UClVfnjFQ","name":"Testo","cuisine":"Italian","address":"141 Leonard St","coordinates":{"latitude":40.70832,"longitude":-73.9468799},"review_count":159,"rating":4.5,"zip_code":"11206"},{"id":"hFmz7HH2og9hn7xNNv20yw","name":"Il Porto","cuisine":"Italian","address":"37 Washington Ave","coordinates":{"latitude":40.6974427,"longitude":-73.9675197},"review_count":256,"rating":4,"zip_code":"11205"},{"id":"cg-WHaj-g-3NHnRCOEJKpA","name":"Notaro Ristorante","cuisine":"Italian","address":"635 2nd Ave","coordinates":{"latitude":40.74528,"longitude":-73.97574},"review_count":99,"rating":3,"zip_code":"10016"},{"id":"WwyOYh84Ea0HNaQGgA6d4w","name":"Kestè Williamsburg","cuisine":"Italian","address":"232 N 12th St","coordinates":{"latitude":40.7192686,"longitude":-73.9530651},"review_count":117,"rating":4,"zip_code":"11211"},{"id":"0k6OrRfbWt5oVPI4JCztlw","name":"Gino's Pizzeria","cuisine":"Italian","address":"380 Central Ave","coordinates":{"latitude":40.74776,"longitude":-74.04788},"review_count":178,"rating":4,"zip_code":"07307"},{"id":"M1DtTHfV7hstQypHpx9DqA","name":"Pretto","cuisine":"Italian","address":"417 Amsterdam Ave","coordinates":{"latitude":40.78365,"longitude":-73.9777299},"review_count":56,"rating":4,"zip_code":"10024"},{"id":"zPu7J1Kbq0sBHBcfTOgJ2Q","name":"Sal's Pizzeria","cuisine":"Italian","address":"6127 Bergenline Ave","coordinates":{"latitude":40.7905798,"longitude":-74.0152258},"review_count":146,"rating":4,"zip_code":"07093"},{"id":"z5-TEI72RVwwtWG4CEggLw","name":"Lunella Ristorante Italiano","cuisine":"Italian","address":"173 Mulberry St","coordinates":{"latitude":40.720108,"longitude":-73.997215},"review_count":158,"rating":3,"zip_code":"10013"},{"id":"EsHcyOLHaK76bQuU7bwiTw","name":"Tonys Pizzeria & Restaurant","cuisine":"Italian","address":"443 Knickerbocker Ave","coordinates":{"latitude":40.699286,"longitude":-73.918724},"review_count":236,"rating":4.5,"zip_code":"11237"},{"id":"wOq-Jt26jnFf_rhF4r5D6w","name":"Scampi","cuisine":"Italian","address":"30 W 18th St","coordinates":{"latitude":40.73902,"longitude":-73.99358},"review_count":59,"rating":4,"zip_code":"10011"},{"id":"I6Wg1NFYAAVzM2OpsdqcXA","name":"Grand Vin","cuisine":"Italian","address":"500 Grand St","coordinates":{"latitude":40.74331,"longitude":-74.0351699},"review_count":201,"rating":4,"zip_code":"07030"},{"id":"mSUN6AosDrAuM9H29qEhgg","name":"Alba's Pizza & Restaurant","cuisine":"Italian","address":"3620 Ditmars Blvd","coordinates":{"latitude":40.77375,"longitude":-73.90778},"review_count":214,"rating":4,"zip_code":"11105"},{"id":"yA6X0jOWMJW0FRewgyUy9Q","name":"Gina La Fornarina","cuisine":"Italian","address":"26 E 91st St","coordinates":{"latitude":40.78407,"longitude":-73.95678},"review_count":72,"rating":3.5,"zip_code":"10128"},{"id":"G-b9kvnRh0pLi4fsdcmwjg","name":"Joseph's","cuisine":"Italian","address":"3 Hanover Sq","coordinates":{"latitude":40.70499,"longitude":-74.00961},"review_count":58,"rating":4,"zip_code":"10004"},{"id":"Rp-1kZ68rHia43PrOd3EEQ","name":"Barilla Restaurants","cuisine":"Italian","address":"108 W 32nd St","coordinates":{"latitude":40.7487543,"longitude":-73.989334},"review_count":70,"rating":3.5,"zip_code":"10001"},{"id":"uEKiv6WEPg9dWj10HCur5A","name":"Table 87 Coal Oven Pizza","cuisine":"Italian","address":"87 Atlantic Ave","coordinates":{"latitude":40.691219329834,"longitude":-73.9973449707031},"review_count":202,"rating":4.5,"zip_code":"11201"},{"id":"ECw0vk1IykU3QIX1okSXdA","name":"Saluggi's East","cuisine":"Italian","address":"399 Grand St","coordinates":{"latitude":40.71601,"longitude":-73.9875},"review_count":55,"rating":4,"zip_code":"10002"},{"id":"V6e4UBjFzdrcUgKbJTrZpA","name":"Fumo Pizza-Bar-Pasta","cuisine":"Italian","address":"1600 Amsterdam Ave","coordinates":{"latitude":40.82144,"longitude":-73.95062},"review_count":218,"rating":4,"zip_code":"10031"},{"id":"DJsoVgloRAOrsGM2HQKDoA","name":"Fino Ristorante","cuisine":"Italian","address":"82 Beaver St","coordinates":{"latitude":40.705204,"longitude":-74.00844},"review_count":66,"rating":3.5,"zip_code":"10005"},{"id":"14CZLOKOX7GJqbTaUt5HpQ","name":"Rizzo Bakery","cuisine":"Italian","address":"208 Central Ave","coordinates":{"latitude":40.74173,"longitude":-74.052106},"review_count":85,"rating":4.5,"zip_code":"07307"},{"id":"cp72DAW5Ndt9T625RNsMsg","name":"Sottosuolo NYC","cuisine":"Italian","address":"122 E 27th St","coordinates":{"latitude":40.74211,"longitude":-73.98368},"review_count":37,"rating":4,"zip_code":"10016"},{"id":"mYQMjrtHp8vsEKKNsRz1XA","name":"Union Pizza Works","cuisine":"Italian","address":"423 Troutman St","coordinates":{"latitude":40.7073067,"longitude":-73.922154},"review_count":204,"rating":4,"zip_code":"11237"},{"id":"Jgaf3JmVaPokYB3ezbhjCQ","name":"Caravaggio","cuisine":"Italian","address":"23 E 74th St","coordinates":{"latitude":40.7734565734863,"longitude":-73.964729309082},"review_count":68,"rating":3.5,"zip_code":"10021"},{"id":"qIBT522O1LEUIWt_5S4Dmw","name":"Saba's Pizza","cuisine":"Italian","address":"1217 Lexington Ave","coordinates":{"latitude":40.77711,"longitude":-73.95716},"review_count":44,"rating":3.5,"zip_code":"10128"},{"id":"LQcacQ7YYlPK2dMWWoy48Q","name":"Casa Pizza & Restaurant","cuisine":"Italian","address":"1427 3rd Ave","coordinates":{"latitude":40.77532,"longitude":-73.95631},"review_count":52,"rating":3.5,"zip_code":"10028"},{"id":"hmwa4FyeLqwNTe6CNTA5tw","name":"Fioro","cuisine":"Italian","address":"191 Pearl St","coordinates":{"latitude":40.7064627453014,"longitude":-74.0071007580581},"review_count":45,"rating":4,"zip_code":"10038"},{"id":"ntQ7O1YPMIOrQkynhXRBVg","name":"Manducatis","cuisine":"Italian","address":"13-27 Jackson Ave","coordinates":{"latitude":40.7445948529884,"longitude":-73.9490695847509},"review_count":103,"rating":4,"zip_code":"11101"},{"id":"wLzJbddDixAEZrF7VT6_hw","name":"Bono Trattoria","cuisine":"Italian","address":"3658 Broadway","coordinates":{"latitude":40.8301996389829,"longitude":-73.9473449424522},"review_count":213,"rating":4.5,"zip_code":"10031"},{"id":"Qbnb7rRbvNg5WUoKLzz7gQ","name":"Oro Restaurant & Lounge","cuisine":"Italian","address":"41-17 Crescent Street","coordinates":{"latitude":40.7514791,"longitude":-73.9395537},"review_count":103,"rating":4,"zip_code":"11101"},{"id":"-neJTu9rpYM8-wjwA9WoIA","name":"Lex Restaurant","cuisine":"Italian","address":"1370 Lexington Ave","coordinates":{"latitude":40.7825297,"longitude":-73.9535605},"review_count":70,"rating":3.5,"zip_code":"10128"},{"id":"mqccXvBQsRFgB3YsgIWl5A","name":"Tom's Delicious Pizza","cuisine":"Italian","address":"3161 Broadway","coordinates":{"latitude":40.81486,"longitude":-73.95923},"review_count":59,"rating":3.5,"zip_code":"10027"},{"id":"M9D7n2aUqHw8KaS3WJXI3w","name":"Iggy's Pizzeria","cuisine":"Italian","address":"173 1st Ave","coordinates":{"latitude":40.72928,"longitude":-73.98442},"review_count":81,"rating":3.5,"zip_code":"10003"},{"id":"-0fjWWC2SY6kNxGfD8PKGg","name":"Palermo Restaurant & Bar","cuisine":"Italian","address":"2392 21st St","coordinates":{"latitude":40.7769088448014,"longitude":-73.9212289547099},"review_count":132,"rating":4.5,"zip_code":"11105"},{"id":"ezu7Ai6ADfHDYCklvuipWA","name":"Arturo's","cuisine":"Italian","address":"1617 York Ave","coordinates":{"latitude":40.775478,"longitude":-73.947847},"review_count":52,"rating":4,"zip_code":"10028"},{"id":"-tQ9Zlb5d9PPlDz_6UgV7w","name":"Antica Pesa","cuisine":"Italian","address":"115 Berry St","coordinates":{"latitude":40.71884,"longitude":-73.95865},"review_count":311,"rating":3.5,"zip_code":"11249"},{"id":"aDsUZs-esGEJVBFgAatucQ","name":"Terrace 5","cuisine":"Italian","address":"11 W 53rd St","coordinates":{"latitude":40.7614327,"longitude":-73.9776216},"review_count":65,"rating":3,"zip_code":"10019"},{"id":"jXcc7Ofp5b5Xwa3-NZc9Sw","name":"Vinnie's Pizzeria","cuisine":"Italian","address":"1603 2nd Ave","coordinates":{"latitude":40.776219,"longitude":-73.95327},"review_count":77,"rating":3.5,"zip_code":"10028"},{"id":"Yubu48l7he-qrNDSeAngbQ","name":"Via Vai","cuisine":"Italian","address":"31-09 23rd Ave","coordinates":{"latitude":40.7741411036965,"longitude":-73.9124788508343},"review_count":157,"rating":4,"zip_code":"11105"},{"id":"QcAUwIn9BmUsRQu3URhgzA","name":"Bravo Pizza","cuisine":"Italian","address":"115 E 14th St","coordinates":{"latitude":40.7342257,"longitude":-73.9890771},"review_count":103,"rating":3,"zip_code":"10003"},{"id":"mc6-ig757TzhPpJ7TV3pEQ","name":"Sal Anthony's","cuisine":"Italian","address":"226 3rd Ave","coordinates":{"latitude":40.73658,"longitude":-73.98502},"review_count":35,"rating":4,"zip_code":"10003"},{"id":"hot1lIebdQNau05onRum7w","name":"Otto Strada","cuisine":"Italian","address":"743 Park Ave","coordinates":{"latitude":40.7466038915745,"longitude":-74.0311605558891},"review_count":201,"rating":3.5,"zip_code":"07030"},{"id":"l-oj1yA5liiFEEwoi-1ELA","name":"Bottega Restaurant","cuisine":"Italian","address":"1331 2nd Ave","coordinates":{"latitude":40.7677346,"longitude":-73.9593295},"review_count":82,"rating":3,"zip_code":"10021"},{"id":"TkrV0mQu38XtbbvhZmiw5A","name":"Michael Angelo's Pizza","cuisine":"Italian","address":"2911 23rd Ave","coordinates":{"latitude":40.774986,"longitude":-73.913276},"review_count":168,"rating":4,"zip_code":"11105"},{"id":"H5L18XZRHh_13HaeeHH_sQ","name":"Casa Di Napoli","cuisine":"Italian","address":"703 32nd St","coordinates":{"latitude":40.774128,"longitude":-74.0310378},"review_count":96,"rating":4.5,"zip_code":"07087"},{"id":"HLvLgKNWjrTVvlK4iyZ9Vg","name":"Famous Original Ray's Pizza","cuisine":"Italian","address":"831 7th Ave","coordinates":{"latitude":40.7631751,"longitude":-73.9815334},"review_count":265,"rating":2.5,"zip_code":"10019"},{"id":"M358G7jMg0yn2nBB-v1O2Q","name":"Via Italia Restaurant","cuisine":"Italian","address":"45 W 46th St","coordinates":{"latitude":40.75698,"longitude":-73.98069},"review_count":131,"rating":3,"zip_code":"10036"},{"id":"3LNdlijyfwmKyf_KD1MAZg","name":"Rocky's Pizza Vinoteca","cuisine":"Italian","address":"535 3rd Ave","coordinates":{"latitude":40.74658,"longitude":-73.97704},"review_count":31,"rating":3.5,"zip_code":"10016"}]}
