{"businesses":[{"id":"a1GTJ0bYuoc0gOjhCupBmw","name":"Kien Tuong","cuisine":"Chinese","address":"83 Chrystie St","coordinates":{"latitude":40.71745,"longitude":-73.99455},"review_count":68,"rating":3.5,"zip_code":"10002"},{"id":"zyG1GIU3KnIZ3bOVGgJXlA","name":"Uncle Luoyang","cuisine":"Chinese","address":"928 Amsterdam Ave","coordinates":{"latitude":40.80023,"longitude":-73.96626},"review_count":90,"rating":3.5,"zip_code":"10025"},{"id":"m2_ZNFos5ugAwe8ft8eaEw","name":"Eim Khao Mun Kai Elmhurst","cuisine":"Chinese","address":"81-32 Broadway","coordinates":{"latitude":40.7429414097644,"longitude":-73.8832733356575},"review_count":290,"rating":4.5,"zip_code":"11373"},{"id":"MXstrG3HjF83LcxAd8OpTw","name":"New Li Yuan","cuisine":"Chinese","address":"273 W 38th St","coordinates":{"latitude":40.754589387013,"longitude":-73.9912518276348},"review_count":46,"rating":4,"zip_code":"10018"},{"id":"3Qpi419I29t3sCHMzC_h-g","name":"Harvest Chinese & Thai Cuisine","cuisine":"Chinese","address":"1502 1st Ave","coordinates":{"latitude":40.771812,"longitude":-73.952659},"review_count":71,"rating":3.5,"zip_code":"10075"},{"id":"zb78ua-FlfFRj8v082giBw","name":"Jimmy's House","cuisine":"Chinese","address":"162 E 25th St","coordinates":{"latitude":40.74016,"longitude":-73.98256},"review_count":93,"rating":3.5,"zip_code":"10010"},{"id":"7erFgHiQmw7ZJfVPmOjeeA","name":"M Shanghai Bistro & Garden","cuisine":"Chinese","address":"292 Grand St","coordinates":{"latitude":40.71285,"longitude":-73.95762},"review_count":389,"rating":3.5,"zip_code":"11211"},{"id":"lt3Leywt1pzy23OzDqYRVA","name":"XO Taste","cuisine":"Chinese","address":"41 Elizabeth St","coordinates":{"latitude":40.717025,"longitude":-73.996971},"review_count":157,"rating":3,"zip_code":"10013"},{"id":"dmX0ASRxBZJeMLFZ7WBK3g","name":"Sichuan Hot Pot Cuisine","cuisine":"Chinese","address":"34 Pell St","coordinates":{"latitude":40.7150052171701,"longitude":-73.9985468135734},"review_count":162,"rating":3,"zip_code":"10013"},{"id":"TaiP-ad7115hSotsSC_PlA","name":"C & L Dumpling House","cuisine":"Chinese","address":"77 Chrystie St","coordinates":{"latitude":40.717277,"longitude":-73.994598},"review_count":107,"rating":3.5,"zip_code":"10002"},{"id":"P6O2I3PbON26-P9Jhb7Q1A","name":"Young Xinjiang BBQ Cart","cuisine":"Chinese","address":"Forsyth St & Division St","coordinates":{"latitude":40.7142696738464,"longitude":-73.9941427168956},"review_count":33,"rating":4,"zip_code":"10002"},{"id":"5TnBfeoBpxPPwIXMGBMasg","name":"New Double Dragon","cuisine":"Chinese","address":"37 1st Ave","coordinates":{"latitude":40.7242431,"longitude":-73.9881041},"review_count":52,"rating":4,"zip_code":"10003"},{"id":"qpFoZi5PqY7KVWCRNOmFGw","name":"The Cottage","cuisine":"Chinese","address":"33 Irving Pl","coordinates":{"latitude":40.735746540724,"longitude":-73.9878559112549},"review_count":218,"rating":2.5,"zip_code":"10003"},{"id":"jhFqmhHRDf7TZcITsKntJA","name":"Plump Dumpling","cuisine":"Chinese","address":"174 2nd Ave","coordinates":{"latitude":40.730397,"longitude":-73.9861},"review_count":250,"rating":2.5,"zip_code":"10003"},{"id":"sMoKKcyUslHmHe0NmCYgfg","name":"The Chinese Club","cuisine":"Chinese","address":"208 Grand St","coordinates":{"latitude":40.713844,"longitude":-73.96039},"review_count":208,"rating":4,"zip_code":"11211"},{"id":"Mx4jHwGh5ZFHRMyiWZ_xfw","name":"Happy Express Cafe","cuisine":"Chinese","address":"6 Allen St","coordinates":{"latitude":40.7145133,"longitude":-73.9924451},"review_count":34,"rating":4,"zip_code":"10002"},{"id":"h0KwMWDU2I5jZhObfmN2Sg","name":"Flaming Kitchen","cuisine":"Chinese","address":"97 Bowery St","coordinates":{"latitude":40.717325,"longitude":-73.995023},"review_count":114,"rating":3.5,"zip_code":"10002"},{"id":"gQ6DNeLNWQV-zwWyuFeBpg","name":"No.1 Chinese Restaurant","cuisine":"Chinese","address":"10 S William St","coordinates":{"latitude":40.7046671846472,"longitude":-74.0105490435282},"review_count":138,"rating":3,"zip_code":"10004"},{"id":"xOL2SC34gdhKHSbyaDz9BA","name":"Pearls","cuisine":"Chinese","address":"796 Amsterdam Ave","coordinates":{"latitude":40.7958833,"longitude":-73.9692167},"review_count":134,"rating":3,"zip_code":"10025"},{"id":"AfF4zVbVI27zwgkzOLYDFg","name":"Xi'an Famous Foods","cuisine":"Chinese","address":"648 Manhattan Ave","coordinates":{"latitude":40.7243301734731,"longitude":-73.9509299397469},"review_count":177,"rating":4,"zip_code":"11222"},{"id":"KSYV3rNYaKWW-AHN4_i-7A","name":"Hot Sichuan","cuisine":"Chinese","address":"130 9th Ave","coordinates":{"latitude":40.74353,"longitude":-74.00326},"review_count":92,"rating":3.5,"zip_code":"10011"},{"id":"S-aX_Pz8F7nDL6kRThKcHw","name":"Vanessa's Dumpling House","cuisine":"Chinese","address":"310 Bedford Ave","coordinates":{"latitude":40.713795,"longitude":-73.961983},"review_count":420,"rating":3.5,"zip_code":"11211"},{"id":"TadRviRC9Z1WhgSsGi3Yow","name":"Great Wall Chinese","cuisine":"Chinese","address":"384 Grand St","coordinates":{"latitude":40.7165,"longitude":-73.98763},"review_count":75,"rating":3.5,"zip_code":"10002"},{"id":"QBhHq4eN7rtFzmDUciVL-Q","name":"King Wok","cuisine":"Chinese","address":"222 Varick St","coordinates":{"latitude":40.72904,"longitude":-74.0050399},"review_count":114,"rating":3.5,"zip_code":"10014"},{"id":"3K7Kc82bhU6-qjAjsBs3Fw","name":"Lao Bei Fang Dumpling House","cuisine":"Chinese","address":"8305 Broadway","coordinates":{"latitude":40.741153717041,"longitude":-73.8796234130859},"review_count":493,"rating":4,"zip_code":"11373"},{"id":"ud5ZnsGKFsgw0KErntD2lA","name":"Hoy Wong Restaurant","cuisine":"Chinese","address":"81 Mott St","coordinates":{"latitude":40.7165819,"longitude":-73.9980213},"review_count":96,"rating":3.5,"zip_code":"10013"},{"id":"YCen62jqSWhPOAorQjSZdQ","name":"MoonHouse","cuisine":"Chinese","address":"1810 3rd Ave","coordinates":{"latitude":40.788337,"longitude":-73.947502},"review_count":80,"rating":3.5,"zip_code":"10029"},{"id":"vZgJyMZlpSSS_Y-duxd4_A","name":"Kings Co Imperial","cuisine":"Chinese","address":"20 Skillman Ave","coordinates":{"latitude":40.71512,"longitude":-73.95097},"review_count":217,"rating":4,"zip_code":"11211"},{"id":"bgnM6uy66zupYzb4QdL3vA","name":"108 Food Dried Hot Pot","cuisine":"Chinese","address":"2794 Broadway","coordinates":{"latitude":40.80271,"longitude":-73.96738},"review_count":86,"rating":3.5,"zip_code":"10025"},{"id":"LYp3izplqg0x-h9CBlb-MQ","name":"China Gourmet","cuisine":"Chinese","address":"877 8th Ave","coordinates":{"latitude":40.76381,"longitude":-73.98524},"review_count":186,"rating":2.5,"zip_code":"10019"},{"id":"6gE9N5wD4K-bbmSEBm7Lhw","name":"Kong Kee","cuisine":"Chinese","address":"212 Grand St","coordinates":{"latitude":40.719047,"longitude":-73.996139},"review_count":45,"rating":3.5,"zip_code":"10002"},{"id":"dv-RaOwKFizDe4c5-sVJ5w","name":"Peking BBQ","cuisine":"Chinese","address":"58-11 Woodside Ave","coordinates":{"latitude":40.7456439082048,"longitude":-73.9062357614363},"review_count":209,"rating":4,"zip_code":"11377"},{"id":"hdiQrGDT8enOzpxaipBzNA","name":"Mee Noodle Shop & Grill","cuisine":"Chinese","address":"223 1st Ave","coordinates":{"latitude":40.730968,"longitude":-73.983215},"review_count":103,"rating":3,"zip_code":"10003"},{"id":"RffIwNrMmEf5auDVP1eURA","name":"Zai Lai: Homestyle Taiwanese","cuisine":"Chinese","address":"1000 S 8th Ave","coordinates":{"latitude":40.767127,"longitude":-73.983016},"review_count":75,"rating":3.5,"zip_code":"10019"},{"id":"KavW0SjAiElP2ajaexNQDQ","name":"Wing Kee WK Restaurant","cuisine":"Chinese","address":"69 Bayard St","coordinates":{"latitude":40.7155,"longitude":-73.99836},"review_count":40,"rating":4,"zip_code":"10013"},{"id":"_4UvguU5z2hMsHXlYedFXw","name":"Tao Hong Bakery","cuisine":"Chinese","address":"79 Chrystie St","coordinates":{"latitude":40.71735,"longitude":-73.9945679},"review_count":24,"rating":4.5,"zip_code":"10002"},{"id":"LztkKM-lvRraBbS9TVXzcg","name":"Yiwanmen","cuisine":"Chinese","address":"150 Mott St","coordinates":{"latitude":40.7193132739237,"longitude":-73.9962630421457},"review_count":75,"rating":3.5,"zip_code":"10013"},{"id":"dSaMEWm0EQTG4TOeUetU5w","name":"Jian Bing Man","cuisine":"Chinese","address":"11 W 32nd St","coordinates":{"latitude":40.74761,"longitude":-73.98631},"review_count":105,"rating":3,"zip_code":"10001"},{"id":"VQ5YGa4L4AT3ugF61hM9qQ","name":"Zongzi lady","cuisine":"Chinese","address":"Chrystie St Grand St","coordinates":{"latitude":40.7181661,"longitude":-73.9938466},"review_count":13,"rating":4.5,"zip_code":"10002"},{"id":"E1QQuFMX7DAEt8jV4attkA","name":"Taste Good","cuisine":"Chinese","address":"18 W 25th St","coordinates":{"latitude":40.7433836718734,"longitude":-73.9901636441803},"review_count":81,"rating":3.5,"zip_code":"10010"},{"id":"iSjPBJRiWqrgxW7ZM3CGig","name":"Birds of a Feather","cuisine":"Chinese","address":"191 Grand St","coordinates":{"latitude":40.71442,"longitude":-73.960441},"review_count":157,"rating":4,"zip_code":"11211"},{"id":"3NYQQckItp9l7GDzALw79w","name":"Lin's Gourmet","cuisine":"Chinese","address":"1097 2nd Ave","coordinates":{"latitude":40.759891,"longitude":-73.965187},"review_count":48,"rating":3.5,"zip_code":"10022"},{"id":"rJeh77RIvtmISisvVoy6TA","name":"Northern Tiger","cuisine":"Chinese","address":"225 Liberty St","coordinates":{"latitude":40.7126462901984,"longitude":-74.0160110541061},"review_count":108,"rating":3,"zip_code":"10281"},{"id":"6wJOojpF2c4lLeBNbTBB0A","name":"Baoburg","cuisine":"Chinese","address":"614 Manhattan Ave","coordinates":{"latitude":40.7234929271998,"longitude":-73.9503321851175},"review_count":142,"rating":4,"zip_code":"11222"},{"id":"8xDbEfYXuPwi-94LLcb22A","name":"Tomorrow","cuisine":"Chinese","address":"200 Pearl St","coordinates":{"latitude":40.707425,"longitude":-74.004784},"review_count":51,"rating":4,"zip_code":"10038"},{"id":"njqbo43rFzj934E5eHbPCw","name":"OK 218","cuisine":"Chinese","address":"218 Grand St","coordinates":{"latitude":40.71899,"longitude":-73.995811},"review_count":52,"rating":3.5,"zip_code":"10013"},{"id":"sxv1oJxG8uu6u4tjKHiJMA","name":"Bugis Street Brasserie and Bar","cuisine":"Chinese","address":"145 W 44th St","coordinates":{"latitude":40.7567689,"longitude":-73.9843329},"review_count":26,"rating":4,"zip_code":"10036"},{"id":"MYPes7EWP5aLiVG1Z_9eFQ","name":"Jing Fong","cuisine":"Chinese","address":"380 Amsterdam Ave","coordinates":{"latitude":40.7827096147799,"longitude":-73.9789128775797},"review_count":111,"rating":3,"zip_code":"10024"},{"id":"Qgv2vyUV-DwK8YwrhU-jtw","name":"Lan Sheng Restaurant","cuisine":"Chinese","address":"128 W 36th St","coordinates":{"latitude":40.7517141867087,"longitude":-73.9883603449123},"review_count":55,"rating":3.5,"zip_code":"10018"},{"id":"nA0FWQ0jf9yOCeuBTERC_w","name":"Golden Mandarin Court","cuisine":"Chinese","address":"61 Mott St","coordinates":{"latitude":40.715966,"longitude":-73.998382},"review_count":166,"rating":3,"zip_code":"10013"},{"id":"NebgteFykeM1gwiVgPcCHw","name":"The Handpulled Noodle","cuisine":"Chinese","address":"3600 Broadway","coordinates":{"latitude":40.82839,"longitude":-73.9487},"review_count":478,"rating":4,"zip_code":"10031"},{"id":"omOPvWNdukvWOC0peXPyng","name":"Fairview Chinese Restaurant","cuisine":"Chinese","address":"363 Fairview Ave","coordinates":{"latitude":40.81084,"longitude":-74.00097},"review_count":146,"rating":4,"zip_code":"07022"},{"id":"-4pRolL6EQddbv4iHrIZwQ","name":"Panda Express","cuisine":"Chinese","address":"1277 1st Ave","coordinates":{"latitude":40.7658172332478,"longitude":-73.9577729254961},"review_count":81,"rating":3.5,"zip_code":"10021"},{"id":"OQY_QgAYZhuNBsza2sl4YQ","name":"Fuleen Seafood Restaurant","cuisine":"Chinese","address":"11 Division St","coordinates":{"latitude":40.7139,"longitude":-73.99688},"review_count":73,"rating":3.5,"zip_code":"10002"},{"id":"s5JNxy0eAFgxS2Poi73ODw","name":"Mala Project","cuisine":"Chinese","address":"41 W 46th St","coordinates":{"latitude":40.75693,"longitude":-73.98056},"review_count":59,"rating":3.5,"zip_code":"10036"},{"id":"OfqANzeWRlZrdHQuG7pI0w","name":"China Chalet","cuisine":"Chinese","address":"47 Broadway","coordinates":{"latitude":40.7065032987417,"longitude":-74.012940146627},"review_count":143,"rating":3,"zip_code":"10006"},{"id":"-P9Wu5pDLTpmV3QBxTSgYg","name":"Anpanman Bakery Cafe","cuisine":"Chinese","address":"83 Canal St","coordinates":{"latitude":40.7154579,"longitude":-73.9930816},"review_count":27,"rating":4,"zip_code":"10002"},{"id":"rGuXwUtNoDp0_GmspjYwcA","name":"Petite Soo Chow","cuisine":"Chinese","address":"607 Gorge Rd","coordinates":{"latitude":40.8245099,"longitude":-73.98781},"review_count":457,"rating":3.5,"zip_code":"07010"},{"id":"ItZ8CzZAGXGjB8_9HxDIXg","name":"Grand Sichuan Eastern","cuisine":"Chinese","address":"172 8th Ave","coordinates":{"latitude":40.7425,"longitude":-74.00013},"review_count":88,"rating":3,"zip_code":"10011"},{"id":"ybQV8joopvU1_gG2RwLRog","name":"Wok City","cuisine":"Chinese","address":"153 Amsterdam Ave","coordinates":{"latitude":40.7752417820046,"longitude":-73.983876645396},"review_count":72,"rating":3,"zip_code":"10023"},{"id":"AEkpyAGcVe5NgH2Nb7fCNQ","name":"Nuevo Jardin De China Restaurant","cuisine":"Chinese","address":"3205 Broadway","coordinates":{"latitude":40.7615513755699,"longitude":-73.9243148820204},"review_count":183,"rating":3.5,"zip_code":"11106"},{"id":"rK9XW6F5Hk6IZT1oJAFwtA","name":"Yeah Shanghai Deluxe","cuisine":"Chinese","address":"50 Mott St","coordinates":{"latitude":40.7154938098333,"longitude":-73.9984104037285},"review_count":124,"rating":3,"zip_code":"10013"},{"id":"bacGm8cL-vUPHdR18_M7bw","name":"Charley Mom Restaurant","cuisine":"Chinese","address":"1580 York Ave","coordinates":{"latitude":40.7740287780762,"longitude":-73.9481582641602},"review_count":76,"rating":3.5,"zip_code":"10028"},{"id":"7hh2eP4HVkyjtpcqeITk3Q","name":"Ollie's Noodle Shop & Grille","cuisine":"Chinese","address":"2705 Broadway","coordinates":{"latitude":40.79942,"longitude":-73.96868},"review_count":113,"rating":3,"zip_code":"10025"},{"id":"U0SmczzYhahOeRxftjBPSg","name":"Chef 28","cuisine":"Chinese","address":"29 E 28th St","coordinates":{"latitude":40.74393,"longitude":-73.98493},"review_count":88,"rating":3,"zip_code":"10016"},{"id":"3ESDUFulPVoMJdsqPQGm0A","name":"Golden City Chinese Restaurant","cuisine":"Chinese","address":"423 9th Ave","coordinates":{"latitude":40.753277148143,"longitude":-73.996643608314},"review_count":73,"rating":3.5,"zip_code":"10001"},{"id":"eQKYZWnBjPUjINAnFmrmbA","name":"P.F. Chang's","cuisine":"Chinese","address":"10 Port Imperial Blvd","coordinates":{"latitude":40.7802677928232,"longitude":-74.0095958081818},"review_count":359,"rating":3,"zip_code":"07093"},{"id":"30pqvzHrCNmnodJCRyzrTg","name":"Snacky","cuisine":"Chinese","address":"187 Grand St","coordinates":{"latitude":40.71439,"longitude":-73.9607},"review_count":166,"rating":4,"zip_code":"11211"},{"id":"DOa_Hm5HHT99GOvlhbydaQ","name":"Le Sia","cuisine":"Chinese","address":"11 E 7th St","coordinates":{"latitude":40.728886,"longitude":-73.989841},"review_count":41,"rating":4,"zip_code":"10003"},{"id":"k8GFfCXO2FIIJIo0ICYSRA","name":"Bao Bao Cafe","cuisine":"Chinese","address":"106 Greenwich St","coordinates":{"latitude":40.70854,"longitude":-74.01367},"review_count":37,"rating":4,"zip_code":"10006"},{"id":"V9cBgn2RFLurwg6lwuLH7w","name":"The Wei","cuisine":"Chinese","address":"30 Dekalb Ave","coordinates":{"latitude":40.68983,"longitude":-73.98171},"review_count":190,"rating":4,"zip_code":"11201"},{"id":"kYJbGSjyXocbRrgMV-zExg","name":"Six Happiness","cuisine":"Chinese","address":"1413 2nd Ave","coordinates":{"latitude":40.7700042724609,"longitude":-73.9578247070312},"review_count":104,"rating":3,"zip_code":"10021"},{"id":"4-03VyMoFlXipCKh-aQcoA","name":"Our Place Tea Garden","cuisine":"Chinese","address":"141 E 55th St","coordinates":{"latitude":40.759597,"longitude":-73.969421},"review_count":33,"rating":3.5,"zip_code":"10022"},{"id":"RoPrfBqmRTqw_cBqcWAfYA","name":"Dim Sum Bar","cuisine":"Chinese","address":"167 Grand St","coordinates":{"latitude":40.714728,"longitude":-73.961372},"review_count":127,"rating":4,"zip_code":"11249"},{"id":"-Bh1oJYcf7XmmznR91jX_A","name":"Chong Qing Xiao Mian II","cuisine":"Chinese","address":"82 2nd Ave","coordinates":{"latitude":40.72645,"longitude":-73.98884},"review_count":23,"rating":4,"zip_code":"10003"},{"id":"VDbMrjBq-XAKZTS_cgB9_A","name":"Asian 59","cuisine":"Chinese","address":"207 E 59th St","coordinates":{"latitude":40.76153,"longitude":-73.96595},"review_count":51,"rating":3.5,"zip_code":"10022"},{"id":"GJZnf3B-ADjlCV1NXsHvGQ","name":"Tang's Garden","cuisine":"Chinese","address":"1328 3rd Ave","coordinates":{"latitude":40.7722574,"longitude":-73.9589547},"review_count":90,"rating":3,"zip_code":"10021"},{"id":"4p5Fzyt3-mEYFKIYqZ54aA","name":"Wokathon","cuisine":"Chinese","address":"1369 Broadway","coordinates":{"latitude":40.75216,"longitude":-73.98773},"review_count":22,"rating":4.5,"zip_code":"10018"},{"id":"inp9N7bo9zqQSa8h8UBhqg","name":"Empire Szechuan","cuisine":"Chinese","address":"193 Columbus Ave","coordinates":{"latitude":40.775683,"longitude":-73.980178},"review_count":185,"rating":2.5,"zip_code":"10023"},{"id":"BsjtLd2sBV9Kg7YZ7sRq_A","name":"Food Shing","cuisine":"Chinese","address":"2 E Broadway","coordinates":{"latitude":40.713611,"longitude":-73.997528},"review_count":39,"rating":3.5,"zip_code":"10038"},{"id":"eqdqHdY1CdCRHMXf6CgK3Q","name":"Pao & Cha Cha","cuisine":"Chinese","address":"2303 Astoria Blvd","coordinates":{"latitude":40.7718436,"longitude":-73.9240579},"review_count":93,"rating":4,"zip_code":"11102"},{"id":"ZyQfNryF0YBdzGnzLoVsWQ","name":"J.J. Noodle Restaurant","cuisine":"Chinese","address":"19 Henry St","coordinates":{"latitude":40.7128724455833,"longitude":-73.9968185126781},"review_count":35,"rating":3.5,"zip_code":"10002"},{"id":"a2sxaQooPmq9r7Cc-Umunw","name":"Precious Chinese Cuisine","cuisine":"Chinese","address":"128 Washington St","coordinates":{"latitude":40.73846,"longitude":-74.03092},"review_count":227,"rating":3.5,"zip_code":"07030"},{"id":"PkA0eLD1AZ0voGAmUSG9mg","name":"New Wong Rest","cuisine":"Chinese","address":"103 E Broadway","coordinates":{"latitude":40.7135887,"longitude":-73.9931488},"review_count":35,"rating":4,"zip_code":"10002"},{"id":"U0EJ4URMoFHJEzAkMp4WWQ","name":"Ollie's To Go","cuisine":"Chinese","address":"2425 Broadway","coordinates":{"latitude":40.7904902,"longitude":-73.9752417},"review_count":123,"rating":2.5,"zip_code":"10024"},{"id":"f7QVr9xC8UWXdVz9QvbmNg","name":"Chive Blossom NYC","cuisine":"Chinese","address":"394 Bedford Ave","coordinates":{"latitude":40.710796,"longitude":-73.963901},"review_count":50,"rating":5,"zip_code":"11249"},{"id":"owKe1hapqCCLnme2Xr3mrA","name":"Spice Noodle","cuisine":"Chinese","address":"1509 Lexington Ave","coordinates":{"latitude":40.7867088,"longitude":-73.9499588},"review_count":54,"rating":3.5,"zip_code":"10029"},{"id":"2pnhIRBUw58PpN8CQEYiZA","name":"New Food King","cuisine":"Chinese","address":"694 10th Ave","coordinates":{"latitude":40.76366,"longitude":-73.99217},"review_count":51,"rating":3.5,"zip_code":"10036"},{"id":"S2NwTMDe4Vcs6nAoTeMYlA","name":"Golden Fried Dumpling","cuisine":"Chinese","address":"192 Duffield St","coordinates":{"latitude":40.6925117969513,"longitude":-73.9843697100878},"review_count":317,"rating":3.5,"zip_code":"11201"},{"id":"Hlqadgkg87_ZJf2otxTNww","name":"Jin Mei Dumpling House 津美锅贴","cuisine":"Chinese","address":"25B Henry St","coordinates":{"latitude":40.7128944396973,"longitude":-73.9965591430664},"review_count":50,"rating":3.5,"zip_code":"10002"},{"id":"yDfgB1nvvuABZVzVjoJV7A","name":"Shu Han Ju II","cuisine":"Chinese","address":"58 3rd Ave","coordinates":{"latitude":40.73117,"longitude":-73.98909},"review_count":60,"rating":4,"zip_code":"10003"},{"id":"DH6vM_NdIN5q-xfiHnJ3mA","name":"Red Bowl","cuisine":"Chinese","address":"208 Bedford Ave","coordinates":{"latitude":40.7170493866292,"longitude":-73.958762175149},"review_count":229,"rating":3.5,"zip_code":"11211"},{"id":"tA_AoGEL_oGllbU2j77Shw","name":"Tiny Shanghai","cuisine":"Chinese","address":"122 Mulberry St","coordinates":{"latitude":40.71781,"longitude":-73.99795},"review_count":26,"rating":5,"zip_code":"10013"},{"id":"ru9KtvY8f_b2SKrKwtS3CA","name":"Lo-Fatt-Chow","cuisine":"Chinese","address":"720 Monroe St C-103","coordinates":{"latitude":40.7474615723213,"longitude":-74.0378006521148},"review_count":79,"rating":4,"zip_code":"07030"},{"id":"3rCA4ZFJoxCLosUB8CqlbQ","name":"Six Happiness","cuisine":"Chinese","address":"711 2nd Ave","coordinates":{"latitude":40.7475499,"longitude":-73.97408},"review_count":98,"rating":2.5,"zip_code":"10016"},{"id":"AA54rKcNIMglGhofj0huvg","name":"Deng Ji II","cuisine":"Chinese","address":"51 Division St","coordinates":{"latitude":40.71416,"longitude":-73.995061},"review_count":35,"rating":4,"zip_code":"10002"},{"id":"w0pDi_iMZd5MqYQ7t5q1dQ","name":"Christopher's Golden Woks","cuisine":"Chinese","address":"159 Christopher St","coordinates":{"latitude":40.73284,"longitude":-74.00836},"review_count":43,"rating":3.5,"zip_code":"10014"},{"id":"9j5r0NlYKRkBTVvnAcUcwg","name":"China Taste","cuisine":"Chinese","address":"1570 A 2nd Ave","coordinates":{"latitude":40.7749559083727,"longitude":-73.9537757635117},"review_count":58,"rating":3,"zip_code":"10028"},{"id":"ZdLS7gD1ulmCPkqNc9_S3A","name":"Keming Restaurant","cuisine":"Chinese","address":"1006 Washington St","coordinates":{"latitude":40.74893,"longitude":-74.02772},"review_count":105,"rating":3.5,"zip_code":"07030"},{"id":"WgQkB7cbPNgj0pLin7gQtw","name":"La Nueva Victoria","cuisine":"Chinese","address":"2536 Broadway","coordinates":{"latitude":40.79372,"longitude":-73.971954},"review_count":70,"rating":3,"zip_code":"10025"},{"id":"nXh79laNQ7leN92F5Ore-Q","name":"Forever Taste","cuisine":"Chinese","address":"27 Rutgers St","coordinates":{"latitude":40.71294,"longitude":-73.989784},"review_count":28,"rating":4,"zip_code":"10002"},{"id":"lv0qUfiaHPXKO8lfYu6R4g","name":"Uncle Luoyang","cuisine":"Chinese","address":"3010 Broadway","coordinates":{"latitude":40.8099709,"longitude":-73.962353},"review_count":28,"rating":4,"zip_code":"10027"},{"id":"Aux2Mp7bGnF3S6h60ab3iQ","name":"Yummy City","cuisine":"Chinese","address":"1557 Lexington Ave","coordinates":{"latitude":40.7879244458184,"longitude":-73.948986355818},"review_count":26,"rating":4,"zip_code":"10029"},{"id":"01m-oqxaCifh0s0eU03bBg","name":"Asia Express","cuisine":"Chinese","address":"493 2nd Ave","coordinates":{"latitude":40.741,"longitude":-73.97906},"review_count":54,"rating":3,"zip_code":"10016"},{"id":"JRSAnPCs3jgiRVvE9j2S7g","name":"J East","cuisine":"Chinese","address":"175 3rd Ave","coordinates":{"latitude":40.7347899,"longitude":-73.98587},"review_count":60,"rating":3,"zip_code":"10003"},{"id":"3kq1_dUIPrA6BFTuX-M6mw","name":"Jianbing Company","cuisine":"Chinese","address":"600 11th Ave","coordinates":{"latitude":40.76234,"longitude":-73.99695},"review_count":12,"rating":4.5,"zip_code":"10036"},{"id":"y8xZmhrp6zKnxJNtqFa_8g","name":"Mr Bing","cuisine":"Chinese","address":"115 St Marks Pl","coordinates":{"latitude":40.72712,"longitude":-73.98362},"review_count":28,"rating":4,"zip_code":"10009"},{"id":"54om5q7V4anmIXw2PdNJbA","name":"Chen's Buffet Bar","cuisine":"Chinese","address":"32 Cedar St","coordinates":{"latitude":40.70712,"longitude":-74.00845},"review_count":25,"rating":4,"zip_code":"10038"},{"id":"XH2CNWlLU2HXROsT5NkCmA","name":"Panda Express","cuisine":"Chinese","address":"835 Third Ave","coordinates":{"latitude":40.75624,"longitude":-73.97012},"review_count":71,"rating":3,"zip_code":"10022"},{"id":"EP5F-WYOuJ22NrCyNWYccA","name":"Ms Mi's Hot Pot","cuisine":"Chinese","address":"6 W 14th St","coordinates":{"latitude":40.7361133076005,"longitude":-73.9941993098535},"review_count":67,"rating":3,"zip_code":"10011"},{"id":"RQRQOO_CGhj16AIz4KqlQA","name":"Fu Zhou Wei Zhong Wei Jia Xiang Feng Wei","cuisine":"Chinese","address":"88 E Broadway","coordinates":{"latitude":40.714,"longitude":-73.99439},"review_count":16,"rating":4,"zip_code":"10002"},{"id":"D-PPbfPcCNyKs7w0J4tMvQ","name":"East Palace","cuisine":"Chinese","address":"819 2nd Ave","coordinates":{"latitude":40.7510528564453,"longitude":-73.9716644287109},"review_count":71,"rating":3,"zip_code":"10017"},{"id":"2tR7d61tBGNlGaJRYvrN0Q","name":"Dumplings & Things","cuisine":"Chinese","address":"45-26 46th St","coordinates":{"latitude":40.7425888323281,"longitude":-73.9189697784327},"review_count":132,"rating":3.5,"zip_code":"11104"},{"id":"l4fdf4e_xFvNnKqfdm3SLg","name":"Jung's Dried Beef","cuisine":"Chinese","address":"58 Mulberry St","coordinates":{"latitude":40.715412,"longitude":-73.999275},"review_count":11,"rating":4.5,"zip_code":"10013"},{"id":"gAugxpTjPNbMK86dvXirJQ","name":"New Asian Cuisine","cuisine":"Chinese","address":"153D Centre St","coordinates":{"latitude":40.71792,"longitude":-74.00021},"review_count":26,"rating":4,"zip_code":"10013"},{"id":"J9kON4T_XtDPDk6jRoR5xA","name":"Lava Kitchen","cuisine":"Chinese","address":"2656 Broadway","coordinates":{"latitude":40.7973398628539,"longitude":-73.9692374467538},"review_count":52,"rating":3,"zip_code":"10025"},{"id":"sXA1aTe4MVUgBpQUiISAyg","name":"Sawadee","cuisine":"Chinese","address":"137 Newark Ave","coordinates":{"latitude":40.72014,"longitude":-74.04386},"review_count":448,"rating":3,"zip_code":"07302"},{"id":"EN9_LsFpY44Hkzcnu0jfIg","name":"Dynasty Dim Sum","cuisine":"Chinese","address":"381 3rd Ave","coordinates":{"latitude":40.74148,"longitude":-73.98087},"review_count":27,"rating":4,"zip_code":"10016"},{"id":"oSMFe-10TyH40NIXG0Zahw","name":"Vaibhav Indian Spice Journey","cuisine":"Chinese","address":"737 Newark Ave","coordinates":{"latitude":40.73503,"longitude":-74.0624069},"review_count":336,"rating":3.5,"zip_code":"07306"},{"id":"_5E5cZP0PzkwfdEqTebBUg","name":"Lanzhou Ramen","cuisine":"Chinese","address":"107 E Broadway","coordinates":{"latitude":40.7136041,"longitude":-73.9930138},"review_count":36,"rating":3.5,"zip_code":"10038"},{"id":"BkXb82Y2OIsQ5RpNNQOYmQ","name":"China Express","cuisine":"Chinese","address":"192 Union Ave","coordinates":{"latitude":40.7061859,"longitude":-73.9501435},"review_count":89,"rating":4,"zip_code":"11211"},{"id":"3W6S2wraTAj5y4Cd8eQvvw","name":"Dragon & Phoenix Restaurant","cuisine":"Chinese","address":"22-17 31st St","coordinates":{"latitude":40.7754678279161,"longitude":-73.911422342062},"review_count":111,"rating":4,"zip_code":"11105"},{"id":"rtucksGJ2MebjJ0PqjIPaw","name":"Chinese Fast Wok - Eat In & Take Out","cuisine":"Chinese","address":"230 7th Ave","coordinates":{"latitude":40.74452,"longitude":-73.9957},"review_count":55,"rating":3,"zip_code":"10011"},{"id":"kLSWg3Qa4ZpPdSW_3IkNpA","name":"China Village Restaurant","cuisine":"Chinese","address":"94 Baxter St","coordinates":{"latitude":40.7169789059464,"longitude":-73.9997199869346},"review_count":62,"rating":3,"zip_code":"10013"},{"id":"5u4T6-Z-KhHrRZ9g54pugQ","name":"Carol's Bun","cuisine":"Chinese","address":"139 E Broadway","coordinates":{"latitude":40.7138317002555,"longitude":-73.9914554524045},"review_count":21,"rating":4,"zip_code":"10002"},{"id":"gxEYxWqKVhs8xBw9Lvd7hA","name":"East Garden Chinese Restaurant","cuisine":"Chinese","address":"1685 1st Ave","coordinates":{"latitude":40.77793,"longitude":-73.94902},"review_count":44,"rating":3.5,"zip_code":"10128"},{"id":"Ja4MWGAyPw74Oy6HJ5RizA","name":"Rickshaw Dumpling Truck","cuisine":"Chinese","address":"66 Wall St","coordinates":{"latitude":40.7058343291283,"longitude":-74.0083741396666},"review_count":139,"rating":2.5,"zip_code":"10004"},{"id":"HHkTmzDBE9sGWvtSW9Ne8A","name":"Tangra Masala","cuisine":"Chinese","address":"87-09 Grand Ave","coordinates":{"latitude":40.736536,"longitude":-73.878328},"review_count":267,"rating":3.5,"zip_code":"11373"},{"id":"gWaK8OEXawE43-Di0ykTNQ","name":"Canton Lounge","cuisine":"Chinese","address":"70 Mott St","coordinates":{"latitude":40.716205,"longitude":-73.997863},"review_count":82,"rating":2.5,"zip_code":"10013"},{"id":"BUB1ej9y5RBseuy5VyOpxw","name":"Chang Wang Restaurant","cuisine":"Chinese","address":"38A Allen St","coordinates":{"latitude":40.71599,"longitude":-73.99175},"review_count":24,"rating":3.5,"zip_code":"10002"},{"id":"98SsKXNs37ohAQERZbBPJg","name":"King Food Chen","cuisine":"Chinese","address":"489 Amsterdam Ave","coordinates":{"latitude":40.78596,"longitude":-73.97589},"review_count":55,"rating":3,"zip_code":"10024"},{"id":"MzA6gitJKqfW4VrdS7AiQw","name":"PACIFIC MOON","cuisine":"Chinese","address":"59-02 Broadway","coordinates":{"latitude":40.75119,"longitude":-73.90269},"review_count":47,"rating":4.5,"zip_code":"11377"},{"id":"RGHkyFGy1WKG4HgIWFxlxg","name":"Han Palace","cuisine":"Chinese","address":"39-41 E Broadway","coordinates":{"latitude":40.7134674,"longitude":-73.9961128},"review_count":41,"rating":3,"zip_code":"10002"},{"id":"5sG_S51rleFhCKLgQpXc_g","name":"New Sunny East 88","cuisine":"Chinese","address":"1680 1st Ave","coordinates":{"latitude":40.777902,"longitude":-73.94825},"review_count":53,"rating":3.5,"zip_code":"10128"},{"id":"vPbJRg5umcRMELTDsJik_A","name":"Hong Kong Chinese Restaurant","cuisine":"Chinese","address":"174 Lexington Ave","coordinates":{"latitude":40.7444,"longitude":-73.98146},"review_count":30,"rating":3.5,"zip_code":"10016"},{"id":"4zuvAX0g_h_vBgE34oALhg","name":"Red Hot HotPot","cuisine":"Chinese","address":"1000 Columbus Ave","coordinates":{"latitude":40.8014032,"longitude":-73.9615043},"review_count":28,"rating":4,"zip_code":"10025"},{"id":"2VQDEQuK3xLFNktPBIpmuQ","name":"New Aroma Chinese Restaurant","cuisine":"Chinese","address":"465 W 125th St","coordinates":{"latitude":40.8132171630859,"longitude":-73.9557037353516},"review_count":23,"rating":4,"zip_code":"10027"},{"id":"DpfE0gPBXj-aj2pnEh4E2Q","name":"Wei Williamsburg","cuisine":"Chinese","address":"145 Borinquen Pl","coordinates":{"latitude":40.7107868,"longitude":-73.9542168},"review_count":100,"rating":4,"zip_code":"11211"},{"id":"pmJqb7-EckluXUk6Rtml6A","name":"Hunan Park","cuisine":"Chinese","address":"721 Columbus Ave","coordinates":{"latitude":40.79221,"longitude":-73.96774},"review_count":71,"rating":3,"zip_code":"10025"},{"id":"yDS7SUTAe6y3BYKdepIrbg","name":"Szechaun Mirchi","cuisine":"Chinese","address":"633 Anderson Ave","coordinates":{"latitude":40.82583,"longitude":-73.98787},"review_count":149,"rating":3.5,"zip_code":"07010"},{"id":"tS4aiWBYgzlqKX898jr3_w","name":"Shun Wang Restaurant","cuisine":"Chinese","address":"81-25 Broadway","coordinates":{"latitude":40.7431373596191,"longitude":-73.8830413818359},"review_count":128,"rating":4,"zip_code":"11373"},{"id":"Mj4o7xAFTVm_uXTF3cZPAw","name":"Asami Shanghai","cuisine":"Chinese","address":"513 6th Ave","coordinates":{"latitude":40.73699,"longitude":-73.99744},"review_count":33,"rating":3.5,"zip_code":"10011"},{"id":"51DwJDP5TOlsCQYc0GQdVQ","name":"West Place","cuisine":"Chinese","address":"1288 Amsterdam Ave","coordinates":{"latitude":40.8116735,"longitude":-73.957693},"review_count":50,"rating":3,"zip_code":"10027"},{"id":"6t22uVBh30DFT88rQ5e95A","name":"Xing Wong BBQ","cuisine":"Chinese","address":"89 E Broadway","coordinates":{"latitude":40.7135461657203,"longitude":-73.9935723692179},"review_count":28,"rating":3.5,"zip_code":"10002"},{"id":"LrFnMmjirO9jtyo0tTdfVg","name":"Taste of Shanghai","cuisine":"Chinese","address":"42 Mott St","coordinates":{"latitude":40.715249679603,"longitude":-73.998610561094},"review_count":45,"rating":3,"zip_code":"10013"},{"id":"xd_8cHyPO8sjIV8JMojHnw","name":"Red House","cuisine":"Chinese","address":"203 E 14th St","coordinates":{"latitude":40.7333221435547,"longitude":-73.9865036010742},"review_count":84,"rating":2.5,"zip_code":"10003"},{"id":"K0qsGnFv-edPDqVBdLCocQ","name":"China Garden","cuisine":"Chinese","address":"39-20 47th Ave","coordinates":{"latitude":40.74166,"longitude":-73.92577},"review_count":55,"rating":4,"zip_code":"11104"},{"id":"SyEJPitYvvjrnnSXOzGcDA","name":"Noodle Q","cuisine":"Chinese","address":"2 E Broadway","coordinates":{"latitude":40.7135648935571,"longitude":-73.9975924790089},"review_count":19,"rating":3.5,"zip_code":"10038"},{"id":"AbfZkSRMtiHE3naWrN-0Eg","name":"Fei Ma","cuisine":"Chinese","address":"79 Ave A","coordinates":{"latitude":40.725114,"longitude":-73.9845239},"review_count":39,"rating":3.5,"zip_code":"10009"},{"id":"Yo6D3B8TP_xdN1yaoNc0Ww","name":"Fresh Wok","cuisine":"Chinese","address":"1777 1st Ave","coordinates":{"latitude":40.78065,"longitude":-73.94698},"review_count":30,"rating":3.5,"zip_code":"10128"},{"id":"EDLKX7cCxPbmbmo1XG3xJQ","name":"Grand Sichuan","cuisine":"Chinese","address":"342 Grove St","coordinates":{"latitude":40.72047,"longitude":-74.04252},"review_count":416,"rating":3,"zip_code":"07302"},{"id":"OX2B4KARPKNTxC39wpcqDA","name":"A & C Kitchen","cuisine":"Chinese","address":"136 Avenue C","coordinates":{"latitude":40.7250407,"longitude":-73.9779719},"review_count":27,"rating":3.5,"zip_code":"10009"},{"id":"cZ2Nkl7Z_sCvanOoruvxHQ","name":"Panda Express","cuisine":"Chinese","address":"663 Ninth Ave","coordinates":{"latitude":40.760996,"longitude":-73.991116},"review_count":55,"rating":3,"zip_code":"10036"},{"id":"LqMHxKckcnSRWrJ6T_irnw","name":"M Greenpoint","cuisine":"Chinese","address":"732 Manhattan Ave","coordinates":{"latitude":40.726322,"longitude":-73.951934},"review_count":66,"rating":3.5,"zip_code":"11222"},{"id":"aQi6bKQoIZbGbMc6WvKJaw","name":"Chan's Dragon Inn","cuisine":"Chinese","address":"630 Broad Ave","coordinates":{"latitude":40.8347854614258,"longitude":-74.0082931518555},"review_count":103,"rating":4,"zip_code":"07657"},{"id":"5tWpAFpF618KJxBhHJzF7g","name":"E Noodle Group","cuisine":"Chinese","address":"5 Catherine St","coordinates":{"latitude":40.71379,"longitude":-73.99731},"review_count":18,"rating":4.5,"zip_code":"10038"},{"id":"N05331bMRnUwz48pRRvD7g","name":"Eden Wok","cuisine":"Chinese","address":"43 E 34th St","coordinates":{"latitude":40.7477,"longitude":-73.98239},"review_count":93,"rating":2.5,"zip_code":"10016"},{"id":"DjLxykRuP8OFtGtPPZpfdQ","name":"Caridad China","cuisine":"Chinese","address":"108 Graham Ave","coordinates":{"latitude":40.7049499,"longitude":-73.94264},"review_count":57,"rating":4,"zip_code":"11206"},{"id":"b7uTP_afs5Gkf66K7yDl-w","name":"Food King","cuisine":"Chinese","address":"56 Market St","coordinates":{"latitude":40.71173,"longitude":-73.99401},"review_count":10,"rating":4.5,"zip_code":"10002"},{"id":"lmiwPS9tl3cyMDGDeVstqQ","name":"New Apolo","cuisine":"Chinese","address":"508 Grand St","coordinates":{"latitude":40.71078,"longitude":-73.95076},"review_count":108,"rating":3.5,"zip_code":"11211"},{"id":"5uTJ_4fWfT1ImuwCLN9xGA","name":"Shanghai Best","cuisine":"Chinese","address":"95 Montgomery St","coordinates":{"latitude":40.7168947,"longitude":-74.0387484},"review_count":309,"rating":3,"zip_code":"07302"},{"id":"b2d8CP6sKQotFjzZX0Thtw","name":"Szechuan Garden Kitchen","cuisine":"Chinese","address":"2076 8th Ave","coordinates":{"latitude":40.802006,"longitude":-73.956726},"review_count":14,"rating":4,"zip_code":"10026"},{"id":"h4co9O0SLuvhTtr_Cs9IIQ","name":"New Kam Lai","cuisine":"Chinese","address":"890 Amsterdam Ave","coordinates":{"latitude":40.7989112,"longitude":-73.967015},"review_count":22,"rating":3.5,"zip_code":"10025"},{"id":"YIwYw_A_LRwK66HBTzogYQ","name":"Xing's Chef","cuisine":"Chinese","address":"46-20 Ditmars Blvd","coordinates":{"latitude":40.7701092079077,"longitude":-73.9021204913637},"review_count":70,"rating":4,"zip_code":"11105"},{"id":"itpneDeppuRBH20x1XUlvw","name":"Nom Wah Kuai","cuisine":"Chinese","address":"265 Canal St","coordinates":{"latitude":40.71897,"longitude":-74.00102},"review_count":23,"rating":3.5,"zip_code":"10013"},{"id":"F2KRHRtnIAZJezs9UC2u6w","name":"Chelsea Golden Wok","cuisine":"Chinese","address":"209 8th Ave","coordinates":{"latitude":40.74401,"longitude":-73.999824},"review_count":42,"rating":3,"zip_code":"10011"},{"id":"6uPtOyrxXV8y1y8pvLU2pA","name":"Pic Up Stix","cuisine":"Chinese","address":"1372 Lexington Ave","coordinates":{"latitude":40.78259,"longitude":-73.95352},"review_count":52,"rating":3,"zip_code":"10128"},{"id":"ziwipi8JK_ik4mLaw1fTGw","name":"Kam-Wei Kitchen","cuisine":"Chinese","address":"630 10th Ave","coordinates":{"latitude":40.76128,"longitude":-73.99392},"review_count":30,"rating":3.5,"zip_code":"10036"},{"id":"KUW8hx5kinOT_XJj3ttCDQ","name":"Go Noodle Nine Moon","cuisine":"Chinese","address":"1069 1st Ave","coordinates":{"latitude":40.75932,"longitude":-73.96254},"review_count":43,"rating":3,"zip_code":"10022"},{"id":"XF9MChLaOvtaFV-bReLBqQ","name":"China Moon","cuisine":"Chinese","address":"7 E 47th St","coordinates":{"latitude":40.75653,"longitude":-73.97768},"review_count":92,"rating":2,"zip_code":"10017"},{"id":"GfLL6-n6UNZ07SEHfjeIgA","name":"Mee Sum Cafe","cuisine":"Chinese","address":"26 Pell St","coordinates":{"latitude":40.715045,"longitude":-73.998291},"review_count":21,"rating":3.5,"zip_code":"10013"},{"id":"sgKNAn72O2XMQXS6AWmf9w","name":"Food King","cuisine":"Chinese","address":"185 Newark Ave","coordinates":{"latitude":40.72117,"longitude":-74.04568},"review_count":73,"rating":4,"zip_code":"07302"},{"id":"J2IJkTqn6RQh2n0yV1aiGQ","name":"Wok Chi - Stir Fry Kitchen","cuisine":"Chinese","address":"918 3rd Ave","coordinates":{"latitude":40.7592222653598,"longitude":-73.9683998376131},"review_count":38,"rating":3.5,"zip_code":"10022"},{"id":"d6pcRMV1YUDFTKO_p9d-sA","name":"Wong Kwong Hop","cuisine":"Chinese","address":"85-27 Grand Ave","coordinates":{"latitude":40.73566,"longitude":-73.88151},"review_count":54,"rating":4.5,"zip_code":"11373"},{"id":"gNS0joGKALsNXFqKmZuurg","name":"Ocean Dragon","cuisine":"Chinese","address":"877 10th Ave","coordinates":{"latitude":40.7694396972656,"longitude":-73.9886703491211},"review_count":62,"rating":3,"zip_code":"10019"},{"id":"dP6SmZ5E5Nj64-3zZMjGSg","name":"Wong Restaurant","cuisine":"Chinese","address":"1217 1st Ave","coordinates":{"latitude":40.7638749,"longitude":-73.9590615},"review_count":38,"rating":3,"zip_code":"10065"},{"id":"hWkbadE0u-Eiqg9SAm176Q","name":"Our Place China Chalet","cuisine":"Chinese","address":"242 E 79th St","coordinates":{"latitude":40.7733383,"longitude":-73.9558029},"review_count":44,"rating":3,"zip_code":"10075"},{"id":"tfMPbnQqJ1P1RIab-o6gtg","name":"Kum Kau","cuisine":"Chinese","address":"465 Myrtle Ave","coordinates":{"latitude":40.693573,"longitude":-73.966702},"review_count":219,"rating":3.5,"zip_code":"11205"},{"id":"dDAlpjRdymf148x_9tL0pQ","name":"Asian Station","cuisine":"Chinese","address":"1444 3rd Ave","coordinates":{"latitude":40.77626,"longitude":-73.956261},"review_count":66,"rating":2.5,"zip_code":"10028"},{"id":"svvP8Thiit_8TX-Lfeecrw","name":"China Wok","cuisine":"Chinese","address":"199 E 3rd St","coordinates":{"latitude":40.72283,"longitude":-73.98311},"review_count":49,"rating":3,"zip_code":"10009"},{"id":"3uJAt1EHG0x9pz_c91AHuQ","name":"Peking Garden","cuisine":"Chinese","address":"3163 Broadway","coordinates":{"latitude":40.8149986,"longitude":-73.9592896},"review_count":28,"rating":3.5,"zip_code":"10027"},{"id":"ow6DsPVbOe94_L6qju-Bzg","name":"Kuai Le Hand Pull Noodles Restaurant","cuisine":"Chinese","address":"28 Forsyth St","coordinates":{"latitude":40.715206,"longitude":-73.994148},"review_count":17,"rating":3.5,"zip_code":"10002"},{"id":"96D85AGxI37JNnveZbC6CA","name":"Foliage Garden","cuisine":"Chinese","address":"6014 Park Ave","coordinates":{"latitude":40.7858,"longitude":-74.00865},"review_count":40,"rating":4,"zip_code":"07093"},{"id":"U2aUFZARLeSMf4RQIxjuTw","name":"Lucky House Kitchen","cuisine":"Chinese","address":"343 Lewis Ave","coordinates":{"latitude":40.6838402152061,"longitude":-73.9351565390825},"review_count":71,"rating":4,"zip_code":"11233"},{"id":"ECKMWJwm_sihRQIP1ydeOA","name":"New Golden Chopstick Chinese Restaurant","cuisine":"Chinese","address":"77 Pearl St","coordinates":{"latitude":40.70404,"longitude":-74.01049},"review_count":32,"rating":3,"zip_code":"10004"},{"id":"00J0yKkOuOxMhqt-Dg9daw","name":"Panda Express","cuisine":"Chinese","address":"414 Eighth Ave","coordinates":{"latitude":40.7501065718521,"longitude":-73.9948594942689},"review_count":39,"rating":3,"zip_code":"10001"},{"id":"Q1TpfbuPwKPFrNFyu-u2_g","name":"Han Dynasty","cuisine":"Chinese","address":"1 Dekalb Ave","coordinates":{"latitude":40.6911319610036,"longitude":-73.9825977757573},"review_count":86,"rating":4,"zip_code":"11201"},{"id":"Yb6PQ_4YQpJ0SVZ1tetkbg","name":"Queens Seafood Restaurant","cuisine":"Chinese","address":"8222 45th Ave","coordinates":{"latitude":40.7415032,"longitude":-73.8825862},"review_count":104,"rating":3.5,"zip_code":"11373"},{"id":"5dzFMuClH9CDvfaUuIKWeg","name":"Hunan Chen's Kitchen","cuisine":"Chinese","address":"1003 Columbus Ave","coordinates":{"latitude":40.80133,"longitude":-73.96113},"review_count":38,"rating":3,"zip_code":"10025"},{"id":"d74O9YD3anZwYmanGzRmJA","name":"Big Hing Wong","cuisine":"Chinese","address":"300 Grand St","coordinates":{"latitude":40.71761,"longitude":-73.99168},"review_count":27,"rating":3,"zip_code":"10002"},{"id":"wxUTM-FkpCvnoTGJfSXkWg","name":"China King","cuisine":"Chinese","address":"285 3rd Ave","coordinates":{"latitude":40.738303810358,"longitude":-73.9834597706795},"review_count":29,"rating":3,"zip_code":"10010"},{"id":"4Vbzq9AD0wjSczpAvHUR9Q","name":"New Ming's Delight","cuisine":"Chinese","address":"594 3rd Ave","coordinates":{"latitude":40.74879,"longitude":-73.9761},"review_count":52,"rating":2.5,"zip_code":"10016"},{"id":"4W26jwklGZblk6ZEyedyIQ","name":"Lee Chung Cafe","cuisine":"Chinese","address":"82 Madison St","coordinates":{"latitude":40.711925,"longitude":-73.996322},"review_count":17,"rating":3.5,"zip_code":"10002"},{"id":"aGmsJ6_NWw5vnLS43MZLpA","name":"Spice","cuisine":"Chinese","address":"610 Amsterdam Ave","coordinates":{"latitude":40.7900599,"longitude":-73.97351},"review_count":52,"rating":2.5,"zip_code":"10024"},{"id":"PUwrkoUztUYs4VdHlK9qBg","name":"Wa Lung Kitchen","cuisine":"Chinese","address":"557 Grand St","coordinates":{"latitude":40.713919,"longitude":-73.980251},"review_count":46,"rating":3,"zip_code":"10002"},{"id":"hQwaJ8ZSI7w-SKreogRkjw","name":"Profit Chinese Restaurant","cuisine":"Chinese","address":"538 2nd Ave","coordinates":{"latitude":40.74206,"longitude":-73.97765},"review_count":54,"rating":2.5,"zip_code":"10016"},{"id":"BcOuqkUniZJG5NLpdzeOYQ","name":"Friendly Restaurant","cuisine":"Chinese","address":"1205 40th Ave","coordinates":{"latitude":40.7559963313064,"longitude":-73.9424634196434},"review_count":51,"rating":3.5,"zip_code":"11101"},{"id":"Cyv-tW4BljwWnP16HI_zAg","name":"Taste Kitchen","cuisine":"Chinese","address":"316 W 36th St","coordinates":{"latitude":40.75364,"longitude":-73.9935},"review_count":23,"rating":3.5,"zip_code":"10018"},{"id":"Nxxn3PfmNvEtKCn_OSwY8A","name":"King Szechuan Palace","cuisine":"Chinese","address":"83 Reservoir Ave","coordinates":{"latitude":40.739697,"longitude":-74.051612},"review_count":101,"rating":3.5,"zip_code":"07307"},{"id":"e-6UcplEErq2Hj14-eiM6Q","name":"China King","cuisine":"Chinese","address":"1759 Lexington Ave","coordinates":{"latitude":40.794303,"longitude":-73.944572},"review_count":22,"rating":3.5,"zip_code":"10029"},{"id":"XoxEVVf5Ci8nibQ-Q4P0nQ","name":"Chinese Musician Restaurant","cuisine":"Chinese","address":"151 Greenpoint Ave","coordinates":{"latitude":40.7303597,"longitude":-73.9537321},"review_count":106,"rating":3,"zip_code":"11222"},{"id":"c10jv8s_MJdFFOXviSt2Ew","name":"Saw Shack","cuisine":"Chinese","address":"84-22 37th Ave","coordinates":{"latitude":40.7499285042286,"longitude":-73.8821339607239},"review_count":144,"rating":3.5,"zip_code":"11372"},{"id":"j9LAlbSiqGlvfAOt8LRRzQ","name":"New Kam Lai","cuisine":"Chinese","address":"514 Amsterdam Ave","coordinates":{"latitude":40.78701,"longitude":-73.975899},"review_count":49,"rating":2.5,"zip_code":"10024"},{"id":"rPTX2J5KGDkN1QhPD-QOvg","name":"Xifu Food","cuisine":"Chinese","address":"318 Livingston St","coordinates":{"latitude":40.6880326,"longitude":-73.9819963},"review_count":51,"rating":4.5,"zip_code":"11217"},{"id":"k21ee73OafH6IwGR-x1iCA","name":"Food Sing 88 Corp","cuisine":"Chinese","address":"2 E Broadway","coordinates":{"latitude":40.713611,"longitude":-73.997528},"review_count":10,"rating":4,"zip_code":"10038"},{"id":"wjhtsakYuglCXwPaUFN4-g","name":"Green Leaf Restaurant","cuisine":"Chinese","address":"175 Broad Ave","coordinates":{"latitude":40.820106,"longitude":-74.008427},"review_count":47,"rating":4,"zip_code":"07022"},{"id":"KQKSCG5Ex1OxGAyXkphvHg","name":"Chi Dumpling House","cuisine":"Chinese","address":"77 Chrystie St","coordinates":{"latitude":40.7172813,"longitude":-73.9945984},"review_count":15,"rating":3.5,"zip_code":"10002"},{"id":"FVfQVQAcGDVFaBlrFaLkUg","name":"New Legend","cuisine":"Chinese","address":"88 7th Ave","coordinates":{"latitude":40.73956,"longitude":-73.99918},"review_count":19,"rating":3.5,"zip_code":"10011"},{"id":"RPMfsbjMx0hAgpdGnw_bPg","name":"Yummy Chinese","cuisine":"Chinese","address":"21 Eldridge St","coordinates":{"latitude":40.7151107788086,"longitude":-73.9938049316406},"review_count":18,"rating":3.5,"zip_code":"10002"},{"id":"_MdNLeBAcwv5Nb2yArZFvg","name":"Happy Garden","cuisine":"Chinese","address":"2926 30th Ave","coordinates":{"latitude":40.76725,"longitude":-73.92279},"review_count":62,"rating":3.5,"zip_code":"11102"},{"id":"56wxE888GknVcUeAXBfqFw","name":"Shanghai Lee","cuisine":"Chinese","address":"157 Franklin St","coordinates":{"latitude":40.7318,"longitude":-73.9582099},"review_count":113,"rating":3,"zip_code":"11222"},{"id":"C6NvtFvXo86_kEWi3qBYWQ","name":"Golden Dragon","cuisine":"Chinese","address":"3406 31st Ave","coordinates":{"latitude":40.76287,"longitude":-73.92097},"review_count":67,"rating":3.5,"zip_code":"11106"},{"id":"_PJ_XVxkiStr04GkpWXSVA","name":"The Flying Pig Jianbing","cuisine":"Chinese","address":"46TH St And 6th Ave","coordinates":{"latitude":40.7573947,"longitude":-73.9822584},"review_count":30,"rating":3,"zip_code":"10036"},{"id":"XaEFFUabnbH8ZF7ccmSAlQ","name":"South Of The Clouds","cuisine":"Chinese","address":"16 W 8th St","coordinates":{"latitude":40.73264,"longitude":-73.99752},"review_count":47,"rating":2.5,"zip_code":"10011"},{"id":"hBbAmEYXM4L03AU9Vt_p9g","name":"Hong Kong Station","cuisine":"Chinese","address":"157 W 47th St","coordinates":{"latitude":40.75894,"longitude":-73.98372},"review_count":21,"rating":3.5,"zip_code":"10036"},{"id":"UFeM5FPHjl1y8RQ4tvBSog","name":"Happy Family Chinese Restaurant","cuisine":"Chinese","address":"500 W 43rd St","coordinates":{"latitude":40.7601737976074,"longitude":-73.9955139160156},"review_count":69,"rating":2,"zip_code":"10036"},{"id":"O2jCWIOWb-IhyZGZLTNNoA","name":"Peking Kitchen II","cuisine":"Chinese","address":"2162 8th Ave","coordinates":{"latitude":40.80479,"longitude":-73.954735},"review_count":18,"rating":3.5,"zip_code":"10026"},{"id":"XwB2qg5lN1oX2_ccyO515g","name":"The China Star","cuisine":"Chinese","address":"145 1st Ave","coordinates":{"latitude":40.7278197743735,"longitude":-73.9851093292236},"review_count":51,"rating":2.5,"zip_code":"10003"},{"id":"oVdiFY9zSvgW0u-J0DoKbw","name":"Chifa Restaurant","cuisine":"Chinese","address":"73-20 Northern Blvd","coordinates":{"latitude":40.7546639442444,"longitude":-73.8934260606766},"review_count":71,"rating":3.5,"zip_code":"11372"},{"id":"bSi2f2TaOr4RVTI5eFt0wQ","name":"Taste Of North China","cuisine":"Chinese","address":"75 Montgomery St","coordinates":{"latitude":40.7167868,"longitude":-74.0377625661521},"review_count":171,"rating":3,"zip_code":"07302"},{"id":"Iclgb48aGzcuJTNbqUN4pQ","name":"East Broadway Restaurant","cuisine":"Chinese","address":"94 E Broadway","coordinates":{"latitude":40.71397,"longitude":-73.99358},"review_count":13,"rating":3,"zip_code":"10002"},{"id":"rHA9M0XOJL6O11xaEiDurA","name":"New Kam Lai Chinese","cuisine":"Chinese","address":"708 Amsterdam Ave","coordinates":{"latitude":40.79303,"longitude":-73.97133},"review_count":47,"rating":2.5,"zip_code":"10025"},{"id":"0UkdZTf0cq7yfAiUKX2oKw","name":"Good Year Chinese Cuisine","cuisine":"Chinese","address":"416 Central Ave","coordinates":{"latitude":40.74883,"longitude":-74.04701},"review_count":84,"rating":3.5,"zip_code":"07307"},{"id":"TxaxeiUqQqcFrWrerNqgXw","name":"No 1 Chinese Restaurant","cuisine":"Chinese","address":"265 1st Ave","coordinates":{"latitude":40.732437,"longitude":-73.982139},"review_count":33,"rating":2.5,"zip_code":"10003"},{"id":"hQ1WItXONlYKd3yzDUPBYQ","name":"Kungfu Kitchen","cuisine":"Chinese","address":"811 8th Ave","coordinates":{"latitude":40.761474,"longitude":-73.986964},"review_count":27,"rating":3,"zip_code":"10019"},{"id":"ubeG-hyIV8qoSSAk_pAZ2A","name":"No Pork Halal Kitchen","cuisine":"Chinese","address":"50 4th Ave","coordinates":{"latitude":40.68332,"longitude":-73.97936},"review_count":91,"rating":4,"zip_code":"11217"},{"id":"ye-TSU-mu1Gd5TAJOpI5Mg","name":"Lichee Nut","cuisine":"Chinese","address":"162 Montague St","coordinates":{"latitude":40.694149,"longitude":-73.9928131},"review_count":237,"rating":3,"zip_code":"11201"},{"id":"mbistxggGb_YbNCNwAW1AQ","name":"Hong Kong Noodle 2","cuisine":"Chinese","address":"174 Lexington Ave","coordinates":{"latitude":40.7444,"longitude":-73.98146},"review_count":36,"rating":2.5,"zip_code":"10016"},{"id":"SSvIOFoNkq3ARqWo5PbYwg","name":"Steak & Hoagies","cuisine":"Chinese","address":"1657 Madison Ave","coordinates":{"latitude":40.796352,"longitude":-73.947189},"review_count":18,"rating":3,"zip_code":"10029"},{"id":"etnDT8OVTPJGz4MRhoPDNw","name":"Chopstick House","cuisine":"Chinese","address":"130 W 36th St","coordinates":{"latitude":40.7514827,"longitude":-73.9881506},"review_count":53,"rating":2,"zip_code":"10018"},{"id":"gqUR7hd3NsxOD_JrD-iFfQ","name":"Traditional Chinese Food Cart","cuisine":"Chinese","address":"35 W 4th St","coordinates":{"latitude":40.7293724,"longitude":-73.995937},"review_count":7,"rating":4,"zip_code":"10014"},{"id":"0kKYP-_ScvaHi0LUqg-iBA","name":"New Ah Ping Snacketeria","cuisine":"Chinese","address":"45 Division St","coordinates":{"latitude":40.714019,"longitude":-73.995353},"review_count":6,"rating":4.5,"zip_code":"10002"},{"id":"N_5VwtCoXPhHdlz1JQbIoQ","name":"Duck King","cuisine":"Chinese","address":"880 River Rd","coordinates":{"latitude":40.82533,"longitude":-73.97495},"review_count":139,"rating":3,"zip_code":"07020"},{"id":"QgTR7mA2kd82KVrIJNuJ3A","name":"Ming's Restaurant","cuisine":"Chinese","address":"413 9th Ave","coordinates":{"latitude":40.75295,"longitude":-73.99686},"review_count":28,"rating":2.5,"zip_code":"10001"},{"id":"_7rU61c3WTVfPS_-FNup8g","name":"J J Chan's Garden","cuisine":"Chinese","address":"7521 31st Ave","coordinates":{"latitude":40.7587084,"longitude":-73.8922443},"review_count":100,"rating":3.5,"zip_code":"11370"},{"id":"NLHHXy87krCnRGXkeLhmsw","name":"Steamed Rice Rolls Cart","cuisine":"Chinese","address":"250 Grand St","coordinates":{"latitude":40.7183599,"longitude":-73.99395},"review_count":6,"rating":4.5,"zip_code":"10002"},{"id":"Sqp7ukA0qpGcqWbDgMSOCA","name":"Radiance Noodle Bar","cuisine":"Chinese","address":"208 E 50th St","coordinates":{"latitude":40.755466,"longitude":-73.970861},"review_count":14,"rating":3,"zip_code":"10022"},{"id":"DFxb7lZrcIHZ0ESK-0Zulg","name":"AK US Group","cuisine":"Chinese","address":"95 Chrystie St","coordinates":{"latitude":40.717793,"longitude":-73.99438},"review_count":9,"rating":4,"zip_code":"10002"},{"id":"PRd1P_8glLwB5cNO-hFEcw","name":"China Wok","cuisine":"Chinese","address":"454-A Lenox Ave","coordinates":{"latitude":40.8124997466803,"longitude":-73.9418902248144},"review_count":10,"rating":4,"zip_code":"10037"},{"id":"y8Z9Tos6qtDVd0X0QVm70g","name":"Yoan Ming Garden","cuisine":"Chinese","address":"1407 Madison Ave","coordinates":{"latitude":40.78813,"longitude":-73.95315},"review_count":32,"rating":2.5,"zip_code":"10029"},{"id":"JbAdL2vOd-8O_Xa2wRktug","name":"New Hong Wong Seafood Restaurant","cuisine":"Chinese","address":"100 Bowery","coordinates":{"latitude":40.717796,"longitude":-73.995498},"review_count":15,"rating":3,"zip_code":"10013"},{"id":"G4K-mNlM0oLKo8N--Ne2AA","name":"Sampan Chinese Restaurant","cuisine":"Chinese","address":"28-48 Steinway St","coordinates":{"latitude":40.7644,"longitude":-73.9148699},"review_count":60,"rating":3.5,"zip_code":"11103"},{"id":"xDOwMgEWuoC19_IEQR-YmA","name":"Fo Ying Chinese Take Out","cuisine":"Chinese","address":"811 8th Ave","coordinates":{"latitude":40.7615449,"longitude":-73.9867874},"review_count":28,"rating":3,"zip_code":"10019"},{"id":"JjSrwEPSCKABNqbpWArKWg","name":"Fusion Grills","cuisine":"Chinese","address":"875 3rd Ave","coordinates":{"latitude":40.757217,"longitude":-73.969192},"review_count":31,"rating":3,"zip_code":"10022"},{"id":"1fVp9c5Vw04ig171a_juRw","name":"U Like","cuisine":"Chinese","address":"602 Marcy Ave","coordinates":{"latitude":40.694007,"longitude":-73.949259},"review_count":39,"rating":4,"zip_code":"11206"},{"id":"7qvHljqtI4UZEXwpPp3Yug","name":"Weng's Palace","cuisine":"Chinese","address":"304 W 40th St","coordinates":{"latitude":40.75601,"longitude":-73.99146},"review_count":60,"rating":2,"zip_code":"10018"},{"id":"82lxJZQZUnTrh0RDKrKbrA","name":"Tokyo Hanten","cuisine":"Chinese","address":"595 River Rd","coordinates":{"latitude":40.81627,"longitude":-73.97983},"review_count":70,"rating":3,"zip_code":"07020"},{"id":"a93NwZxjkPQydJxR42oPyg","name":"Grain House","cuisine":"Chinese","address":"929 Amsterdam Ave","coordinates":{"latitude":40.800127673827,"longitude":-73.9657538384199},"review_count":14,"rating":3.5,"zip_code":"10025"},{"id":"Wu9AymEM_RM2cnRPslVlIw","name":"East 21","cuisine":"Chinese","address":"71-26 Roosevelt Ave","coordinates":{"latitude":40.7464685299281,"longitude":-73.8940858840942},"review_count":65,"rating":3.5,"zip_code":"11372"},{"id":"_fZQDgmasvWBtCTj9583lg","name":"Wok Express","cuisine":"Chinese","address":"2133 3rd Ave","coordinates":{"latitude":40.798202,"longitude":-73.939417},"review_count":10,"rating":4,"zip_code":"10035"}]}
