{"businesses":[{"id":"qUOxvK1j0F293sZk5PdSBg","name":"Antico Noè","cuisine":"Italian","address":"220 E 53rd St","coordinates":{"latitude":40.75716,"longitude":-73.96864},"review_count":123,"rating":4.5,"zip_code":"10022"},{"id":"jnHbdsqlTKlPcmJ8BCP9-g","name":"Via Carota","cuisine":"Italian","address":"51 Grove St","coordinates":{"latitude":40.7331,"longitude":-74.00369},"review_count":259,"rating":4,"zip_code":"10014"},{"id":"OTpQbSQNGiGudqJKJASmpw","name":"Fiore Deli of Hoboken","cuisine":"Italian","address":"414 Adams St","coordinates":{"latitude":40.74301,"longitude":-74.03626},"review_count":437,"rating":4.5,"zip_code":"07030"},{"id":"v1M1HIQBVwYatEF_iOmedw","name":"ViceVersa","cuisine":"Italian","address":"325 W 51st St","coordinates":{"latitude":40.7635858415079,"longitude":-73.9866799425418},"review_count":217,"rating":4,"zip_code":"10019"},{"id":"kcvynqRHM79DOPrOS_OayA","name":"Stanton Pizza","cuisine":"Italian","address":"127 Stanton St","coordinates":{"latitude":40.72073,"longitude":-73.98671},"review_count":182,"rating":4,"zip_code":"10002"},{"id":"rvoyaPumkhL5FA2zTqk13w","name":"Sandwich House","cuisine":"Italian","address":"17 Ann St","coordinates":{"latitude":40.71096,"longitude":-74.0077699},"review_count":232,"rating":4,"zip_code":"10038"},{"id":"J9r0qorwR0tKOhrCcl1VGQ","name":"Piccolo Cafe","cuisine":"Italian","address":"274 W 40th St","coordinates":{"latitude":40.7557818,"longitude":-73.9904619},"review_count":208,"rating":4,"zip_code":"10018"},{"id":"HiNUBUR1hFwScd_OvVLQAg","name":"La Pecora Bianca","cuisine":"Italian","address":"1133 Broadway","coordinates":{"latitude":40.74358,"longitude":-73.9892},"review_count":353,"rating":3.5,"zip_code":"10010"},{"id":"gjZpcE-X4zQOEqWQPelLgg","name":"Max","cuisine":"Italian","address":"181 Duane St","coordinates":{"latitude":40.71755,"longitude":-74.01013},"review_count":378,"rating":3.5,"zip_code":"10013"},{"id":"_V7YsDQ4Lb41rqfkuPzm1w","name":"Trattoria Pesce Pasta","cuisine":"Italian","address":"262 Bleecker St","coordinates":{"latitude":40.73115,"longitude":-74.00319},"review_count":196,"rating":4,"zip_code":"10014"},{"id":"d15lwNLOlLSeaAYqPadntw","name":"Sam's Place","cuisine":"Italian","address":"132 E 39th St","coordinates":{"latitude":40.749270880468,"longitude":-73.977082744053},"review_count":196,"rating":4,"zip_code":"10016"},{"id":"gsL7pm6HbYqKH-gx-FjxlQ","name":"Scarlatto","cuisine":"Italian","address":"317 West 46th St","coordinates":{"latitude":40.76036,"longitude":-73.98869},"review_count":367,"rating":3.5,"zip_code":"10036"},{"id":"l1EdTmBBFzxQIZDftPZeUQ","name":"Ristorante Morini","cuisine":"Italian","address":"1167 Madison Ave","coordinates":{"latitude":40.7806,"longitude":-73.95882},"review_count":225,"rating":4,"zip_code":"10028"},{"id":"Kz7hn14j6KXf_gYeC99rUg","name":"I Trulli","cuisine":"Italian","address":"124 E 27th St","coordinates":{"latitude":40.74207,"longitude":-73.98361},"review_count":312,"rating":3.5,"zip_code":"10016"},{"id":"1ZKbUeFAs0ltSnAYq4ELKw","name":"Trattoria L'incontro","cuisine":"Italian","address":"21-76 31st St","coordinates":{"latitude":40.7763330374196,"longitude":-73.9105868339539},"review_count":770,"rating":4.5,"zip_code":"11105"},{"id":"BeE1tVTCmorm31fwXvX7Wg","name":"Ora di Pasta","cuisine":"Italian","address":"1 W 59th St","coordinates":{"latitude":40.7644615,"longitude":-73.9738617},"review_count":171,"rating":4,"zip_code":"10019"},{"id":"HPvz-PHt2PYWV_X9eQSlnA","name":"Il Cortile Restaurant","cuisine":"Italian","address":"125 Mulberry St","coordinates":{"latitude":40.7179895,"longitude":-73.9982094},"review_count":377,"rating":3.5,"zip_code":"10013"},{"id":"XfOa_KyrV7JSFJMOKckGMg","name":"Monte's Trattoria","cuisine":"Italian","address":"97 Macdougal St","coordinates":{"latitude":40.72959,"longitude":-74.0011},"review_count":271,"rating":4,"zip_code":"10012"},{"id":"WEhkGLKlj-5X1pq_07Syaw","name":"Vesta","cuisine":"Italian","address":"21-02 30th Ave","coordinates":{"latitude":40.76961,"longitude":-73.92776},"review_count":611,"rating":4,"zip_code":"11102"},{"id":"3O8IdtlrHNBzxEnPGD1ONw","name":"Asellina","cuisine":"Italian","address":"420 Park Ave S","coordinates":{"latitude":40.74391,"longitude":-73.9839},"review_count":346,"rating":3.5,"zip_code":"10016"},{"id":"EJOpdpy6QPTtmC7Fn04yHw","name":"Patsy's Pizzeria","cuisine":"Italian","address":"61 W 74th St","coordinates":{"latitude":40.7785204,"longitude":-73.9769718},"review_count":431,"rating":3.5,"zip_code":"10023"},{"id":"6fjcZtaEtrmIas-WNss-eQ","name":"Piccolo Cafe","cuisine":"Italian","address":"238 Madison Ave","coordinates":{"latitude":40.749964,"longitude":-73.981729},"review_count":283,"rating":3.5,"zip_code":"10016"},{"id":"ESpIimUxHNF1fFuGBdVwCg","name":"La Pizza & La Pasta","cuisine":"Italian","address":"200 5th Ave","coordinates":{"latitude":40.742344,"longitude":-73.989952},"review_count":276,"rating":3.5,"zip_code":"10010"},{"id":"l7Z0p-PkSwIDPLPY1TRl8A","name":"Emilio's Ballato","cuisine":"Italian","address":"55 E Houston St","coordinates":{"latitude":40.7244923,"longitude":-73.9944022},"review_count":228,"rating":4,"zip_code":"10012"},{"id":"WmK7GXwOnLSTRN1ocyUThg","name":"Puglia Ristorante","cuisine":"Italian","address":"189 Hester St","coordinates":{"latitude":40.71823,"longitude":-73.99764},"review_count":317,"rating":4,"zip_code":"10013"},{"id":"3P8hb1ZOCA8IjEGfqpSpxg","name":"Sfoglia Restaurant","cuisine":"Italian","address":"1402 Lexington Ave","coordinates":{"latitude":40.783535,"longitude":-73.952719},"review_count":248,"rating":4,"zip_code":"10128"},{"id":"1hZo1zfvLVN687_D7latyg","name":"Daniela Trattoria","cuisine":"Italian","address":"728 8th Ave","coordinates":{"latitude":40.75927,"longitude":-73.98809},"review_count":331,"rating":3.5,"zip_code":"10036"},{"id":"q3_FgDWWuXcVGiNuo_OPBQ","name":"Fiaschetteria Pistoia","cuisine":"Italian","address":"647 E 11th St","coordinates":{"latitude":40.72666,"longitude":-73.9773},"review_count":91,"rating":4.5,"zip_code":"10009"},{"id":"jtG2vc_qkBOwcaxFBYfYZA","name":"Cafe Mocha","cuisine":"Italian","address":"116 2nd Ave","coordinates":{"latitude":40.7278692185584,"longitude":-73.9880887632294},"review_count":290,"rating":3.5,"zip_code":"10003"},{"id":"-8_vEcBA2Lqd8786S-Ss-g","name":"Novita Restaurant","cuisine":"Italian","address":"102 E 22nd St","coordinates":{"latitude":40.73918,"longitude":-73.98629},"review_count":269,"rating":4,"zip_code":"10010"},{"id":"PQd4M3cuSgdweWgLgZIslQ","name":"Inatteso Pizzabar Casano","cuisine":"Italian","address":"28 West St","coordinates":{"latitude":40.7056571,"longitude":-74.0172056},"review_count":258,"rating":4,"zip_code":"10004"},{"id":"mOoZZa6WIsgihc_TqyQcXw","name":"Tarallucci E Vino -Union Square","cuisine":"Italian","address":"15 E 18th St","coordinates":{"latitude":40.7381367771909,"longitude":-73.9907283558044},"review_count":327,"rating":3.5,"zip_code":"10003"},{"id":"bW3mY-voyav37nU0uaLmNQ","name":"Dante","cuisine":"Italian","address":"79-81 Macdougal St","coordinates":{"latitude":40.72879,"longitude":-74.00165},"review_count":176,"rating":4,"zip_code":"10012"},{"id":"MCnexHfsclcOpLHS4_2U0A","name":"San Carlo Osteria Piemonte","cuisine":"Italian","address":"90 Thompson St","coordinates":{"latitude":40.725139,"longitude":-74.002098},"review_count":108,"rating":4.5,"zip_code":"10012"},{"id":"gTEoEsssfbjl76Opf5bP9g","name":"L'Amico NYC","cuisine":"Italian","address":"851 6th Ave","coordinates":{"latitude":40.7472104,"longitude":-73.9899179},"review_count":298,"rating":3.5,"zip_code":"10001"},{"id":"C8Ctyq7pXOPESK8cz_X2CA","name":"Pomodoro Rosso","cuisine":"Italian","address":"229 Columbus Ave","coordinates":{"latitude":40.776317,"longitude":-73.979187},"review_count":254,"rating":4,"zip_code":"10023"},{"id":"vFsjObMTImsnM_DzVo4N3g","name":"Bocca Restaurant & Bar","cuisine":"Italian","address":"39 E 19th St","coordinates":{"latitude":40.73826,"longitude":-73.98886},"review_count":314,"rating":3.5,"zip_code":"10003"},{"id":"YoLxK5EG8UgnueKAe7hj0g","name":"I Sodi","cuisine":"Italian","address":"105 Christopher St","coordinates":{"latitude":40.7334747314453,"longitude":-74.005012512207},"review_count":247,"rating":4,"zip_code":"10014"},{"id":"yT9z4u2p259TvziLijowoA","name":"Trattoria Spaghetto","cuisine":"Italian","address":"232 Bleecker St","coordinates":{"latitude":40.7301959175117,"longitude":-74.0024488560668},"review_count":280,"rating":4,"zip_code":"10014"},{"id":"Uv13OfDr0fm5Jk2Dk4uFvQ","name":"Hank's Juicy Beef","cuisine":"Italian","address":"84 Chambers St","coordinates":{"latitude":40.7143487,"longitude":-74.0072147},"review_count":146,"rating":4.5,"zip_code":"10007"},{"id":"4eGCuMwKRCCrYHOobEsFpA","name":"Lusardi's","cuisine":"Italian","address":"1494 2nd Ave","coordinates":{"latitude":40.77237,"longitude":-73.95539},"review_count":147,"rating":4,"zip_code":"10075"},{"id":"vjj3MMPkULJUCv8xf3XRiA","name":"San Matteo Takeaway","cuisine":"Italian","address":"1731 2nd Ave","coordinates":{"latitude":40.7801684,"longitude":-73.9502899},"review_count":135,"rating":4,"zip_code":"10128"},{"id":"1htK0vS5FAHaXXtpAQperQ","name":"Bread & Tulips","cuisine":"Italian","address":"365 Park Ave S","coordinates":{"latitude":40.7421,"longitude":-73.98461},"review_count":214,"rating":4,"zip_code":"10016"},{"id":"LZcpNrQQqC5IWbE4c-9Cyw","name":"Buchetta Brick Oven Pizza","cuisine":"Italian","address":"201 W 103rd St","coordinates":{"latitude":40.7987564,"longitude":-73.9673846},"review_count":191,"rating":4,"zip_code":"10025"},{"id":"V0zC3awsklyxC0GFzmaTLg","name":"Sfilatino Italian Gourmet","cuisine":"Italian","address":"342 W 57th St","coordinates":{"latitude":40.7675056,"longitude":-73.9851073},"review_count":155,"rating":4,"zip_code":"10019"},{"id":"u5zbsITgkFbAlRq0j-XE-g","name":"Serafina Broadway","cuisine":"Italian","address":"210 West 55th St","coordinates":{"latitude":40.7645,"longitude":-73.9819},"review_count":473,"rating":3,"zip_code":"10019"},{"id":"-KrQ1gOiyXCbffsWyc5SNQ","name":"The Leopard at des Artistes","cuisine":"Italian","address":"1 W 67th St","coordinates":{"latitude":40.773515,"longitude":-73.978841},"review_count":191,"rating":4,"zip_code":"10023"},{"id":"B1XdGwZZ5ee2fBdngj7NUw","name":"Underground Pizza","cuisine":"Italian","address":"3 Hanover Sq","coordinates":{"latitude":40.70499,"longitude":-74.00961},"review_count":237,"rating":4,"zip_code":"10004"},{"id":"id_xB0Gr_UMb_WQLJSjTtQ","name":"Nicoletta Pizzeria","cuisine":"Italian","address":"160 2nd Ave","coordinates":{"latitude":40.7297791962756,"longitude":-73.9866918325424},"review_count":268,"rating":3.5,"zip_code":"10003"},{"id":"-58--bg-KKUNArp18U4llA","name":"da Umberto","cuisine":"Italian","address":"107 W 17th St","coordinates":{"latitude":40.7396659851074,"longitude":-73.9958267211914},"review_count":140,"rating":4,"zip_code":"10011"},{"id":"n-W54Fja1oW5u3gzYp9HwA","name":"Avena","cuisine":"Italian","address":"141 E 57th St","coordinates":{"latitude":40.76099,"longitude":-73.96863},"review_count":105,"rating":4.5,"zip_code":"10022"},{"id":"pL6cM2TPwvXqeGTrg7yN4Q","name":"Remi","cuisine":"Italian","address":"145 W 53rd St","coordinates":{"latitude":40.76268,"longitude":-73.98093},"review_count":258,"rating":3.5,"zip_code":"10019"},{"id":"JBthOvTegHbrLDiVaCAy5Q","name":"Bigoi Venezia","cuisine":"Italian","address":"1415 Second Ave","coordinates":{"latitude":40.77007,"longitude":-73.95778},"review_count":101,"rating":4.5,"zip_code":"10021"},{"id":"b42PcC1nCP602fiXF0a9Xg","name":"Barbalu Restaurant","cuisine":"Italian","address":"225-227 Front St","coordinates":{"latitude":40.7074747,"longitude":-74.0020404},"review_count":203,"rating":4,"zip_code":"10038"},{"id":"4pVVwr83eAdQva81lY9ylA","name":"Il Baretto","cuisine":"Italian","address":"750 11th Ave","coordinates":{"latitude":40.7674882560968,"longitude":-73.9933906495571},"review_count":144,"rating":4,"zip_code":"10019"},{"id":"zDujEq9qZk13nBcG2PH4tA","name":"Il Falco","cuisine":"Italian","address":"21-50 44th Dr","coordinates":{"latitude":40.7476595714373,"longitude":-73.9455319123659},"review_count":235,"rating":4.5,"zip_code":"11101"},{"id":"qoVVQZpwXPxX_wL5qKzy0g","name":"MoMA Café 2","cuisine":"Italian","address":"11 W 53rd St","coordinates":{"latitude":40.761180781342,"longitude":-73.977074429361},"review_count":207,"rating":3.5,"zip_code":"10019"},{"id":"76y4aMBY0lT6zfJLy2EH-Q","name":"Le Zie","cuisine":"Italian","address":"172 7th Ave","coordinates":{"latitude":40.74246,"longitude":-73.9970699},"review_count":275,"rating":3.5,"zip_code":"10011"},{"id":"nw85LVh6H3JIiw3ugvhAmw","name":"Lasagna Ristorante","cuisine":"Italian","address":"196 8th Ave","coordinates":{"latitude":40.7432136535645,"longitude":-73.9996719360352},"review_count":417,"rating":3.5,"zip_code":"10011"},{"id":"_17lSQzogvatMOhutxDvdw","name":"Mulino a Vino","cuisine":"Italian","address":"337 W 14th St","coordinates":{"latitude":40.74079,"longitude":-74.00417},"review_count":155,"rating":4,"zip_code":"10014"},{"id":"xJm9JJLooQ1Sc7ncM2-JJA","name":"The Meatball Shop","cuisine":"Italian","address":"170 Bedford Ave","coordinates":{"latitude":40.7182749,"longitude":-73.9576213},"review_count":1133,"rating":4,"zip_code":"11249"},{"id":"E1RvMNZ4re4TnKarjx14Zw","name":"Cacio E Pepe","cuisine":"Italian","address":"182 2nd Ave","coordinates":{"latitude":40.7307352,"longitude":-73.9862681},"review_count":391,"rating":3.5,"zip_code":"10003"},{"id":"2ZbGLUZpaJO8mdxi7UaVMQ","name":"Cara Mia","cuisine":"Italian","address":"654 9th Ave","coordinates":{"latitude":40.76069,"longitude":-73.99066},"review_count":381,"rating":3.5,"zip_code":"10036"},{"id":"pC_QwLpeL2Enk4hBgDcRqQ","name":"Da Marino","cuisine":"Italian","address":"220 W 49th St","coordinates":{"latitude":40.76102,"longitude":-73.98526},"review_count":297,"rating":4,"zip_code":"10019"},{"id":"zjglOaCY8xQu3s2eKnLFzw","name":"Mozzarella & Vino","cuisine":"Italian","address":"33 W 54th St","coordinates":{"latitude":40.76204,"longitude":-73.97718},"review_count":197,"rating":4,"zip_code":"10019"},{"id":"cw7K31iO2tb5drMtqZ9F8w","name":"Sardi's","cuisine":"Italian","address":"234 W 44th St","coordinates":{"latitude":40.75789,"longitude":-73.98755},"review_count":414,"rating":3.5,"zip_code":"10036"},{"id":"Sc9b0gyGPUe7SFuOCK00_Q","name":"Dough Boys Pizza","cuisine":"Italian","address":"451 3rd Ave","coordinates":{"latitude":40.7438581,"longitude":-73.9792886},"review_count":259,"rating":3.5,"zip_code":"10016"},{"id":"fmdEiai0e4agyTEqFUWJmw","name":"Amarone Ristorante","cuisine":"Italian","address":"686 9th Ave","coordinates":{"latitude":40.76168,"longitude":-73.98992},"review_count":257,"rating":3.5,"zip_code":"10036"},{"id":"W9wDa_EB0h2p5JG6P6lyZw","name":"Pescatore","cuisine":"Italian","address":"955 2nd Ave","coordinates":{"latitude":40.75538,"longitude":-73.96852},"review_count":310,"rating":3.5,"zip_code":"10022"},{"id":"MyVbXtvst8X7sbR7gUA_ug","name":"Cacio E Vino","cuisine":"Italian","address":"80 2nd Ave","coordinates":{"latitude":40.726384,"longitude":-73.988873},"review_count":286,"rating":3.5,"zip_code":"10003"},{"id":"lP4ynyBoeFPywLg78XkMmw","name":"Cibo E Vino","cuisine":"Italian","address":"2418 Broadway","coordinates":{"latitude":40.790206,"longitude":-73.9749174},"review_count":240,"rating":4,"zip_code":"10024"},{"id":"Qab4GBAxxjacF4KsXLFETA","name":"Sal & Carmine's Pizza","cuisine":"Italian","address":"2671 Broadway","coordinates":{"latitude":40.7983115,"longitude":-73.9694405},"review_count":297,"rating":3.5,"zip_code":"10025"},{"id":"KL6AUMQI_Ae7_brkK0fy_w","name":"La Vela Dining & Bar","cuisine":"Italian","address":"558 11th Ave","coordinates":{"latitude":40.761082,"longitude":-73.997872},"review_count":148,"rating":4,"zip_code":"10036"},{"id":"n7JhermRt4mULT2bS_18kg","name":"Pizza Italia","cuisine":"Italian","address":"307 W 17th St","coordinates":{"latitude":40.7419889767239,"longitude":-74.0019458249749},"review_count":169,"rating":4,"zip_code":"10011"},{"id":"TsYrzVVtkKO4Asrk_L9stw","name":"Parm","cuisine":"Italian","address":"235 Columbus Ave","coordinates":{"latitude":40.7765393353547,"longitude":-73.9794614514109},"review_count":391,"rating":3.5,"zip_code":"10023"},{"id":"tsvElYYtUBAEdfK6plnxlg","name":"Villa Mosconi","cuisine":"Italian","address":"69 Macdougal St","coordinates":{"latitude":40.72859,"longitude":-74.002},"review_count":149,"rating":4,"zip_code":"10012"},{"id":"Dpn3cs2D-AfFAGDOTix8og","name":"Polpette","cuisine":"Italian","address":"483 Amsterdam Ave","coordinates":{"latitude":40.7858352585311,"longitude":-73.9761673098832},"review_count":197,"rating":4,"zip_code":"10024"},{"id":"YvSCXoj-z1eS2soiXQSIFQ","name":"49 Monroe","cuisine":"Italian","address":"49 Monroe St","coordinates":{"latitude":40.7118467,"longitude":-73.9937348},"review_count":123,"rating":4.5,"zip_code":"10002"},{"id":"dLYFNYqSw2L148bTJbwmiw","name":"Bella Vita","cuisine":"Italian","address":"211 W 43rd St","coordinates":{"latitude":40.7570467,"longitude":-73.9869185},"review_count":441,"rating":3.5,"zip_code":"10036"},{"id":"Trw7ZZlMjlSLqa0owjhxhA","name":"1742 Wine Bar","cuisine":"Italian","address":"1742 2nd Ave","coordinates":{"latitude":40.78072,"longitude":-73.9492999},"review_count":612,"rating":3.5,"zip_code":"10128"},{"id":"GAvyDral555vltKrupUcjw","name":"Osteria Laguna","cuisine":"Italian","address":"209 E 42nd St","coordinates":{"latitude":40.750647,"longitude":-73.9737998},"review_count":280,"rating":3.5,"zip_code":"10017"},{"id":"lOSLnTElmUVC_vCP0q23TA","name":"Salvo's Pizzabar","cuisine":"Italian","address":"1477 York Ave","coordinates":{"latitude":40.7708511352539,"longitude":-73.950927734375},"review_count":216,"rating":4,"zip_code":"10075"},{"id":"UjzSeETESWzramhdOdWKKQ","name":"Tartina","cuisine":"Italian","address":"1034 Amsterdam Ave","coordinates":{"latitude":40.8035073,"longitude":-73.9636591},"review_count":225,"rating":4,"zip_code":"10025"},{"id":"J17UnrHP-kDBaaQzhIUWLQ","name":"Rose's Pizza","cuisine":"Italian","address":"1 Penn Plz","coordinates":{"latitude":40.7516241,"longitude":-73.9924959},"review_count":217,"rating":3.5,"zip_code":"10119"},{"id":"zTK8reqKrmV7U71YVHYYjg","name":"Armani Ristorante","cuisine":"Italian","address":"717 5th Ave","coordinates":{"latitude":40.7618463161798,"longitude":-73.9742299834671},"review_count":180,"rating":4,"zip_code":"10022"},{"id":"pIrSHmLYW6Bdjiz-HHWd1Q","name":"Bettolona","cuisine":"Italian","address":"3143 Broadway","coordinates":{"latitude":40.8141032,"longitude":-73.9597766},"review_count":257,"rating":4,"zip_code":"10027"},{"id":"7rc7e_mw5DefMCSBsuZYhg","name":"Don Giovanni Ristorante","cuisine":"Italian","address":"358 W 44th St","coordinates":{"latitude":40.75955,"longitude":-73.9915},"review_count":366,"rating":3.5,"zip_code":"10036"},{"id":"C3OlQ_y5LcgboyaKlpETYA","name":"Trattoria Casa Di Isacco","cuisine":"Italian","address":"536 9th Ave","coordinates":{"latitude":40.7568,"longitude":-73.99342},"review_count":209,"rating":4,"zip_code":"10018"},{"id":"hDj_0pbi4mFR5p1H1w6igw","name":"MISIRIZZI","cuisine":"Italian","address":"36 E 4th St","coordinates":{"latitude":40.7272,"longitude":-73.9922799},"review_count":73,"rating":4.5,"zip_code":"10003"},{"id":"iV5yy8EbjsPoYWtjRhB61Q","name":"Nica Trattoria","cuisine":"Italian","address":"354 E 84th St","coordinates":{"latitude":40.7758882,"longitude":-73.9514507},"review_count":104,"rating":4.5,"zip_code":"10028"},{"id":"7S8g0G_Ndc3DS-kqsozq8Q","name":"83 1/2","cuisine":"Italian","address":"345 E 83rd St","coordinates":{"latitude":40.775354,"longitude":-73.951216},"review_count":134,"rating":4,"zip_code":"10028"},{"id":"ft2OPgLsquG9d7XrBLULng","name":"Alidoro","cuisine":"Italian","address":"18 E 39th St","coordinates":{"latitude":40.7510443031788,"longitude":-73.9811161905527},"review_count":160,"rating":4,"zip_code":"10016"},{"id":"iQo5aJwTL_ZrXCdPFKq-RA","name":"Isle of Capri","cuisine":"Italian","address":"1028 3rd Ave","coordinates":{"latitude":40.76283,"longitude":-73.96602},"review_count":180,"rating":4,"zip_code":"10065"},{"id":"77llOAEwInvK-oC2AHZ4nQ","name":"Coppola's","cuisine":"Italian","address":"378 3rd Ave","coordinates":{"latitude":40.74165,"longitude":-73.98154},"review_count":245,"rating":3.5,"zip_code":"10016"},{"id":"3Yq-s6jngSsVzo13uYiplw","name":"Intermezzo","cuisine":"Italian","address":"202 8th Ave","coordinates":{"latitude":40.7435441,"longitude":-73.9995713},"review_count":340,"rating":3.5,"zip_code":"10011"},{"id":"sB8-R8-FYj-kJrSzTlbmgw","name":"Coppola's West","cuisine":"Italian","address":"206 W 79th St","coordinates":{"latitude":40.783115,"longitude":-73.9789374},"review_count":236,"rating":3.5,"zip_code":"10024"},{"id":"26emJlm1YMFyOCezfgVk4g","name":"Da Raffaele","cuisine":"Italian","address":"883 First Ave","coordinates":{"latitude":40.7535386913133,"longitude":-73.9666010811925},"review_count":96,"rating":4.5,"zip_code":"10022"},{"id":"TzVVPWK_4dhdSEpNqZwIhQ","name":"Toscana 49","cuisine":"Italian","address":"143 East 49 St","coordinates":{"latitude":40.7556957079225,"longitude":-73.9717184007168},"review_count":130,"rating":4,"zip_code":"10017"},{"id":"Fuk7jDI2XAcvHxqau5rKWA","name":"Acqua Restaurant NYC","cuisine":"Italian","address":"21 Peck Slip, Water St","coordinates":{"latitude":40.7082567,"longitude":-74.001797},"review_count":268,"rating":4,"zip_code":"10038"},{"id":"qrcu1K6f8WGMODdq_A8unw","name":"Volare Restaurant","cuisine":"Italian","address":"147 W 4th St Frnt","coordinates":{"latitude":40.7315434396639,"longitude":-74.0006124973297},"review_count":105,"rating":4.5,"zip_code":"10012"},{"id":"abZ-mEvF6Tj4hfyIg0lKwQ","name":"Vite Vinosteria","cuisine":"Italian","address":"31-05 34th St","coordinates":{"latitude":40.7629734277725,"longitude":-73.92119564116},"review_count":469,"rating":4.5,"zip_code":"11106"},{"id":"k1zrPPGGMQdlHopP3MnxrQ","name":"Storico","cuisine":"Italian","address":"170 Ctr Park W","coordinates":{"latitude":40.7862739562988,"longitude":-73.9758834838867},"review_count":177,"rating":4,"zip_code":"10024"},{"id":"Dexx-i2E_lb2GZ-C3o8T1Q","name":"Fusco","cuisine":"Italian","address":"43 E 20th St","coordinates":{"latitude":40.7388499173673,"longitude":-73.9884278923273},"review_count":95,"rating":4,"zip_code":"10003"},{"id":"g-x0AcFbyiQDvnkeus0BLw","name":"Vivolo Restaurant","cuisine":"Italian","address":"140 E 74th St","coordinates":{"latitude":40.7716751098633,"longitude":-73.961555480957},"review_count":161,"rating":4,"zip_code":"10021"},{"id":"kpoFMjX8cIPeoWR1C-CV6A","name":"La Sirena Ristorante","cuisine":"Italian","address":"88 9th Ave","coordinates":{"latitude":40.74244,"longitude":-74.00387},"review_count":290,"rating":3.5,"zip_code":"10011"},{"id":"IEb99GmOvg585gmwmm4iNA","name":"Azalea Ristorante","cuisine":"Italian","address":"224 W 51st St","coordinates":{"latitude":40.7621418,"longitude":-73.9841952},"review_count":208,"rating":4,"zip_code":"10019"},{"id":"syu8oCU9h3X9hfAE_lpADw","name":"Terra Wine Bar","cuisine":"Italian","address":"222 W Broadway","coordinates":{"latitude":40.7191707644465,"longitude":-74.0065013183027},"review_count":281,"rating":3.5,"zip_code":"10013"},{"id":"ifIfq2EwEohCgoKnG68_LA","name":"Villa Berulia","cuisine":"Italian","address":"107 E 34th St","coordinates":{"latitude":40.7467827,"longitude":-73.9806507},"review_count":127,"rating":4,"zip_code":"10016"},{"id":"MT_a_Tg3ENdxqZFQyJocgQ","name":"Joanne Trattoria","cuisine":"Italian","address":"70 W 68th St","coordinates":{"latitude":40.7744659,"longitude":-73.98034},"review_count":361,"rating":3.5,"zip_code":"10023"},{"id":"JOvcJqD5eCFrGjFa6k7vpQ","name":"Zia Maria","cuisine":"Italian","address":"318 W 23rd St","coordinates":{"latitude":40.7454863,"longitude":-73.9993392},"review_count":143,"rating":4,"zip_code":"10011"},{"id":"3Sm7_Nhnj12r5RhianvrbQ","name":"Kiss My Slice","cuisine":"Italian","address":"274 W 40th St","coordinates":{"latitude":40.75576,"longitude":-73.99052},"review_count":127,"rating":4,"zip_code":"10018"},{"id":"CfFjKWynWAFLO9mUTxe4Zg","name":"Gaetana's","cuisine":"Italian","address":"143 Christopher St","coordinates":{"latitude":40.732952570801,"longitude":-74.007623322014},"review_count":245,"rating":3.5,"zip_code":"10014"},{"id":"R3zLNeyNbmPJ09URzXgGfA","name":"Delizia 73","cuisine":"Italian","address":"1374 1st Ave","coordinates":{"latitude":40.768589,"longitude":-73.955047},"review_count":230,"rating":3.5,"zip_code":"10021"},{"id":"cBmZRsZmUfBg6eMPPM6ypA","name":"Zagara Ristorante Italiano","cuisine":"Italian","address":"216 7th Ave","coordinates":{"latitude":40.743835,"longitude":-73.996088},"review_count":163,"rating":4,"zip_code":"10011"},{"id":"-yvRcO3ab1KRHtXtGA2IMg","name":"Cucina Di Pesce","cuisine":"Italian","address":"87 E 4th St","coordinates":{"latitude":40.726523,"longitude":-73.989747},"review_count":391,"rating":3.5,"zip_code":"10003"},{"id":"NqYET0OyJKGfm9dJG8iDcg","name":"Piccola Cucina Enoteca","cuisine":"Italian","address":"184 Prince St","coordinates":{"latitude":40.726284,"longitude":-74.002151},"review_count":178,"rating":4,"zip_code":"10012"},{"id":"OLa3-KQO9rHjswo55E3Jgg","name":"Trattoria La Sorrentina","cuisine":"Italian","address":"7831 Bergenline Ave","coordinates":{"latitude":40.80174,"longitude":-74.00698},"review_count":436,"rating":4.5,"zip_code":"07047"},{"id":"PgTgzq8oKcP2r00YUWL03A","name":"Sole di Capri","cuisine":"Italian","address":"165 Church St","coordinates":{"latitude":40.71511,"longitude":-74.00758},"review_count":209,"rating":4,"zip_code":"10007"},{"id":"zyU01gN5mTEWsmd5FGzqDg","name":"Valbella","cuisine":"Italian","address":"421 W 13th St","coordinates":{"latitude":40.7409181,"longitude":-74.0068885},"review_count":194,"rating":4,"zip_code":"10014"},{"id":"JliAIBARXi9uISzNG26DVw","name":"Elio's","cuisine":"Italian","address":"1621 2nd Ave","coordinates":{"latitude":40.7767632368091,"longitude":-73.9526632086427},"review_count":179,"rating":4,"zip_code":"10028"},{"id":"8PyKaU-YM0HOAfxWsjcwmg","name":"Cipriani Le Specialita","cuisine":"Italian","address":"120 E 42nd St","coordinates":{"latitude":40.7516113,"longitude":-73.9767134},"review_count":108,"rating":4,"zip_code":"10017"},{"id":"562aZEpTDdYKDe5hWuDyFA","name":"La Gioconda","cuisine":"Italian","address":"226 E 53rd St","coordinates":{"latitude":40.7570686,"longitude":-73.9684186},"review_count":131,"rating":4,"zip_code":"10022"},{"id":"idxD3X7WfLFPZMoFnCRIQQ","name":"Il Cantinori","cuisine":"Italian","address":"32 E 10th St","coordinates":{"latitude":40.7322779619352,"longitude":-73.9929321762328},"review_count":215,"rating":4,"zip_code":"10003"},{"id":"YE4pvo8ectzEaRYGqUgFcA","name":"Felice 64","cuisine":"Italian","address":"1166 1st Ave","coordinates":{"latitude":40.76256,"longitude":-73.9596},"review_count":238,"rating":3.5,"zip_code":"10065"},{"id":"aPmTYRZ6mYgpvpNpmI_Wdg","name":"Da Noi","cuisine":"Italian","address":"214 E 49th St","coordinates":{"latitude":40.75471,"longitude":-73.97067},"review_count":120,"rating":4,"zip_code":"10017"},{"id":"R86cJxXMiXRyqzlF24esgg","name":"Lexington Pizza Parlour","cuisine":"Italian","address":"1590 Lexington Ave","coordinates":{"latitude":40.789283,"longitude":-73.9487429},"review_count":143,"rating":4,"zip_code":"10029"},{"id":"lMVP7UR2mySp0yg9_3HvbQ","name":"Firenze Ristorante","cuisine":"Italian","address":"1555 2nd Ave","coordinates":{"latitude":40.774526565292,"longitude":-73.9544070884586},"review_count":219,"rating":3.5,"zip_code":"10028"},{"id":"kS04TICXd1-0iZ4rgEWmvQ","name":"Gabriel's Bar & Restaurant","cuisine":"Italian","address":"11 W 60th St","coordinates":{"latitude":40.7692581,"longitude":-73.9826142},"review_count":134,"rating":4,"zip_code":"10023"},{"id":"W8-g8yoLUuLq_US8NqnDhQ","name":"Patsy's Pizzeria","cuisine":"Italian","address":"1279 1st Ave","coordinates":{"latitude":40.7658680230835,"longitude":-73.9576601066113},"review_count":220,"rating":3.5,"zip_code":"10065"},{"id":"wq43ljNSuSMG81qKHE7YpQ","name":"Sant Ambroeus West Village","cuisine":"Italian","address":"259 W 4th St","coordinates":{"latitude":40.73542,"longitude":-74.0031463},"review_count":210,"rating":3.5,"zip_code":"10014"},{"id":"Njvg4CQH85zr_qCzTfC9Xg","name":"Roma Pizza","cuisine":"Italian","address":"1572 3rd Ave","coordinates":{"latitude":40.78048,"longitude":-73.95318},"review_count":277,"rating":3.5,"zip_code":"10128"},{"id":"Cm_knZN7W1MaFEp8MkBBSA","name":"Tramonti La Pizza","cuisine":"Italian","address":"130 Saint Marks Pl","coordinates":{"latitude":40.72667,"longitude":-73.9836},"review_count":63,"rating":4.5,"zip_code":"10009"},{"id":"7Tu5l9UfWVi_v3m4TwJAxQ","name":"Caffe dei Fiori","cuisine":"Italian","address":"973 Lexington Ave","coordinates":{"latitude":40.76935,"longitude":-73.9627},"review_count":62,"rating":4.5,"zip_code":"10021"},{"id":"RVKZSIN16FNL0ZXD6OUMrA","name":"The Sosta","cuisine":"Italian","address":"186 Mott St","coordinates":{"latitude":40.72075,"longitude":-73.9957},"review_count":162,"rating":4,"zip_code":"10012"},{"id":"jHsPKz_EQrWHe6Yl3vEERQ","name":"Naples 45 Ristorante E Pizzeria","cuisine":"Italian","address":"The Metlife Building","coordinates":{"latitude":40.7538240126528,"longitude":-73.9761771158691},"review_count":319,"rating":3.5,"zip_code":"10166"},{"id":"sckXpoL2O6ZCGfoVsgi2ww","name":"Solo Pizza","cuisine":"Italian","address":"27 Avenue B","coordinates":{"latitude":40.7223854064941,"longitude":-73.98291015625},"review_count":154,"rating":4,"zip_code":"10009"},{"id":"OWAfPuMnSqn7Ru1_RNH8fw","name":"Aria Wine Bar","cuisine":"Italian","address":"369 51st St","coordinates":{"latitude":40.7641085,"longitude":-73.9881285},"review_count":275,"rating":3.5,"zip_code":"10019"},{"id":"lA6IvTF7J8fNC5puhyS3PA","name":"Bellini Italian Restaurant","cuisine":"Italian","address":"483 Columbus Ave","coordinates":{"latitude":40.78463,"longitude":-73.97331},"review_count":235,"rating":3.5,"zip_code":"10024"},{"id":"lxPVSGnZ7YTiO5OGrqBS8Q","name":"Vinnie's Pizzeria","cuisine":"Italian","address":"148 Bedford Ave","coordinates":{"latitude":40.718925,"longitude":-73.956878},"review_count":563,"rating":4,"zip_code":"11211"},{"id":"4SN0mwVSzVkFTpb_aH8cgg","name":"La Cava","cuisine":"Italian","address":"939 2nd Ave","coordinates":{"latitude":40.7548159435015,"longitude":-73.9688132098044},"review_count":197,"rating":3.5,"zip_code":"10022"},{"id":"wmT2ZK9Z9srX8UUR5D1q_A","name":"Lazzara's Pizza","cuisine":"Italian","address":"221 W 38th St","coordinates":{"latitude":40.754057,"longitude":-73.989497},"review_count":199,"rating":3.5,"zip_code":"10018"},{"id":"Dng_LID2JNnc6M6A1FB19Q","name":"Come Prima Ristorante","cuisine":"Italian","address":"903 Madison Ave","coordinates":{"latitude":40.7721165011105,"longitude":-73.965037390213},"review_count":60,"rating":4.5,"zip_code":"10021"},{"id":"rbIrit8gZwfyEOdEOeX7jg","name":"Orso","cuisine":"Italian","address":"322 W 46th St","coordinates":{"latitude":40.759994,"longitude":-73.989025},"review_count":150,"rating":4,"zip_code":"10036"},{"id":"O6RBNHBleB0mCb2dAanxCw","name":"Casa Lever","cuisine":"Italian","address":"390 Park Ave","coordinates":{"latitude":40.7594607514825,"longitude":-73.9730327307214},"review_count":183,"rating":3.5,"zip_code":"10022"},{"id":"0laCKZiHrdM_ZKdhTFbGgg","name":"Sauce & Barrel","cuisine":"Italian","address":"97 Washington St","coordinates":{"latitude":40.707999,"longitude":-74.0142651},"review_count":189,"rating":4,"zip_code":"10006"},{"id":"9mawr6QwVHm5q8JRXPFjPA","name":"San Marino Restaurante","cuisine":"Italian","address":"66 Charlton St","coordinates":{"latitude":40.72697,"longitude":-74.00611},"review_count":115,"rating":4,"zip_code":"10014"},{"id":"XoTaRa6uAkO2OBV0-rYv3w","name":"Numero 28 Upper West Side","cuisine":"Italian","address":"660 Amsterdam Ave","coordinates":{"latitude":40.79175,"longitude":-73.97228},"review_count":170,"rating":3.5,"zip_code":"10025"},{"id":"oOr6Ta5gZyDl6PyZ1cq7pg","name":"East Village Pizza","cuisine":"Italian","address":"145 1st Ave","coordinates":{"latitude":40.72823,"longitude":-73.9852499},"review_count":120,"rating":4,"zip_code":"10003"},{"id":"VlaFY8ASgOvrzZ3I8sG6Dg","name":"Bella Napoli","cuisine":"Italian","address":"257 7th Ave","coordinates":{"latitude":40.745071,"longitude":-73.994621},"review_count":159,"rating":3.5,"zip_code":"10001"},{"id":"ZlwjT-jygnYqM5qDE0CuLQ","name":"Gigino Trattoria","cuisine":"Italian","address":"323 Greenwich St","coordinates":{"latitude":40.71726,"longitude":-74.01055},"review_count":230,"rating":3.5,"zip_code":"10013"},{"id":"IUMTe7g19htqG7MXrsP5NQ","name":"Luna Piena","cuisine":"Italian","address":"243 E 53rd St","coordinates":{"latitude":40.75722,"longitude":-73.96767},"review_count":242,"rating":3.5,"zip_code":"10022"},{"id":"VWErTDzcg23iiohqyc1AQQ","name":"Rossopomodoro","cuisine":"Italian","address":"118 Greenwich Ave","coordinates":{"latitude":40.7384763561724,"longitude":-74.0020935999868},"review_count":167,"rating":4,"zip_code":"10011"},{"id":"6Nmo6ZNNyAft93k7eSTkTA","name":"Italian Village Pizzeria","cuisine":"Italian","address":"1494 1st Ave","coordinates":{"latitude":40.7727488409694,"longitude":-73.9520710818638},"review_count":178,"rating":3.5,"zip_code":"10075"},{"id":"nSk_zCJESMKGLHyJTPPlZA","name":"Bottino","cuisine":"Italian","address":"246 10th Ave","coordinates":{"latitude":40.74845,"longitude":-74.00321},"review_count":229,"rating":3.5,"zip_code":"10001"},{"id":"XzkmePjJC0ryuqZp5qd12A","name":"Fresco By Scotto","cuisine":"Italian","address":"34 E 52nd St","coordinates":{"latitude":40.758874588912,"longitude":-73.974435582671},"review_count":230,"rating":3.5,"zip_code":"10022"},{"id":"U60GbyJIMzwKZaP5IRgnBg","name":"Bar Veloce","cuisine":"Italian","address":"176 7th Ave","coordinates":{"latitude":40.742542,"longitude":-73.996979},"review_count":169,"rating":3.5,"zip_code":"10011"},{"id":"8SI7b70Bqcw8n_kvBXMUag","name":"Frankies 570 Spuntino","cuisine":"Italian","address":"570 Hudson St","coordinates":{"latitude":40.73569,"longitude":-74.00581},"review_count":296,"rating":3.5,"zip_code":"10014"},{"id":"3FCxi2imtP_wMgsgsqIQOw","name":"Bocca Di Bacco","cuisine":"Italian","address":"635 9th Ave","coordinates":{"latitude":40.7602649,"longitude":-73.991703},"review_count":199,"rating":3.5,"zip_code":"10036"},{"id":"tP7RR_9k9sDI2qGLlaaNNg","name":"al Vicoletto","cuisine":"Italian","address":"9 E 17th St","coordinates":{"latitude":40.73774,"longitude":-73.99127},"review_count":119,"rating":4,"zip_code":"10003"},{"id":"oUVX94JtKyLPXozC2hemCg","name":"Manetta's Ristorante","cuisine":"Italian","address":"1076 Jackson Ave","coordinates":{"latitude":40.742935,"longitude":-73.951929},"review_count":307,"rating":4,"zip_code":"11101"},{"id":"7jbInJHwOm4W_kesEe19mA","name":"My Pie","cuisine":"Italian","address":"166 West 72nd St","coordinates":{"latitude":40.77823,"longitude":-73.98117},"review_count":64,"rating":4.5,"zip_code":"10023"},{"id":"r2nIYBSyXny1-7XvsL2PVg","name":"Lena's Italian Kitchen","cuisine":"Italian","address":"551 2nd Ave","coordinates":{"latitude":40.742664,"longitude":-73.977783},"review_count":84,"rating":4.5,"zip_code":"10016"},{"id":"gls8Eii-vgwKScOCNQWz9w","name":"Cafetal Social Club","cuisine":"Italian","address":"285 Mott St","coordinates":{"latitude":40.724308,"longitude":-73.994457},"review_count":80,"rating":4.5,"zip_code":"10012"},{"id":"8TEx2Za-zM_pP5MU1t8HxQ","name":"Arte Cafe","cuisine":"Italian","address":"106 W 73rd St","coordinates":{"latitude":40.778494,"longitude":-73.978869},"review_count":501,"rating":3,"zip_code":"10023"},{"id":"SPYMe1nvAEFfgacIqSsHIg","name":"Gastroteca","cuisine":"Italian","address":"33-02 34th Ave","coordinates":{"latitude":40.7587532028653,"longitude":-73.925540484488},"review_count":692,"rating":4,"zip_code":"11106"},{"id":"UpnHg_984LLZ28-kBB5MSQ","name":"Bella Luna","cuisine":"Italian","address":"574 Columbus Ave","coordinates":{"latitude":40.78769,"longitude":-73.97152},"review_count":191,"rating":4,"zip_code":"10024"},{"id":"j9uuXTmbt4JCphSVg5DpgQ","name":"Cafe Rustico II","cuisine":"Italian","address":"25 W 35th St","coordinates":{"latitude":40.7498588562012,"longitude":-73.9852828979492},"review_count":92,"rating":4,"zip_code":"10001"},{"id":"penftLPo6kx6qCtbsuyLog","name":"Petaluma","cuisine":"Italian","address":"1356 1st Ave","coordinates":{"latitude":40.7682492,"longitude":-73.9553474},"review_count":191,"rating":3.5,"zip_code":"10021"},{"id":"wOYqxqz5yhx3CrP2RsCXpw","name":"Anthony David's","cuisine":"Italian","address":"953 Bloomfield St","coordinates":{"latitude":40.74859,"longitude":-74.02822},"review_count":530,"rating":4,"zip_code":"07030"},{"id":"AoezuAP-QOH6JZZOmyzJLg","name":"Marinara Pizza","cuisine":"Italian","address":"1376 Lexington Ave 91st St","coordinates":{"latitude":40.7826,"longitude":-73.95351},"review_count":134,"rating":4,"zip_code":"10128"},{"id":"VUcrIqM40HWWb2sxAS9mLA","name":"Cesca","cuisine":"Italian","address":"164 W 75th St","coordinates":{"latitude":40.7802345045165,"longitude":-73.9796698035772},"review_count":245,"rating":3.5,"zip_code":"10023"},{"id":"o7ebhiCJTSsp43ynRDB1qA","name":"Cipriani Downtown","cuisine":"Italian","address":"376 W Broadway","coordinates":{"latitude":40.723665,"longitude":-74.00288},"review_count":228,"rating":3.5,"zip_code":"10012"},{"id":"zRhDhbutGwC9KY_U_5VYdw","name":"Mani In Pasta","cuisine":"Italian","address":"14 E 37th St","coordinates":{"latitude":40.74985,"longitude":-73.98229},"review_count":55,"rating":4.5,"zip_code":"10016"},{"id":"7lztzQTF79er1RydVnPiDg","name":"Noi Due","cuisine":"Italian","address":"143 W 69th St","coordinates":{"latitude":40.77621,"longitude":-73.98169},"review_count":159,"rating":3.5,"zip_code":"10023"},{"id":"xKZSIBaGkXX7ppIceuhiQQ","name":"Buca di Beppo Italian Restaurant","cuisine":"Italian","address":"1540 Broadway","coordinates":{"latitude":40.7580514,"longitude":-73.9848436},"review_count":246,"rating":3.5,"zip_code":"10036"},{"id":"0sR9gXJYvnSuEUaqiEmvRg","name":"Nino's Restaurant","cuisine":"Italian","address":"1354 1st Ave","coordinates":{"latitude":40.768115,"longitude":-73.955328},"review_count":200,"rating":3.5,"zip_code":"10021"},{"id":"tLYvKy-KTS1iuDx9QWwoRw","name":"Bistro Milano","cuisine":"Italian","address":"1350 Ave Of The Americas","coordinates":{"latitude":40.7626340639698,"longitude":-73.9775298618572},"review_count":163,"rating":3.5,"zip_code":"10019"},{"id":"MDKKkw4fwL9ca3j-p0grvA","name":"Gallo Nero","cuisine":"Italian","address":"402 W 44th St","coordinates":{"latitude":40.75977,"longitude":-73.99204},"review_count":249,"rating":3.5,"zip_code":"10036"},{"id":"3n96VKiKG5Tte8z-U-TaLg","name":"SoleLuna Restaurant","cuisine":"Italian","address":"40-01 Queens Blvd","coordinates":{"latitude":40.7441699,"longitude":-73.92388},"review_count":284,"rating":4.5,"zip_code":"11104"},{"id":"LJwkhP2vjRKKjyuRY1ql4Q","name":"Lugo Cucina","cuisine":"Italian","address":"1 Penn Plz","coordinates":{"latitude":40.7514981327384,"longitude":-73.9927658074097},"review_count":249,"rating":3.5,"zip_code":"10119"},{"id":"o2SAcKbfOMkA71xUfyee6Q","name":"Rossini's","cuisine":"Italian","address":"108 E 38th St","coordinates":{"latitude":40.74921,"longitude":-73.97883},"review_count":139,"rating":4,"zip_code":"10016"},{"id":"klVfGJTnunYSSGuTv0XA-Q","name":"The Original Little Italy","cuisine":"Italian","address":"1 E 43rd St","coordinates":{"latitude":40.7540127,"longitude":-73.9797772},"review_count":148,"rating":3.5,"zip_code":"10175"},{"id":"piH-TNcmjLq2NHE4ZtbrBA","name":"Zucchero E Pomodori","cuisine":"Italian","address":"1435 2nd Ave","coordinates":{"latitude":40.770632,"longitude":-73.957562},"review_count":156,"rating":3.5,"zip_code":"10021"},{"id":"BP0Uujyof1WKGkLuPbTLKQ","name":"Grotta Azzurra Restaurant","cuisine":"Italian","address":"177 Mulberry St","coordinates":{"latitude":40.7203112982991,"longitude":-73.997018941032},"review_count":430,"rating":3,"zip_code":"10013"},{"id":"wxrlMnjni_UanASIp4dq2g","name":"Max Caffe","cuisine":"Italian","address":"1262 Amsterdam Ave","coordinates":{"latitude":40.8109033,"longitude":-73.9582608},"review_count":194,"rating":3.5,"zip_code":"10027"},{"id":"ZfyfGGtr7usMlsQP1LdU2g","name":"Ornella Trattoria Italiana","cuisine":"Italian","address":"29-17 23rd Ave","coordinates":{"latitude":40.7748162,"longitude":-73.9132582},"review_count":737,"rating":4,"zip_code":"11105"},{"id":"IxwuIDcpRa7EpQs7V481Ww","name":"Il Gattopardo","cuisine":"Italian","address":"13-15 W 54th St","coordinates":{"latitude":40.7614994602915,"longitude":-73.976308999227},"review_count":117,"rating":4,"zip_code":"10019"},{"id":"Ty1MvJz88DeNmX0eDHeMyQ","name":"Pietros Ristorante","cuisine":"Italian","address":"232 E 43rd St","coordinates":{"latitude":40.7506055,"longitude":-73.9721964},"review_count":91,"rating":4,"zip_code":"10017"},{"id":"ZUrGqOG2cetGI-KKXk3c2g","name":"Chazz Palminteri Italian Restaurant","cuisine":"Italian","address":"30 West 46th St","coordinates":{"latitude":40.756473,"longitude":-73.98063},"review_count":131,"rating":4,"zip_code":"10019"},{"id":"XPuCR_UaPliuNQMzU2pNlQ","name":"Olive Garden Italian Restaurant","cuisine":"Italian","address":"2 Times Sq","coordinates":{"latitude":40.75973,"longitude":-73.98463},"review_count":533,"rating":3,"zip_code":"10036"},{"id":"a4WZUTKn90dOkeY38JHNjQ","name":"Aurora","cuisine":"Italian","address":"70 Grand St","coordinates":{"latitude":40.716054,"longitude":-73.964771},"review_count":489,"rating":4,"zip_code":"11249"},{"id":"FpgzHQMSNTTjagrKXxOw5A","name":"San Matteo Pizzeria e Cucina","cuisine":"Italian","address":"1559 2nd Ave","coordinates":{"latitude":40.7746799,"longitude":-73.95443},"review_count":168,"rating":3.5,"zip_code":"10028"},{"id":"cUNFGQB2I3GI_vqy2OBW3Q","name":"Lattanzi","cuisine":"Italian","address":"361 W 46th St","coordinates":{"latitude":40.7607901227454,"longitude":-73.9901704731246},"review_count":198,"rating":3.5,"zip_code":"10036"},{"id":"hFeGYPt9M5dd_KXG9a_ePQ","name":"Patsy's Pizzeria","cuisine":"Italian","address":"206 E 60th St","coordinates":{"latitude":40.76177,"longitude":-73.96575},"review_count":312,"rating":3,"zip_code":"10022"},{"id":"D0LsGudLqLabXbhEPMkw6A","name":"Aumm Aumm Pizzeria & Wine Bar","cuisine":"Italian","address":"7701 Broadway","coordinates":{"latitude":40.79789,"longitude":-74.00231},"review_count":240,"rating":4.5,"zip_code":"07047"},{"id":"LRgB2kEKtBxqIxNksTO_PQ","name":"Patrizia's","cuisine":"Italian","address":"35 Broadway","coordinates":{"latitude":40.710939,"longitude":-73.967504},"review_count":484,"rating":4,"zip_code":"11249"},{"id":"YFvF4r2D-wJOgJAOvanaZQ","name":"Gnoccheria by Luzzo's","cuisine":"Italian","address":"234 E 4th St","coordinates":{"latitude":40.723315,"longitude":-73.983139},"review_count":148,"rating":4,"zip_code":"10009"},{"id":"889z8wsV9R1X2CAp63wrsw","name":"Casa Apicii","cuisine":"Italian","address":"62 W 9th St","coordinates":{"latitude":40.73381,"longitude":-73.99875},"review_count":116,"rating":4,"zip_code":"10011"},{"id":"Kh0-HmlgmVUkRxR55_Vn1g","name":"Patsy's Pizzeria","cuisine":"Italian","address":"2287 1st Ave","coordinates":{"latitude":40.79713,"longitude":-73.93481},"review_count":667,"rating":4,"zip_code":"10035"},{"id":"AWeQkgJ0uzNr5YxFr2Bx8g","name":"Pasquale Jones","cuisine":"Italian","address":"187 Mulberry St","coordinates":{"latitude":40.7210341671446,"longitude":-73.9967492344452},"review_count":152,"rating":3.5,"zip_code":"10012"},{"id":"UtyDjJSV2TYifsPhlHn_7Q","name":"Sal's Little Italy","cuisine":"Italian","address":"384 Broome St","coordinates":{"latitude":40.7205027153381,"longitude":-73.9966911411265},"review_count":234,"rating":3.5,"zip_code":"10013"},{"id":"4K0doiBddco60kl0W04a3Q","name":"Il Forno Hell's Kitchen","cuisine":"Italian","address":"713A 8th Ave","coordinates":{"latitude":40.7591217147251,"longitude":-73.988647715231},"review_count":155,"rating":3.5,"zip_code":"10036"},{"id":"L5MrjGhBqQkwlguY0ilxqA","name":"The Saint Austere","cuisine":"Italian","address":"613 Grand St","coordinates":{"latitude":40.7114604,"longitude":-73.9476182},"review_count":323,"rating":4.5,"zip_code":"11211"},{"id":"fTNOwKJ9YbxoIShABCKXdA","name":"DeGrezia Ristorante","cuisine":"Italian","address":"231 E 50th St","coordinates":{"latitude":40.755512,"longitude":-73.969415},"review_count":81,"rating":4,"zip_code":"10022"},{"id":"0wzQPZvvbUqhD7D8JNkGZw","name":"Ristorante Grifone","cuisine":"Italian","address":"244 E 46th St","coordinates":{"latitude":40.7524032592773,"longitude":-73.9710006713867},"review_count":100,"rating":4,"zip_code":"10017"},{"id":"HXj62aTHQfoMf7PEd5jWJg","name":"The Dish","cuisine":"Italian","address":"201 8th Ave","coordinates":{"latitude":40.74373,"longitude":-74},"review_count":197,"rating":3.5,"zip_code":"10011"},{"id":"AevRIon-_YHQ2FCO-L120w","name":"Numero 28 Pizzeria Napoletana","cuisine":"Italian","address":"1431 1st Ave","coordinates":{"latitude":40.7694,"longitude":-73.95519},"review_count":197,"rating":3.5,"zip_code":"10021"},{"id":"lgFApPVpbXnsIFw1CRJORw","name":"Cellini Restaurant","cuisine":"Italian","address":"65 E 54th St","coordinates":{"latitude":40.7600530715894,"longitude":-73.9727372548065},"review_count":125,"rating":4,"zip_code":"10022"},{"id":"9HuYLy_4hmQWkbKlKyWagQ","name":"Machiavelli","cuisine":"Italian","address":"519 Columbus Ave","coordinates":{"latitude":40.785875,"longitude":-73.972398},"review_count":224,"rating":3.5,"zip_code":"10024"},{"id":"yoowH3_Q775Kg-dRhF_q7Q","name":"Nobody Is Perfect","cuisine":"Italian","address":"235 E 4th St","coordinates":{"latitude":40.72346,"longitude":-73.9827},"review_count":154,"rating":3.5,"zip_code":"10009"},{"id":"BpdlX1j1-FbOC1dWIrZv4w","name":"Bella Blu","cuisine":"Italian","address":"967 Lexington Ave","coordinates":{"latitude":40.769207,"longitude":-73.962791},"review_count":192,"rating":3.5,"zip_code":"10021"},{"id":"7QUfJwuPgiTYa96TUqmzvQ","name":"Bella Napoli","cuisine":"Italian","address":"130 Madison Ave","coordinates":{"latitude":40.74579,"longitude":-73.98474},"review_count":195,"rating":3.5,"zip_code":"10016"},{"id":"GOEBF8Odq1SPdz4PWJx6PQ","name":"Serafina Always","cuisine":"Italian","address":"33 E 61st St","coordinates":{"latitude":40.764789,"longitude":-73.969779},"review_count":259,"rating":3,"zip_code":"10065"},{"id":"jryzOo2UaHOeZqQkkezENA","name":"Porsena","cuisine":"Italian","address":"21 E 7th St","coordinates":{"latitude":40.72866,"longitude":-73.9894599},"review_count":226,"rating":3.5,"zip_code":"10003"},{"id":"msLQTFzfsHUUr8UdLnQDTA","name":"Champignon","cuisine":"Italian","address":"202 7th Ave","coordinates":{"latitude":40.7432661,"longitude":-73.9964326},"review_count":212,"rating":3.5,"zip_code":"10011"},{"id":"kyb7m3xsdP44Kz3RcsWIAA","name":"Cafe Viva","cuisine":"Italian","address":"2578 Broadway","coordinates":{"latitude":40.7954099,"longitude":-73.9709},"review_count":183,"rating":3.5,"zip_code":"10025"},{"id":"dbCTJp9ENDVIquxBWONzWQ","name":"Pomodoro","cuisine":"Italian","address":"518 9th Ave","coordinates":{"latitude":40.75624,"longitude":-73.9939},"review_count":101,"rating":4,"zip_code":"10018"},{"id":"q8wlm_XUjmSsTdTQKt2qbQ","name":"Erminia Italian Restaurant","cuisine":"Italian","address":"250 E 83rd St","coordinates":{"latitude":40.77594,"longitude":-73.95346},"review_count":156,"rating":4,"zip_code":"10028"},{"id":"ouYWF_PfHO2j1e0IOw1PrQ","name":"Hold My Knots","cuisine":"Italian","address":"353 W 14th St","coordinates":{"latitude":40.7408261,"longitude":-74.0047136},"review_count":93,"rating":4,"zip_code":"10014"},{"id":"FogLdooqSzKbmkwMGSwDiQ","name":"Razza Pizza Artigianale","cuisine":"Italian","address":"275 Grove St","coordinates":{"latitude":40.7177490485075,"longitude":-74.0441924355125},"review_count":608,"rating":4,"zip_code":"07302"},{"id":"CygcAgexrpJGY8iWp7QqnA","name":"Antonucci Cafe","cuisine":"Italian","address":"170 E 81st St","coordinates":{"latitude":40.77574,"longitude":-73.95689},"review_count":105,"rating":4,"zip_code":"10028"},{"id":"NImSAO-1r0RYirViah2aIg","name":"Amici II","cuisine":"Italian","address":"165 Mulberry St","coordinates":{"latitude":40.7197281,"longitude":-73.9972318},"review_count":208,"rating":3.5,"zip_code":"10013"},{"id":"XlhWNQRGoWyybfXpGBgE3Q","name":"Il Mulino New York - Uptown","cuisine":"Italian","address":"37 E 60th St","coordinates":{"latitude":40.764144,"longitude":-73.970195},"review_count":156,"rating":3.5,"zip_code":"10021"},{"id":"7lrqNMCmnC46t0sL4M5WPg","name":"Delizia 92","cuisine":"Italian","address":"1762 2nd Ave","coordinates":{"latitude":40.78148,"longitude":-73.94875},"review_count":184,"rating":3.5,"zip_code":"10128"},{"id":"gx7VP1RlABZsof0G8S4Ltg","name":"Il Bagatto Pick Up","cuisine":"Italian","address":"190 E 2nd St","coordinates":{"latitude":40.7224092,"longitude":-73.9840517},"review_count":157,"rating":3.5,"zip_code":"10009"},{"id":"CwyNwMjHxc316jKmxVZy_w","name":"Mangia","cuisine":"Italian","address":"50 W 57th St","coordinates":{"latitude":40.7640223,"longitude":-73.9764782},"review_count":190,"rating":3.5,"zip_code":"10019"},{"id":"gqFM-JsHftTRplYbPF64Kg","name":"Ecco","cuisine":"Italian","address":"124 Chambers St","coordinates":{"latitude":40.715129,"longitude":-74.008865},"review_count":113,"rating":4,"zip_code":"10007"},{"id":"bf2gElKkOHClspvNWfdHQA","name":"Cuomo And Sons","cuisine":"Italian","address":"7709 Broadway","coordinates":{"latitude":40.79803,"longitude":-74.00219},"review_count":148,"rating":5,"zip_code":"07047"},{"id":"1o5dCnbY1Y9de7ZbdsxUsQ","name":"Barbetta","cuisine":"Italian","address":"321 W 46th St","coordinates":{"latitude":40.76031,"longitude":-73.98889},"review_count":191,"rating":3.5,"zip_code":"10036"},{"id":"UZyJLP50F9PiytmdQ8LXTw","name":"Marcony","cuisine":"Italian","address":"184 Lexington Ave","coordinates":{"latitude":40.74487,"longitude":-73.98118},"review_count":123,"rating":3.5,"zip_code":"10016"},{"id":"megxpLA5KciBJbW-jNm2RQ","name":"Arno Ristorante","cuisine":"Italian","address":"141 W 38th St","coordinates":{"latitude":40.7534599,"longitude":-73.98842},"review_count":167,"rating":3.5,"zip_code":"10018"},{"id":"LSOpxBBa217HxnJ7VnY2WQ","name":"Il Violino","cuisine":"Italian","address":"180 Columbus Ave","coordinates":{"latitude":40.77506,"longitude":-73.98087},"review_count":205,"rating":3.5,"zip_code":"10023"},{"id":"dWc0ijADaD6ZdclJ5LqQdg","name":"Paola's Restaurant","cuisine":"Italian","address":"1295 Madison Ave","coordinates":{"latitude":40.7846546580287,"longitude":-73.9558692276478},"review_count":137,"rating":3.5,"zip_code":"10128"},{"id":"DLRbxg74oWNPQJdbSkTDxQ","name":"Suprema Provisions","cuisine":"Italian","address":"305 Bleecker St","coordinates":{"latitude":40.7326925,"longitude":-74.0036155},"review_count":131,"rating":4,"zip_code":"10014"},{"id":"0frCoaUJ_XWiz1BXiHBcwg","name":"Ceci Italian Cuisine","cuisine":"Italian","address":"46 W 46th St","coordinates":{"latitude":40.7568271422022,"longitude":-73.9809948205948},"review_count":222,"rating":3.5,"zip_code":"10036"},{"id":"vBg0q84nTn0IJH7fJbE4ow","name":"Giulietta's Cantina Club","cuisine":"Italian","address":"13 Carmine St","coordinates":{"latitude":40.73059,"longitude":-74.00239},"review_count":54,"rating":4.5,"zip_code":"10014"},{"id":"SbevrHJ2M5Oc8_SHi79YQg","name":"Caffe Napoli","cuisine":"Italian","address":"191 Hester St","coordinates":{"latitude":40.71819,"longitude":-73.99777},"review_count":432,"rating":3,"zip_code":"10013"},{"id":"1EZRvi0aGxpPfXq2EkUtBw","name":"Isola on Columbus","cuisine":"Italian","address":"994 Columbus Ave","coordinates":{"latitude":40.8012492,"longitude":-73.9616237},"review_count":124,"rating":4,"zip_code":"10025"},{"id":"D-smGg8zFQzk40EdessZ5w","name":"Portalia","cuisine":"Italian","address":"35-03 Broadway","coordinates":{"latitude":40.76058,"longitude":-73.92182},"review_count":368,"rating":4,"zip_code":"11106"},{"id":"OwDRIugcA4LkUuTRqpJsog","name":"Naked Dog","cuisine":"Italian","address":"47 Java St","coordinates":{"latitude":40.7312720665479,"longitude":-73.9593493647979},"review_count":135,"rating":4.5,"zip_code":"11222"},{"id":"mmJ72_R1HvpSz6a3l7jYnA","name":"Tiramisu","cuisine":"Italian","address":"1410 3rd Ave","coordinates":{"latitude":40.7751535105423,"longitude":-73.956925223544},"review_count":159,"rating":3.5,"zip_code":"10028"},{"id":"K9kL1ice5jlkPXcNyTus3Q","name":"Pasta Lovers","cuisine":"Italian","address":"142 W 49th St","coordinates":{"latitude":40.76003,"longitude":-73.98291},"review_count":224,"rating":3.5,"zip_code":"10019"},{"id":"79bTSZd0QArz9xmninDdtQ","name":"Trenta Tre Pizzeria","cuisine":"Italian","address":"29 East 33rd St","coordinates":{"latitude":40.74706,"longitude":-73.98311},"review_count":56,"rating":4.5,"zip_code":"10016"},{"id":"Tias1_QRB5L-gzoSNNhOMA","name":"Petrarca Cucina E Vino","cuisine":"Italian","address":"34 White St","coordinates":{"latitude":40.7189,"longitude":-74.00458},"review_count":130,"rating":3.5,"zip_code":"10013"},{"id":"uPWyvfh5qSrVbujhjsDiiw","name":"Oregano","cuisine":"Italian","address":"102 Berry St","coordinates":{"latitude":40.7190165,"longitude":-73.9586248},"review_count":316,"rating":4,"zip_code":"11249"},{"id":"CGah1h1clhuptjHaecu6xw","name":"Martina Pizzeria","cuisine":"Italian","address":"198 E 11th St","coordinates":{"latitude":40.7311478243198,"longitude":-73.9883194379593},"review_count":90,"rating":4,"zip_code":"10003"},{"id":"JjpCF17AxF6RPOyimw21cw","name":"Basil Brick Oven Pizza","cuisine":"Italian","address":"28-17 Astoria Blvd","coordinates":{"latitude":40.770946,"longitude":-73.92001},"review_count":416,"rating":4,"zip_code":"11102"},{"id":"cpN0ixPR2l3QFA8Uf1BhCQ","name":"Luna Rossa","cuisine":"Italian","address":"347 E 85th St","coordinates":{"latitude":40.77653,"longitude":-73.9504},"review_count":88,"rating":4,"zip_code":"10028"},{"id":"e9M8VuRrlOaLgVxf-ljt1Q","name":"Meatball Obsession","cuisine":"Italian","address":"510 Ave Of The Americas","coordinates":{"latitude":40.73735,"longitude":-73.99684},"review_count":203,"rating":3.5,"zip_code":"10011"},{"id":"J0SZjwe0Rc-H6mzl0oByxQ","name":"Mimi's Italian Restaurant & Piano Bar","cuisine":"Italian","address":"984 2nd Ave","coordinates":{"latitude":40.75611,"longitude":-73.96728},"review_count":218,"rating":3.5,"zip_code":"10022"}]}
