{"businesses":[{"id":"jnEv25Y2DosTq2sNnvmC9g","name":"Los Tacos No.1","cuisine":"Mexican","address":"75 9th Ave","coordinates":{"latitude":40.7425547,"longitude":-74.0060838},"review_count":2144,"rating":4.5,"zip_code":"10011"},{"id":"NOh24SMS6k4pzNv8Ds7KDg","name":"Cafe Habana","cuisine":"Mexican","address":"17 Prince St","coordinates":{"latitude":40.722998,"longitude":-73.994171},"review_count":2997,"rating":4,"zip_code":"10012"},{"id":"MfbVI5reXLIIs8Cc2HwgQw","name":"Breakroom","cuisine":"Mexican","address":"83 Baxter St","coordinates":{"latitude":40.7166907225542,"longitude":-73.9999440120647},"review_count":1334,"rating":4.5,"zip_code":"10013"},{"id":"SULHf6nGQ8sK0UpG1XU30w","name":"Los Tacos No.1","cuisine":"Mexican","address":"229 W 43rd St","coordinates":{"latitude":40.7575067,"longitude":-73.9877717},"review_count":533,"rating":4.5,"zip_code":"10036"},{"id":"Wx6lMnEh7dCmX-9PQF1Ifw","name":"Toloache 50","cuisine":"Mexican","address":"251 W 50th St","coordinates":{"latitude":40.76219,"longitude":-73.98562},"review_count":1573,"rating":4,"zip_code":"10012"},{"id":"6Ct7OeTRn4caY9g0swFBsw","name":"La Contenta","cuisine":"Mexican","address":"102 Norfolk St","coordinates":{"latitude":40.71873,"longitude":-73.98691},"review_count":580,"rating":4.5,"zip_code":"10002"},{"id":"L3REPLCvQpMapYPd_fkS-A","name":"Los Mariscos","cuisine":"Mexican","address":"409 W 15th St","coordinates":{"latitude":40.74207,"longitude":-74.00565},"review_count":350,"rating":4.5,"zip_code":"10011"},{"id":"boRM4i0UQswxQIp6CA9y_A","name":"La Esquina","cuisine":"Mexican","address":"114 Kenmare St","coordinates":{"latitude":40.721502075214,"longitude":-73.9976406097412},"review_count":1789,"rating":3.5,"zip_code":"10012"},{"id":"3omBIylGFJugwLgNgUgOXw","name":"Bar Bacon","cuisine":"Mexican","address":"836 9th Ave","coordinates":{"latitude":40.7664356,"longitude":-73.986764},"review_count":963,"rating":4,"zip_code":"10019"},{"id":"8WnHtvMdPWE66eSkUdbLhQ","name":"Flip Sigi","cuisine":"Mexican","address":"525 Hudson St","coordinates":{"latitude":40.73405,"longitude":-74.00642},"review_count":503,"rating":4.5,"zip_code":"10014"},{"id":"U9BX6bMvXHk8umBYnS3Dog","name":"Dos Toros Taqueria","cuisine":"Mexican","address":"137 4th Ave","coordinates":{"latitude":40.7336815475083,"longitude":-73.9897049423153},"review_count":1256,"rating":4,"zip_code":"10003"},{"id":"RzKR9QcYP03EQ_8DxTxowg","name":"Barrio Chino","cuisine":"Mexican","address":"253 Broome St","coordinates":{"latitude":40.718022,"longitude":-73.990026},"review_count":1021,"rating":4,"zip_code":"10002"},{"id":"XipQLDbyTl5tsLlyzAWzug","name":"Jajaja","cuisine":"Mexican","address":"162 E Broadway","coordinates":{"latitude":40.7141530317142,"longitude":-73.9904247969389},"review_count":331,"rating":4.5,"zip_code":"10002"},{"id":"tIjQyHOubGeKRnx4wSwOeA","name":"goa taco","cuisine":"Mexican","address":"79 Delancey St","coordinates":{"latitude":40.71887,"longitude":-73.99003},"review_count":450,"rating":4.5,"zip_code":"10002"},{"id":"v4_89HfTm05NFTuukjsl_g","name":"The Burrito Box","cuisine":"Mexican","address":"885 9th Ave","coordinates":{"latitude":40.76831,"longitude":-73.98565},"review_count":760,"rating":4,"zip_code":"10019"},{"id":"BxnrBKdLwdaEXyq97uxgKg","name":"Cascalote Latin Bistro","cuisine":"Mexican","address":"2126 2nd Ave","coordinates":{"latitude":40.79267,"longitude":-73.94059},"review_count":279,"rating":4.5,"zip_code":"10029"},{"id":"VVe74-TKuROBvyS1XgVmvw","name":"Miscelanea NY","cuisine":"Mexican","address":"63 E 4th St","coordinates":{"latitude":40.72686,"longitude":-73.99075},"review_count":231,"rating":4.5,"zip_code":"10003"},{"id":"dYWjNK07igws9jFNgQmhng","name":"Rosa Mexicano","cuisine":"Mexican","address":"9 E 18th St","coordinates":{"latitude":40.7382,"longitude":-73.99083},"review_count":1294,"rating":3.5,"zip_code":"10003"},{"id":"9_CEU7Wmvmwlyvqr-PJD6w","name":"Ofrenda","cuisine":"Mexican","address":"113 7th Ave S","coordinates":{"latitude":40.73391,"longitude":-74.00242},"review_count":840,"rating":4,"zip_code":"10014"},{"id":"Ko95LRE9AAvb2Lk9Iwh2-Q","name":"Otto's Tacos","cuisine":"Mexican","address":"141 2nd Ave","coordinates":{"latitude":40.72914,"longitude":-73.9874899},"review_count":641,"rating":4,"zip_code":"10003"},{"id":"SP4bvMvxel_UPdof_er3HA","name":"Taco Mahal","cuisine":"Mexican","address":"73 7th Ave S","coordinates":{"latitude":40.7323553689158,"longitude":-74.0035128796915},"review_count":342,"rating":4.5,"zip_code":"10014"},{"id":"0AWdTQZ97G4rutU0z9Di6g","name":"Fonda East Village","cuisine":"Mexican","address":"40 Avenue B","coordinates":{"latitude":40.722852,"longitude":-73.98286},"review_count":622,"rating":4,"zip_code":"10009"},{"id":"Xjswj531-FkRZPpcccU6kQ","name":"Vida Verde","cuisine":"Mexican","address":"248 W 55th St","coordinates":{"latitude":40.7650089,"longitude":-73.983215},"review_count":337,"rating":4.5,"zip_code":"10019"},{"id":"ifGXrRqs-zp6ek7LsoozrQ","name":"Taqueria Diana","cuisine":"Mexican","address":"129 2nd Ave","coordinates":{"latitude":40.7284337609976,"longitude":-73.9879844318771},"review_count":632,"rating":4,"zip_code":"10003"},{"id":"_8Oq6MmhqLgzQDVYXWLxuA","name":"Réunion","cuisine":"Mexican","address":"357 W 44th St","coordinates":{"latitude":40.75964943513,"longitude":-73.991308284398},"review_count":609,"rating":4,"zip_code":"10036"},{"id":"k3iUNUGsl-xpQ_EsOfTadA","name":"Cafe Ollin","cuisine":"Mexican","address":"339 E 108th St","coordinates":{"latitude":40.7912288,"longitude":-73.9395386},"review_count":355,"rating":4.5,"zip_code":"10029"},{"id":"DFRpXRHjOHBxYHiuvwaEQQ","name":"Rosa Mexicano","cuisine":"Mexican","address":"61 Columbus Ave","coordinates":{"latitude":40.77118,"longitude":-73.98311},"review_count":1009,"rating":3.5,"zip_code":"10023"},{"id":"QwL5LS436Xjo9MHFi2rc-g","name":"Agave","cuisine":"Mexican","address":"140 7th Ave S","coordinates":{"latitude":40.734765,"longitude":-74.002413},"review_count":1094,"rating":3.5,"zip_code":"10014"},{"id":"d7YbQzGlmawMGAzUHzZvuw","name":"Tacombi - Nolita","cuisine":"Mexican","address":"267 Elizabeth St","coordinates":{"latitude":40.7240304,"longitude":-73.9939028},"review_count":962,"rating":3.5,"zip_code":"10012"},{"id":"sTu5z5HUcIYykg97HHj8xA","name":"El Centro","cuisine":"Mexican","address":"824 9th Ave","coordinates":{"latitude":40.76602,"longitude":-73.98688},"review_count":730,"rating":4,"zip_code":"10019"},{"id":"e7krRmyE5upHv2gsEOdR8w","name":"Mayahuel Mariposa","cuisine":"Mexican","address":"304 E 6th St","coordinates":{"latitude":40.72711,"longitude":-73.98817},"review_count":562,"rating":4,"zip_code":"10003"},{"id":"BbMUXd69i0tlWS2aoppwaQ","name":"El Camion","cuisine":"Mexican","address":"194 Ave A","coordinates":{"latitude":40.7291,"longitude":-73.98105},"review_count":576,"rating":4,"zip_code":"10009"},{"id":"SCQvI5pAJmD-OMm37kkS6Q","name":"DORADO Tacos & Quesadillas","cuisine":"Mexican","address":"28 E 12th St","coordinates":{"latitude":40.73396,"longitude":-73.99312},"review_count":548,"rating":4,"zip_code":"10003"},{"id":"PAJdNrD4HFBN16OAFeDx4A","name":"Ponche Taqueria & Cantina","cuisine":"Mexican","address":"420 W 49th St","coordinates":{"latitude":40.763157,"longitude":-73.99047},"review_count":442,"rating":4,"zip_code":"10019"},{"id":"54hPnm8Z4rJST1CZWaOznw","name":"Pampano","cuisine":"Mexican","address":"209 E 49th St","coordinates":{"latitude":40.75503,"longitude":-73.97054},"review_count":519,"rating":4,"zip_code":"10017"},{"id":"hGWYNCUmDLk_H_Mu3oV9HA","name":"Dos Caminos","cuisine":"Mexican","address":"825 3rd Ave","coordinates":{"latitude":40.755878,"longitude":-73.970383},"review_count":1369,"rating":3,"zip_code":"10022"},{"id":"xemN4tP9RlK5c-yUT-M71Q","name":"Mamasita Bar & Grill","cuisine":"Mexican","address":"818 10th Ave","coordinates":{"latitude":40.76733,"longitude":-73.98945},"review_count":640,"rating":4,"zip_code":"10019"},{"id":"DQuwci5xgJxXx7dxxp9FBA","name":"Taqueria St. Marks Place","cuisine":"Mexican","address":"79 St Marks Pl","coordinates":{"latitude":40.7278587780221,"longitude":-73.9856138085992},"review_count":336,"rating":4,"zip_code":"10003"},{"id":"36Hruo3o2JE6Q2Wdnhy0wA","name":"Rocking Horse Cafe","cuisine":"Mexican","address":"182 8th Ave","coordinates":{"latitude":40.742839,"longitude":-74.000275},"review_count":563,"rating":4,"zip_code":"10011"},{"id":"1m6viubAWUgsTgguIrJT6A","name":"Cosme","cuisine":"Mexican","address":"35 E 21st St","coordinates":{"latitude":40.739691,"longitude":-73.988428},"review_count":668,"rating":3.5,"zip_code":"10010"},{"id":"dgaNriM1VdI2nGochhHE_g","name":"Casa Enrique","cuisine":"Mexican","address":"5-48 49th Ave","coordinates":{"latitude":40.743404338358,"longitude":-73.954350367693},"review_count":886,"rating":4,"zip_code":"11101"},{"id":"9aJ1MVTthZw3QjqoG7mPjg","name":"Rosie's","cuisine":"Mexican","address":"29 E 2nd St","coordinates":{"latitude":40.72492,"longitude":-73.99079},"review_count":489,"rating":4,"zip_code":"10003"},{"id":"TgoYhgbPCYhLBNtpue3QHg","name":"Maya","cuisine":"Mexican","address":"1191 1st Ave","coordinates":{"latitude":40.7632055528185,"longitude":-73.9596225112209},"review_count":747,"rating":3.5,"zip_code":"10065"},{"id":"M1YYZ9cTVuMXLji_XF6rzg","name":"Dos Caminos","cuisine":"Mexican","address":"373 Park Ave S","coordinates":{"latitude":40.7422046804626,"longitude":-73.9846302102813},"review_count":1025,"rating":3.5,"zip_code":"10016"},{"id":"ue-iu3tMiHAv7JR0YuhOww","name":"Hell's Kitchen","cuisine":"Mexican","address":"754 9th Ave","coordinates":{"latitude":40.7638823425707,"longitude":-73.9884334000586},"review_count":302,"rating":4,"zip_code":"10019"},{"id":"u9xVzV1OZC5pwtUgaHLM-A","name":"El Kallejon","cuisine":"Mexican","address":"209 E 117th St","coordinates":{"latitude":40.798538,"longitude":-73.938805},"review_count":210,"rating":4.5,"zip_code":"10035"},{"id":"5Ota_iMwlPLPrap-KfQrgw","name":"Benny's Burritos","cuisine":"Mexican","address":"113 Greenwich Ave","coordinates":{"latitude":40.7380740387279,"longitude":-74.002123778491},"review_count":658,"rating":3.5,"zip_code":"10014"},{"id":"oSFL1AVZYouS4YrDjoLyLA","name":"Baby Bo's Cantina","cuisine":"Mexican","address":"627 2nd Ave","coordinates":{"latitude":40.74514,"longitude":-73.97598},"review_count":534,"rating":4,"zip_code":"10016"},{"id":"zRLNm8U-KGMeotCaE5Xaww","name":"Tehuitzingo","cuisine":"Mexican","address":"695 10th Ave","coordinates":{"latitude":40.76322,"longitude":-73.99326},"review_count":365,"rating":4,"zip_code":"10036"},{"id":"1nR3kKOs938gcgnw6p5wjg","name":"Sinigual","cuisine":"Mexican","address":"640 3rd Ave","coordinates":{"latitude":40.7503161990978,"longitude":-73.9750733399726},"review_count":656,"rating":3.5,"zip_code":"10017"},{"id":"QJ1o9d1PVEE676rbzRUNjA","name":"Tac N Roll","cuisine":"Mexican","address":"124 E 4th St","coordinates":{"latitude":40.7252676,"longitude":-73.9877743},"review_count":156,"rating":4.5,"zip_code":"10003"},{"id":"x9wa2M7gvf32swUSBP3uXA","name":"Blockheads","cuisine":"Mexican","address":"Worldwide Plz","coordinates":{"latitude":40.7627155294445,"longitude":-73.9876316100625},"review_count":687,"rating":3.5,"zip_code":"10019"},{"id":"ihzI-4yGesoQuAoIocao8g","name":"Tacuba Hell's Kitchen","cuisine":"Mexican","address":"802 9th Ave","coordinates":{"latitude":40.76542,"longitude":-73.98719},"review_count":417,"rating":4,"zip_code":"10019"},{"id":"7bD22UAtH56ikWYslOSIQg","name":"Calexico","cuisine":"Mexican","address":"1491 2nd Ave","coordinates":{"latitude":40.77259,"longitude":-73.95588},"review_count":396,"rating":4,"zip_code":"10075"},{"id":"iUOijKvgnv_4Iu758CqlOg","name":"Hotel Tortuga","cuisine":"Mexican","address":"246 E 14th St","coordinates":{"latitude":40.73239,"longitude":-73.98545},"review_count":433,"rating":4,"zip_code":"10003"},{"id":"kn9rgR4KlvyTTi-s76OIaQ","name":"Toloache 82nd","cuisine":"Mexican","address":"166 E 82nd St","coordinates":{"latitude":40.77636,"longitude":-73.95677},"review_count":334,"rating":4,"zip_code":"10028"},{"id":"UmY9dyGOclJ0tGbn1IozlA","name":"Zaragoza Mexican Deli & Grocery","cuisine":"Mexican","address":"215 Ave A","coordinates":{"latitude":40.730102,"longitude":-73.980949},"review_count":281,"rating":4,"zip_code":"10009"},{"id":"5LO5C4doYF_UP2OB29zYMg","name":"Empellón - Taqueria","cuisine":"Mexican","address":"230 W 4th St","coordinates":{"latitude":40.7341219,"longitude":-74.0030294},"review_count":609,"rating":3.5,"zip_code":"10014"},{"id":"0W0m68TNPbodGCA3PhIB4w","name":"The Black Ant","cuisine":"Mexican","address":"60 2nd Ave","coordinates":{"latitude":40.72578,"longitude":-73.98952},"review_count":407,"rating":4,"zip_code":"10003"},{"id":"cBxEb4Z363zhjn5PHys5jA","name":"Mother Burger","cuisine":"Mexican","address":"Worldwide Plz","coordinates":{"latitude":40.7624274029009,"longitude":-73.9882471745951},"review_count":479,"rating":3.5,"zip_code":"10019"},{"id":"R5jpETY0OshPn-AeJjs0fA","name":"Dos Caminos","cuisine":"Mexican","address":"475 W Broadway","coordinates":{"latitude":40.7266571025704,"longitude":-73.9998936653137},"review_count":884,"rating":3.5,"zip_code":"10012"},{"id":"pG-IkylRFOb-HlaD8NwvvQ","name":"La Loteria","cuisine":"Mexican","address":"29 7th Ave S","coordinates":{"latitude":40.7307865530978,"longitude":-74.004135953373},"review_count":250,"rating":4,"zip_code":"10014"},{"id":"jYAqup9AF9N9wYAWYanZ-A","name":"Arriba Arriba Midtown","cuisine":"Mexican","address":"762 9th Ave","coordinates":{"latitude":40.7641288111074,"longitude":-73.9882850646973},"review_count":767,"rating":3.5,"zip_code":"10019"},{"id":"frWu5KfSULdCHd0GmA-ytw","name":"La Palapa","cuisine":"Mexican","address":"77 St Mark's Pl","coordinates":{"latitude":40.727969,"longitude":-73.985604},"review_count":619,"rating":3.5,"zip_code":"10003"},{"id":"ub2VfE7SRLJABAClzGZp3A","name":"Tacombi - Flatiron","cuisine":"Mexican","address":"30 W 24th St","coordinates":{"latitude":40.7428563,"longitude":-73.9911656},"review_count":482,"rating":3.5,"zip_code":"10010"},{"id":"0u411BT5S3hGdnjkQ3eLOA","name":"Salvation Taco","cuisine":"Mexican","address":"145 E 39th St","coordinates":{"latitude":40.74931,"longitude":-73.97664},"review_count":1081,"rating":3,"zip_code":"10016"},{"id":"BdHWUmVFuo1R8Lctv4K1Ow","name":"El Parador Cafe","cuisine":"Mexican","address":"325 E 34th St","coordinates":{"latitude":40.7444599,"longitude":-73.97472},"review_count":374,"rating":4,"zip_code":"10016"},{"id":"Jb6g3-HKC__8X1i-PcekJw","name":"Rosa Mexicano","cuisine":"Mexican","address":"1063 1st Ave","coordinates":{"latitude":40.759,"longitude":-73.96277},"review_count":451,"rating":3.5,"zip_code":"10022"},{"id":"o-KRgyTJoM4EM-K-rwe86w","name":"Bodega Negra","cuisine":"Mexican","address":"355 W 16th St","coordinates":{"latitude":40.7421414364183,"longitude":-74.0035781860352},"review_count":500,"rating":3.5,"zip_code":"10011"},{"id":"NcIUA8l_kmbPEwqI9lzELg","name":"Anejo","cuisine":"Mexican","address":"668 10th Ave","coordinates":{"latitude":40.762577,"longitude":-73.992919},"review_count":529,"rating":3.5,"zip_code":"10036"},{"id":"zxdsVR_hHUzhBFfus4yd7A","name":"Dos Caminos","cuisine":"Mexican","address":"675 Hudson St","coordinates":{"latitude":40.7404330511257,"longitude":-74.0054753422738},"review_count":870,"rating":3,"zip_code":"10014"},{"id":"hSkeb_lmfxnoqg7EVo19Vw","name":"Taco Mix","cuisine":"Mexican","address":"234 E 116th St","coordinates":{"latitude":40.797098,"longitude":-73.938785},"review_count":298,"rating":4,"zip_code":"10029"},{"id":"hAqVb9_eVaijpAJknfhZug","name":"Five Tacos","cuisine":"Mexican","address":"119 Saint Marks Pl","coordinates":{"latitude":40.72698,"longitude":-73.98357},"review_count":278,"rating":4,"zip_code":"10009"},{"id":"HKBJGt04_ZSdiIWA_6J8kQ","name":"Tortaria","cuisine":"Mexican","address":"94 University Pl","coordinates":{"latitude":40.73387,"longitude":-73.99304},"review_count":573,"rating":3.5,"zip_code":"10003"},{"id":"YKAwpTnKO-n5vB9-pqaCLQ","name":"Taqueria y Fonda La Mexicana","cuisine":"Mexican","address":"968 Amsterdam Ave","coordinates":{"latitude":40.80164,"longitude":-73.96507},"review_count":445,"rating":3.5,"zip_code":"10025"},{"id":"qQIF8nQE1eliKObIlFvBaQ","name":"Otto's Tacos","cuisine":"Mexican","address":"705 9th Ave","coordinates":{"latitude":40.7625885009766,"longitude":-73.9900054931641},"review_count":252,"rating":4,"zip_code":"10019"},{"id":"_Kc_mFOk7zMPDcDhkdJE7A","name":"Toloache Thompson","cuisine":"Mexican","address":"205 Thompson St","coordinates":{"latitude":40.7286749,"longitude":-73.9996277},"review_count":371,"rating":4,"zip_code":"10012"},{"id":"VsqHs36uLxhqmjo60r1aJA","name":"Habana To-Go","cuisine":"Mexican","address":"229 Elizabeth St","coordinates":{"latitude":40.72292,"longitude":-73.99418},"review_count":251,"rating":4,"zip_code":"10012"},{"id":"vsQjfOXS10MQ8_CZ3amhVQ","name":"Downtown Bakery","cuisine":"Mexican","address":"69 1st Ave","coordinates":{"latitude":40.72543,"longitude":-73.98711},"review_count":226,"rating":4,"zip_code":"10003"},{"id":"bHJWjEg_sGjrlSHIOX6Mqg","name":"Two Lizards Mexican Bar & Grill","cuisine":"Mexican","address":"1365 1st Ave","coordinates":{"latitude":40.768857,"longitude":-73.955524},"review_count":396,"rating":3.5,"zip_code":"10021"},{"id":"DTKKEogIt2wQm4UULYVGug","name":"Mad Dog & Beans Mexican Cantina","cuisine":"Mexican","address":"83 Pearl St","coordinates":{"latitude":40.704168,"longitude":-74.010261},"review_count":692,"rating":3.5,"zip_code":"10004"},{"id":"2hmhZim4bX2lbjPSNc7LaA","name":"Javelina","cuisine":"Mexican","address":"119 E 18th St","coordinates":{"latitude":40.7368812561035,"longitude":-73.9873886108398},"review_count":371,"rating":3.5,"zip_code":"10003"},{"id":"rbAxZRKdMoMxeonDTmooFg","name":"El Vez","cuisine":"Mexican","address":"259 Vesey St","coordinates":{"latitude":40.7147356376792,"longitude":-74.0157609415621},"review_count":490,"rating":3.5,"zip_code":"10281"},{"id":"8WSRmH4rsSRJN1jN0qmT_A","name":"Cafe Frida","cuisine":"Mexican","address":"368 Columbus Ave","coordinates":{"latitude":40.7808959,"longitude":-73.9764829},"review_count":574,"rating":3.5,"zip_code":"10024"},{"id":"J9pgjC191T-odCmTAG-grQ","name":"El Diablito Taqueria","cuisine":"Mexican","address":"60 E 3rd St","coordinates":{"latitude":40.72504,"longitude":-73.98917},"review_count":236,"rating":4,"zip_code":"10003"},{"id":"UH_aksIxzGPPyhWZJbTP7A","name":"Cantina Taqueria & Tequila Bar","cuisine":"Mexican","address":"1838 7th Ave","coordinates":{"latitude":40.8003063353508,"longitude":-73.9549569049235},"review_count":330,"rating":4,"zip_code":"10026"},{"id":"0o0s6bUIuy0LTGNR3xYzzw","name":"Dos Toros Taqueria","cuisine":"Mexican","address":"1111 Lexington Ave","coordinates":{"latitude":40.7739509,"longitude":-73.9594762},"review_count":328,"rating":3.5,"zip_code":"10075"},{"id":"sLWWrz0iteDNQQJJ21FBUw","name":"Horchata","cuisine":"Mexican","address":"470 Sixth Ave","coordinates":{"latitude":40.7355572,"longitude":-73.9977961},"review_count":320,"rating":4,"zip_code":"10011"},{"id":"VIIfYEzIppjps0K_J_8zLg","name":"El Rio Grande","cuisine":"Mexican","address":"160 E 38th St","coordinates":{"latitude":40.748074661455,"longitude":-73.976690081965},"review_count":537,"rating":3.5,"zip_code":"10016"},{"id":"DyraY-I4fsow50n9MNbwnQ","name":"El Paso Restaurante Mexicano","cuisine":"Mexican","address":"1643 Lexington Ave","coordinates":{"latitude":40.790668,"longitude":-73.947082},"review_count":416,"rating":3.5,"zip_code":"10029"},{"id":"V9jFJfuK3FzWCJGoY15EgQ","name":"Blue Maiz","cuisine":"Mexican","address":"606 8th Ave","coordinates":{"latitude":40.75543,"longitude":-73.99071},"review_count":161,"rating":4,"zip_code":"10018"},{"id":"ci0-GO_iMb0NdTCUYWjocQ","name":"Noche De Margaritas","cuisine":"Mexican","address":"1726 2nd Ave","coordinates":{"latitude":40.7801018,"longitude":-73.9497833},"review_count":264,"rating":4,"zip_code":"10128"},{"id":"Sk-mHDPvuvlCjT1BGKoH4w","name":"Otto's Tacos","cuisine":"Mexican","address":"131 7th Ave S","coordinates":{"latitude":40.7344437,"longitude":-74.0021286},"review_count":219,"rating":4,"zip_code":"10014"},{"id":"hV5JjlaSFrXezfZLHSaWeQ","name":"Hecho en Dumbo","cuisine":"Mexican","address":"354 Bowery","coordinates":{"latitude":40.7268034539851,"longitude":-73.9918255805969},"review_count":386,"rating":3.5,"zip_code":"10012"},{"id":"2iwT3iutZvmqzmu7oOkWFw","name":"Dos Caminos","cuisine":"Mexican","address":"1567 Broadway","coordinates":{"latitude":40.7593727,"longitude":-73.9853281},"review_count":342,"rating":3.5,"zip_code":"10036"},{"id":"TJCyocLYrUBfbf8r0DaBXw","name":"Tacos Grand Central","cuisine":"Mexican","address":"153 E 43rd St","coordinates":{"latitude":40.75164,"longitude":-73.97418},"review_count":166,"rating":4,"zip_code":"10017"},{"id":"YsDmYRzJo3kiwZvIe1r0Fg","name":"Playa Betty's","cuisine":"Mexican","address":"320 Amsterdam Ave","coordinates":{"latitude":40.780883,"longitude":-73.980384},"review_count":466,"rating":3.5,"zip_code":"10023"},{"id":"La78lTOdzTrdFYTGXUp7og","name":"Oaxaca Taqueria","cuisine":"Mexican","address":"424 Amsterdam Ave","coordinates":{"latitude":40.7841453552246,"longitude":-73.9778137207031},"review_count":333,"rating":3.5,"zip_code":"10024"},{"id":"tuP7STBjszTvKcQLeFMnkw","name":"The Great Burrito","cuisine":"Mexican","address":"405 Amsterdam Ave","coordinates":{"latitude":40.78333,"longitude":-73.97796},"review_count":248,"rating":4,"zip_code":"10024"},{"id":"VThwGCuC6JVaxAgnmuJDRg","name":"Cilantro","cuisine":"Mexican","address":"485 Columbus Ave","coordinates":{"latitude":40.784629,"longitude":-73.973121},"review_count":350,"rating":3.5,"zip_code":"10024"},{"id":"ojeMH0rbOOMx9ajChbVkJQ","name":"Papatzul","cuisine":"Mexican","address":"55 Grand St","coordinates":{"latitude":40.722148,"longitude":-74.003677},"review_count":356,"rating":3.5,"zip_code":"10013"},{"id":"RyEd54MOTc5OcYtOiDt11g","name":"Iguana Restaurant & Dance Lounge","cuisine":"Mexican","address":"240 W 54th St","coordinates":{"latitude":40.7642063,"longitude":-73.9832105},"review_count":676,"rating":3,"zip_code":"10019"},{"id":"_PWUuHHqyfJBrTROPR72Fw","name":"The Taco Shop","cuisine":"Mexican","address":"166 W 4th St","coordinates":{"latitude":40.7319488525391,"longitude":-74.0015411376953},"review_count":268,"rating":4,"zip_code":"10014"},{"id":"jQjQHNAM8xXB73kFkfg9kA","name":"Tacos Cholula","cuisine":"Mexican","address":"25 Ave A","coordinates":{"latitude":40.72301,"longitude":-73.98605},"review_count":134,"rating":4,"zip_code":"10009"},{"id":"iPc-zPgcpgeSo76xl5Jbpw","name":"The Maze","cuisine":"Mexican","address":"32 W 32nd St","coordinates":{"latitude":40.74764,"longitude":-73.98724},"review_count":245,"rating":4,"zip_code":"10001"},{"id":"4IE9hPuy5QIWVdaETUEG_Q","name":"El Sombrero","cuisine":"Mexican","address":"108 Stanton St","coordinates":{"latitude":40.72124,"longitude":-73.9875},"review_count":285,"rating":3.5,"zip_code":"10002"},{"id":"_5BoZ_C5zEl5M_MxT1W39w","name":"Cascabel Taqueria","cuisine":"Mexican","address":"2799 Broadway 108th St","coordinates":{"latitude":40.8029136693265,"longitude":-73.9679586979658},"review_count":337,"rating":3.5,"zip_code":"10025"},{"id":"1Ylu26XW3F6gSJWdFw6-8g","name":"Great Burrito","cuisine":"Mexican","address":"100 W 23rd St","coordinates":{"latitude":40.7428322,"longitude":-73.9930115},"review_count":209,"rating":4,"zip_code":"10011"},{"id":"v8tuFxvNkKdZytWTn9BhMA","name":"Fonda Chelsea","cuisine":"Mexican","address":"189 9th Ave","coordinates":{"latitude":40.7455185879981,"longitude":-74.0021848849335},"review_count":261,"rating":3.5,"zip_code":"10011"},{"id":"X0IWYIpyp-eeD783EqVGWw","name":"Oxido","cuisine":"Mexican","address":"18 W 23rd St","coordinates":{"latitude":40.7417158567418,"longitude":-73.9903659152219},"review_count":189,"rating":4,"zip_code":"10010"},{"id":"rWhN2fYnfgJctQbuFPSbdQ","name":"Tortilla Flats","cuisine":"Mexican","address":"767 Washington St","coordinates":{"latitude":40.73745,"longitude":-74.00796},"review_count":458,"rating":3.5,"zip_code":"10014"},{"id":"mVaslo987DCd3YC_0FtWxA","name":"Mole","cuisine":"Mexican","address":"57 Jane St","coordinates":{"latitude":40.73822,"longitude":-74.00524},"review_count":393,"rating":3.5,"zip_code":"10014"},{"id":"phfxciZ6-Hch_HbW_tvm_A","name":"Villa Cemita","cuisine":"Mexican","address":"50 Ave A","coordinates":{"latitude":40.72383,"longitude":-73.98478},"review_count":224,"rating":4,"zip_code":"10009"},{"id":"IfIyjm4SfORGYPbaAWST3g","name":"Mexicue","cuisine":"Mexican","address":"225 5th Ave","coordinates":{"latitude":40.7436639142698,"longitude":-73.9879391497463},"review_count":262,"rating":3.5,"zip_code":"10010"},{"id":"qHbQ2V9K_GJqLaOaielk_Q","name":"Cascabel Taqueria","cuisine":"Mexican","address":"1556 2nd Ave","coordinates":{"latitude":40.7743636,"longitude":-73.9539916},"review_count":297,"rating":3.5,"zip_code":"10028"},{"id":"FavssEgZjXFi2unEXePkVQ","name":"Tacombi - Bleecker Street","cuisine":"Mexican","address":"255 Bleecker St","coordinates":{"latitude":40.73112,"longitude":-74.00272},"review_count":243,"rating":3.5,"zip_code":"10014"},{"id":"XO6IbZn2oxonPrfcXHK4HA","name":"Casa Mexicana","cuisine":"Mexican","address":"894 Amsterdam Ave","coordinates":{"latitude":40.7989452034235,"longitude":-73.9668629318476},"review_count":156,"rating":4,"zip_code":"10025"},{"id":"WyiTT3VHjzowMnOnUpZ7TQ","name":"Empellón","cuisine":"Mexican","address":"510 Madison Ave","coordinates":{"latitude":40.75971,"longitude":-73.97473},"review_count":167,"rating":4,"zip_code":"10022"},{"id":"4YeKYQoZHCx2xkbjmNhMbA","name":"Burger One","cuisine":"Mexican","address":"1150 Lexington Ave","coordinates":{"latitude":40.7752780616283,"longitude":-73.9587344974279},"review_count":167,"rating":4,"zip_code":"10075"},{"id":"B6bEkY9sJ_GU2pD2Rwb4gg","name":"El Mitote","cuisine":"Mexican","address":"208 Columbus Ave","coordinates":{"latitude":40.77578,"longitude":-73.98021},"review_count":374,"rating":3.5,"zip_code":"10023"},{"id":"XJ8EaZig8kn5z984eeoCRQ","name":"Dos Toros Taqueria","cuisine":"Mexican","address":"11 Carmine St","coordinates":{"latitude":40.73062,"longitude":-74.0023},"review_count":261,"rating":3.5,"zip_code":"10014"},{"id":"Ck09FempamAKGSPsV_bX-A","name":"Xixa","cuisine":"Mexican","address":"241 S 4th St","coordinates":{"latitude":40.710505,"longitude":-73.958466},"review_count":483,"rating":4.5,"zip_code":"11211"},{"id":"t86q8MbsrW8pB8bmfwPWTw","name":"Blockheads","cuisine":"Mexican","address":"954 2nd Ave","coordinates":{"latitude":40.7551,"longitude":-73.96802},"review_count":380,"rating":3.5,"zip_code":"10022"},{"id":"1UqrqRx_35w87pQeg17Gqg","name":"El Toro Blanco","cuisine":"Mexican","address":"257 Avenue Of The Americas","coordinates":{"latitude":40.72902,"longitude":-74.00277},"review_count":344,"rating":3.5,"zip_code":"10014"},{"id":"uipFunIVqRWwopfEvrscyQ","name":"Casa Mezcal","cuisine":"Mexican","address":"86 Orchard St","coordinates":{"latitude":40.7179602,"longitude":-73.9902328},"review_count":353,"rating":3.5,"zip_code":"10002"},{"id":"J_9-q-WFMWg5swNVzzZ_XA","name":"Lupe's","cuisine":"Mexican","address":"110 Ave Of The Americas","coordinates":{"latitude":40.72369,"longitude":-74.0045776},"review_count":323,"rating":3.5,"zip_code":"10013"},{"id":"xGoSAOhQBNdJMJmPn7CMDQ","name":"Mexicue","cuisine":"Mexican","address":"1440 Broadway","coordinates":{"latitude":40.754412,"longitude":-73.986511},"review_count":280,"rating":3.5,"zip_code":"10018"},{"id":"cqzTgTxWn-_NJBw6EGPKfw","name":"Vamos! Tacos & Tequila","cuisine":"Mexican","address":"348 1st Ave","coordinates":{"latitude":40.7353709,"longitude":-73.9791863},"review_count":377,"rating":3.5,"zip_code":"10010"},{"id":"zxMoUHqFiI3rKoKdY8SFwg","name":"Chevys Fresh Mex","cuisine":"Mexican","address":"259 West 42nd St","coordinates":{"latitude":40.75721,"longitude":-73.98931},"review_count":630,"rating":3,"zip_code":"10036"},{"id":"bbb6QZReetkrrubqGWJokQ","name":"Pulqueria","cuisine":"Mexican","address":"11 Doyers St","coordinates":{"latitude":40.71448,"longitude":-73.99819},"review_count":420,"rating":3.5,"zip_code":"10013"},{"id":"r5NT8-nV4py2c-mppTKucQ","name":"Essex Taqueria","cuisine":"Mexican","address":"123 Essex St","coordinates":{"latitude":40.7197418,"longitude":-73.9877989},"review_count":208,"rating":4,"zip_code":"10002"},{"id":"ir1jLDagZiMaHo7My4oUDg","name":"La Flaca","cuisine":"Mexican","address":"384 Grand St","coordinates":{"latitude":40.7165,"longitude":-73.98763},"review_count":284,"rating":3.5,"zip_code":"10002"},{"id":"j4ZaQA8Ht9MFKz942uRG7g","name":"Blockheads","cuisine":"Mexican","address":"1563 2nd Ave","coordinates":{"latitude":40.77488,"longitude":-73.95415},"review_count":423,"rating":3,"zip_code":"10028"},{"id":"qZfJbJPxZUkC66lRldcbGA","name":"Tulcingo Del Valle","cuisine":"Mexican","address":"665 10th Ave","coordinates":{"latitude":40.762756,"longitude":-73.993545},"review_count":228,"rating":3.5,"zip_code":"10036"},{"id":"iXtZQ7twXQiv7j2ZdxZqUg","name":"Burritos y Mas NY Tex-Mex","cuisine":"Mexican","address":"1571 Lexington Ave","coordinates":{"latitude":40.7887686998247,"longitude":-73.9486259859039},"review_count":108,"rating":4,"zip_code":"10029"},{"id":"AUyKmFjpaVLwc3awfUnqgQ","name":"Chela & Garnacha","cuisine":"Mexican","address":"33-09 36th Ave","coordinates":{"latitude":40.7557171543477,"longitude":-73.927811292412},"review_count":273,"rating":4.5,"zip_code":"11106"},{"id":"WE064Ln20S4MQVT1hETCCw","name":"Canyon Road Grill","cuisine":"Mexican","address":"1470 1st Ave","coordinates":{"latitude":40.770694,"longitude":-73.953774},"review_count":202,"rating":3.5,"zip_code":"10075"},{"id":"2WjCRp9PwNzM-6HrY1V2Gw","name":"Limon Jungle","cuisine":"Mexican","address":"803 9th Ave","coordinates":{"latitude":40.765659,"longitude":-73.987777},"review_count":502,"rating":3,"zip_code":"10019"},{"id":"LyCE268_fz_MAZieFZY1lA","name":"El Cantinero","cuisine":"Mexican","address":"86 University Pl","coordinates":{"latitude":40.73364,"longitude":-73.99324},"review_count":478,"rating":3,"zip_code":"10003"},{"id":"wtQHeGI3L04xCJ5jODsRlg","name":"Los Feliz","cuisine":"Mexican","address":"109 Ludlow St","coordinates":{"latitude":40.71938,"longitude":-73.98882},"review_count":408,"rating":3,"zip_code":"10002"},{"id":"i0CffTc5rmXjQOqq7g3I6Q","name":"Gabriela's Restaurant & Tequila Bar","cuisine":"Mexican","address":"688 Columbus Ave","coordinates":{"latitude":40.7912178,"longitude":-73.9689331},"review_count":435,"rating":3,"zip_code":"10025"},{"id":"17F3KNRiGTPdDonxCEL5-Q","name":"Taco Bandito","cuisine":"Mexican","address":"325 8th Ave","coordinates":{"latitude":40.7474763497109,"longitude":-73.9971551748688},"review_count":175,"rating":3.5,"zip_code":"10001"},{"id":"hrswGldQVdR9OJRtqp0TxA","name":"Gonzalez y Gonzalez","cuisine":"Mexican","address":"192 Mercer St","coordinates":{"latitude":40.7261303289736,"longitude":-73.9972339217213},"review_count":359,"rating":3,"zip_code":"10012"},{"id":"DHFEpeJXemrdxIuGGcyurg","name":"De Mole","cuisine":"Mexican","address":"4502 48th Ave","coordinates":{"latitude":40.7391932,"longitude":-73.9202624},"review_count":568,"rating":4,"zip_code":"11377"},{"id":"SXWnyFNLCehVlJPRxk7gAg","name":"Anejo Tribeca","cuisine":"Mexican","address":"301 Church St","coordinates":{"latitude":40.7193829,"longitude":-74.004417},"review_count":229,"rating":3.5,"zip_code":"10013"},{"id":"_HxxUvRp-0FMH_RoEzG1TA","name":"Barnacho","cuisine":"Mexican","address":"920 2nd Ave","coordinates":{"latitude":40.7540321350098,"longitude":-73.9688491821289},"review_count":108,"rating":4,"zip_code":"10017"},{"id":"4rAXH_bl_iJ1BwHp7I3rYg","name":"Al Horno Lean Mexican Kitchen","cuisine":"Mexican","address":"417 W 47th St","coordinates":{"latitude":40.762149,"longitude":-73.990997},"review_count":213,"rating":3.5,"zip_code":"10036"},{"id":"UBqLK5kg0kT72CIaBYa5Zg","name":"Patron Mexican Grill","cuisine":"Mexican","address":"608 9th Ave","coordinates":{"latitude":40.75923,"longitude":-73.99173},"review_count":356,"rating":3,"zip_code":"10036"},{"id":"hKkPlYmHoS9Nb_UbGGqx8A","name":"Street Taco","cuisine":"Mexican","address":"358 3rd Ave","coordinates":{"latitude":40.74097,"longitude":-73.98202},"review_count":151,"rating":4,"zip_code":"10016"},{"id":"6ptX8V8WW_IzhHXLJ4SRAA","name":"Dos Toros Taqueria","cuisine":"Mexican","address":"465 Lexington Ave","coordinates":{"latitude":40.753517,"longitude":-73.974182},"review_count":145,"rating":3.5,"zip_code":"10017"},{"id":"JywbRdA7yskb-06WbjUjKw","name":"Paquito's Restaurant","cuisine":"Mexican","address":"143 1st Ave","coordinates":{"latitude":40.728137,"longitude":-73.985134},"review_count":225,"rating":3.5,"zip_code":"10003"},{"id":"ZIfh0Vv86ktGZDdM3YME-w","name":"Mexico Lindo Restaurant","cuisine":"Mexican","address":"459 2nd Ave","coordinates":{"latitude":40.73981,"longitude":-73.97984},"review_count":227,"rating":3.5,"zip_code":"10010"},{"id":"Wm6vj0ekRAzZnaeaBEkOag","name":"Taqueria Downtown","cuisine":"Mexican","address":"236 Grove St","coordinates":{"latitude":40.7162,"longitude":-74.04451},"review_count":1454,"rating":4,"zip_code":"07302"},{"id":"V7_IQ1ab69JilAlgrSnMXg","name":"L Encanto D Lola","cuisine":"Mexican","address":"57 Lenox Ave","coordinates":{"latitude":40.8001464434346,"longitude":-73.9511863565111},"review_count":228,"rating":3.5,"zip_code":"10026"},{"id":"p7MviobRqz5rvdzmsjBdEw","name":"El Aguila","cuisine":"Mexican","address":"1634 Lexington Ave","coordinates":{"latitude":40.790573,"longitude":-73.947715},"review_count":161,"rating":3.5,"zip_code":"10029"},{"id":"L5eqJRy8Yx_4El6rUxWmBw","name":"El Vez Burrito","cuisine":"Mexican","address":"259 Vesey St","coordinates":{"latitude":40.7147356376792,"longitude":-74.0157609415621},"review_count":82,"rating":4,"zip_code":"10282"},{"id":"qr24KgWcZGUhKZIPyVMsNw","name":"Maz Mezcal","cuisine":"Mexican","address":"316 E 86th St","coordinates":{"latitude":40.77741,"longitude":-73.95103},"review_count":299,"rating":3.5,"zip_code":"10028"},{"id":"PqqnNrUtU7XTKQvUM4cyqQ","name":"Bar Verde","cuisine":"Mexican","address":"65 2nd Ave","coordinates":{"latitude":40.7260849061034,"longitude":-73.9897361397743},"review_count":69,"rating":4.5,"zip_code":"10003"},{"id":"wAmWk6hQaHjREDVe8z2otA","name":"Pampano Taqueria","cuisine":"Mexican","address":"805 3rd Ave","coordinates":{"latitude":40.75537,"longitude":-73.97054},"review_count":153,"rating":3.5,"zip_code":"10022"},{"id":"vZZK2TY8_oZefgSYbgtYAQ","name":"Choza Taqueria","cuisine":"Mexican","address":"66 Madison Ave","coordinates":{"latitude":40.743633,"longitude":-73.986121},"review_count":241,"rating":3.5,"zip_code":"10016"},{"id":"xN4yKQMzo3PIoQlFamUOLQ","name":"La Esquina","cuisine":"Mexican","address":"200 W 55th St","coordinates":{"latitude":40.7642986928764,"longitude":-73.9814604957066},"review_count":119,"rating":3.5,"zip_code":"10019"},{"id":"V5hpSbA41oFAIzvZlv_1vQ","name":"Habanero Blues","cuisine":"Mexican","address":"29 W 36th St","coordinates":{"latitude":40.75049,"longitude":-73.98517},"review_count":182,"rating":3.5,"zip_code":"10018"},{"id":"FkA9aoMhWO4XKFMTuTnl4Q","name":"Atla","cuisine":"Mexican","address":"372 Lafayette St","coordinates":{"latitude":40.7272641336352,"longitude":-73.9939145612101},"review_count":150,"rating":3.5,"zip_code":"10012"},{"id":"0oRYwB_SLqjHptvUQwwe2w","name":"Tajin","cuisine":"Mexican","address":"85 Greenwich St","coordinates":{"latitude":40.70772,"longitude":-74.01356},"review_count":186,"rating":3.5,"zip_code":"10006"},{"id":"mmAlHhnTDXIohPC3wfl0hQ","name":"Mesa Coyoacan","cuisine":"Mexican","address":"372 Graham Ave","coordinates":{"latitude":40.715528,"longitude":-73.944273},"review_count":674,"rating":4,"zip_code":"11211"},{"id":"AnAZaBsEuBjYvzaPMTN0oQ","name":"Flats Fix Taqueria","cuisine":"Mexican","address":"30 East 16th St","coordinates":{"latitude":40.7369234,"longitude":-73.9920516},"review_count":134,"rating":4,"zip_code":"10003"},{"id":"uH45ofFeiz2LYzBBSrj09Q","name":"Serenata","cuisine":"Mexican","address":"111 W 17th St","coordinates":{"latitude":40.7397308349609,"longitude":-73.995979309082},"review_count":187,"rating":3.5,"zip_code":"10011"},{"id":"PWFK0nvJ23Xkk_B4C5Q4Aw","name":"Factory Tamal","cuisine":"Mexican","address":"34 Ludlow St","coordinates":{"latitude":40.7159893975333,"longitude":-73.9903887679246},"review_count":46,"rating":4.5,"zip_code":"10002"},{"id":"HLPCElXTqPD6JERdnJM_gQ","name":"Trece Mexican Cuisine & Tequila Bar","cuisine":"Mexican","address":"54 E 13th St","coordinates":{"latitude":40.734218,"longitude":-73.991526},"review_count":201,"rating":3.5,"zip_code":"10003"},{"id":"KzJYO3-2k9XJhOHVpXayZQ","name":"Empellon Al Pastor","cuisine":"Mexican","address":"132 St Marks Pl","coordinates":{"latitude":40.72668,"longitude":-73.98336},"review_count":199,"rating":3.5,"zip_code":"10009"},{"id":"PqX9bDlDCc6qOZd2vw4tYw","name":"Takumi Taco","cuisine":"Mexican","address":"Chelsea Market","coordinates":{"latitude":40.7423295448078,"longitude":-74.0061442013275},"review_count":163,"rating":3.5,"zip_code":"10011"},{"id":"foAYWheDCF9wUyKPuOGYow","name":"Mole","cuisine":"Mexican","address":"1735 2nd Ave","coordinates":{"latitude":40.780331,"longitude":-73.950302},"review_count":308,"rating":3,"zip_code":"10128"},{"id":"-Qn5nXGhxWHNePA0dYmPSg","name":"Tacos Times Square","cuisine":"Mexican","address":"144B W 37th St","coordinates":{"latitude":40.75255,"longitude":-73.98864},"review_count":72,"rating":4,"zip_code":"10018"},{"id":"4ttqjZMCsfz6X0kQ_KR0xQ","name":"Orale Mexican Kitchen","cuisine":"Mexican","address":"341 Grove St","coordinates":{"latitude":40.720538,"longitude":-74.043127},"review_count":811,"rating":4,"zip_code":"07302"},{"id":"4sHkiQ0qURBjL_gVLQbGPw","name":"Taqueria Diana","cuisine":"Mexican","address":"524 9th Ave","coordinates":{"latitude":40.75652,"longitude":-73.99371},"review_count":145,"rating":3.5,"zip_code":"10018"},{"id":"7xW-mmylJCNQgYw88Ur89Q","name":"La Posada Mexican Food","cuisine":"Mexican","address":"364 3rd Ave","coordinates":{"latitude":40.74115,"longitude":-73.98189},"review_count":201,"rating":3.5,"zip_code":"10016"},{"id":"NXjCypQNl7tBrdR3gkFqdg","name":"Lupita's Restaurant","cuisine":"Mexican","address":"2049 2nd Ave","coordinates":{"latitude":40.790205,"longitude":-73.943136},"review_count":94,"rating":4,"zip_code":"10029"},{"id":"98Bm2w9RzNJQZo4U3jSgQQ","name":"Tacos Times Square","cuisine":"Mexican","address":"134 E 27th St","coordinates":{"latitude":40.7417320336149,"longitude":-73.9823354903991},"review_count":55,"rating":4.5,"zip_code":"10016"},{"id":"h7_M3CISwvFVqgLG8xcSbQ","name":"Campeon","cuisine":"Mexican","address":"9 E 16th St","coordinates":{"latitude":40.737153,"longitude":-73.991669},"review_count":305,"rating":3,"zip_code":"10003"},{"id":"xWLSJOiN1mMRHmBmHyjAfw","name":"Mad Dog & Beans Mexican Cantina","cuisine":"Mexican","address":"5 E 38th St","coordinates":{"latitude":40.75098,"longitude":-73.98181},"review_count":163,"rating":3.5,"zip_code":"10016"},{"id":"D7w3Nk3H0oDYZSIAaRgYRA","name":"Sexy Taco/Dirty Cash","cuisine":"Mexican","address":"161 Malcolm X Blvd","coordinates":{"latitude":40.803604,"longitude":-73.949035},"review_count":242,"rating":3,"zip_code":"10026"},{"id":"7GlG3KPnMMaqPLapBaVS1g","name":"Chipotle Mexican Grill","cuisine":"Mexican","address":"19 Saint Mark's Pl","coordinates":{"latitude":40.72925,"longitude":-73.9886},"review_count":137,"rating":4,"zip_code":"10003"},{"id":"OsnvNfvVnpjnFklon1s-vg","name":"La Chula","cuisine":"Mexican","address":"137 E 116th St","coordinates":{"latitude":40.79882,"longitude":-73.94168},"review_count":66,"rating":4.5,"zip_code":"10029"},{"id":"vpQuweZbx__MNXqVa9pt8Q","name":"Chipotle Mexican Grill","cuisine":"Mexican","address":"150 E 52nd St","coordinates":{"latitude":40.75732,"longitude":-73.97069},"review_count":163,"rating":3.5,"zip_code":"10022"},{"id":"7CfaiHE11MO2zAiu3w6bsw","name":"Taco Dumbo","cuisine":"Mexican","address":"19 W 52nd St","coordinates":{"latitude":40.7604532,"longitude":-73.9775139},"review_count":61,"rating":4,"zip_code":"10103"},{"id":"XYyIWs-3J4bZRZDfcsMquQ","name":"Rancho Tequilieria","cuisine":"Mexican","address":"741 9th Ave","coordinates":{"latitude":40.7637209,"longitude":-73.989186},"review_count":203,"rating":3.5,"zip_code":"10019"},{"id":"N90gLDq4XgqYanlRqaeNKg","name":"Acapulco","cuisine":"Mexican","address":"1116 Manhattan Ave","coordinates":{"latitude":40.736717,"longitude":-73.955004},"review_count":244,"rating":4,"zip_code":"11222"},{"id":"fjE_lpKblhrN_48X2ca-7w","name":"Mezquite Restaurant","cuisine":"Mexican","address":"45-06 30th Ave","coordinates":{"latitude":40.76167,"longitude":-73.9109},"review_count":224,"rating":4.5,"zip_code":"11103"},{"id":"9OUXhF3r1CVF8jahUanMbg","name":"Cancun","cuisine":"Mexican","address":"937 8th Ave","coordinates":{"latitude":40.76578,"longitude":-73.98379},"review_count":282,"rating":3,"zip_code":"10019"},{"id":"zOvh6sF_85dyfy84PKmB-g","name":"El Azteca","cuisine":"Mexican","address":"783 9th Ave","coordinates":{"latitude":40.76503,"longitude":-73.98822},"review_count":163,"rating":3.5,"zip_code":"10019"},{"id":"rPTtQ-FO_F9tMJDl3m50Bg","name":"Tijuana Picnic","cuisine":"Mexican","address":"151 Essex St","coordinates":{"latitude":40.7207634,"longitude":-73.9873657},"review_count":239,"rating":3.5,"zip_code":"10002"},{"id":"EHUNrnIgnhwTnpOm3gEESg","name":"Tacuba","cuisine":"Mexican","address":"35-01 36th St","coordinates":{"latitude":40.75585,"longitude":-73.92447},"review_count":514,"rating":3.5,"zip_code":"11106"},{"id":"JzUg9hbxpAbyvs0JzbFruA","name":"Noche Mexicana","cuisine":"Mexican","address":"842 Amsterdam Ave","coordinates":{"latitude":40.79742,"longitude":-73.96814},"review_count":229,"rating":3,"zip_code":"10025"},{"id":"g2uaHoIX1e1Y2E63t6DLrg","name":"Selena Rosa","cuisine":"Mexican","address":"1712 2nd Ave","coordinates":{"latitude":40.779514,"longitude":-73.950149},"review_count":201,"rating":3.5,"zip_code":"10128"},{"id":"tdDBpCB-xA9NqR9dxc6OxQ","name":"Emojo Burger","cuisine":"Mexican","address":"261 1st Ave","coordinates":{"latitude":40.7323,"longitude":-73.98224},"review_count":109,"rating":4,"zip_code":"10003"},{"id":"oZ9cRTtb0dqDT_KcMdMvoQ","name":"Oaxaca Taqueria","cuisine":"Mexican","address":"48 Greenwich Ave","coordinates":{"latitude":40.735714,"longitude":-74.000305},"review_count":154,"rating":3.5,"zip_code":"10011"},{"id":"H08vCdbcP3oy0cBEKqM5KQ","name":"El Rey del Sabor","cuisine":"Mexican","address":"166 E 60th St","coordinates":{"latitude":40.7622400274526,"longitude":-73.9663818196397},"review_count":69,"rating":4,"zip_code":"10021"},{"id":"cy0vBvZu2Eb4XtRFCp8Seg","name":"Conmigo","cuisine":"Mexican","address":"1685 1st Ave","coordinates":{"latitude":40.77793,"longitude":-73.94902},"review_count":95,"rating":4,"zip_code":"10128"},{"id":"Ahx8GsuAGUl8TgqCWP7uXw","name":"Temerario","cuisine":"Mexican","address":"198 8th Ave","coordinates":{"latitude":40.7434133400872,"longitude":-73.9996277220286},"review_count":145,"rating":3.5,"zip_code":"10011"},{"id":"gCwbwgUkihSjK75EpzwWHQ","name":"San Loco","cuisine":"Mexican","address":"111 Stanton St","coordinates":{"latitude":40.7210575087845,"longitude":-73.987348174211},"review_count":225,"rating":3,"zip_code":"10002"},{"id":"f7-4kTNeYOhZdtJgXlbqBQ","name":"El Rancho Burritos","cuisine":"Mexican","address":"359 W 45th St","coordinates":{"latitude":40.7603099,"longitude":-73.99087},"review_count":106,"rating":3.5,"zip_code":"10036"},{"id":"2qFVu5LfZ3Zxc9rHH5o5cA","name":"El Idolo","cuisine":"Mexican","address":"W 14th St And 8th Ave","coordinates":{"latitude":40.7397477822278,"longitude":-74.0025231466688},"review_count":108,"rating":3.5,"zip_code":"10011"},{"id":"POGfmcCkuLpkP_Vz98DuwQ","name":"Caliente Cab","cuisine":"Mexican","address":"61 7th Ave S","coordinates":{"latitude":40.7319,"longitude":-74.00357},"review_count":649,"rating":2.5,"zip_code":"10014"},{"id":"TYVIfbcJ3YT4CP1roKMshg","name":"Lucy's Cantina Royale","cuisine":"Mexican","address":"1 Penn Plz","coordinates":{"latitude":40.751757506263,"longitude":-73.9928958215327},"review_count":538,"rating":2.5,"zip_code":"10119"},{"id":"u1KX3yw6L7pg1rbFl_Sx3Q","name":"Lalito","cuisine":"Mexican","address":"104 Bayard St","coordinates":{"latitude":40.716289,"longitude":-73.99974},"review_count":93,"rating":4,"zip_code":"10013"},{"id":"R4L19kfjFVoJoiRw_nXmqg","name":"Super Tacos","cuisine":"Mexican","address":"96TH St And Broadway","coordinates":{"latitude":40.79462,"longitude":-73.97172},"review_count":130,"rating":3.5,"zip_code":"10025"},{"id":"Z3wa8EmAr0yfihPZZMLE_A","name":"Les Crêpes & Taqueria","cuisine":"Mexican","address":"25A Essex St","coordinates":{"latitude":40.7154425095498,"longitude":-73.9899829811096},"review_count":66,"rating":4,"zip_code":"10002"},{"id":"JD5KWviP-TRkTYEvOO12kQ","name":"Chipotle Mexican Grill","cuisine":"Mexican","address":"100 Maiden Ln","coordinates":{"latitude":40.7066592756843,"longitude":-74.0072495769326},"review_count":156,"rating":3.5,"zip_code":"10038"},{"id":"-kVueEw_fyO1Q2Gkmj6Few","name":"Taqueria Santa Fe","cuisine":"Mexican","address":"4708 47th Ave","coordinates":{"latitude":40.740766,"longitude":-73.917876},"review_count":261,"rating":4,"zip_code":"11377"},{"id":"MnGdp1pYDP-wK57o2lJcwg","name":"Casa Neta","cuisine":"Mexican","address":"40 E 20th St","coordinates":{"latitude":40.73846,"longitude":-73.98861},"review_count":79,"rating":4,"zip_code":"10003"},{"id":"m8z1eTTetr-JbSM1HU2t6Q","name":"Tacos Y Quesadillas Mexico","cuisine":"Mexican","address":"924 9th Ave","coordinates":{"latitude":40.7686908,"longitude":-73.9849574},"review_count":40,"rating":4,"zip_code":"10019"},{"id":"_VXlKJEUEoP0wG6ZxruteQ","name":"Sidewalk Tacos","cuisine":"Mexican","address":"2163 2nd Ave","coordinates":{"latitude":40.79405,"longitude":-73.94015},"review_count":41,"rating":4.5,"zip_code":"10029"},{"id":"3DNtS1_3gobrYQBAwDx4DA","name":"Calexico","cuisine":"Mexican","address":"645 Manhattan Ave","coordinates":{"latitude":40.72421,"longitude":-73.95117},"review_count":629,"rating":3.5,"zip_code":"11222"},{"id":"kwknIGiHza2sjdt-bwPGwQ","name":"Blockheads","cuisine":"Mexican","address":"60 3rd Ave","coordinates":{"latitude":40.73123,"longitude":-73.98905},"review_count":149,"rating":3.5,"zip_code":"10003"},{"id":"fTyE8UGWb_4Q05fd_H6YPg","name":"Burrito Loco","cuisine":"Mexican","address":"166 W 4th St","coordinates":{"latitude":40.73195,"longitude":-74.00154},"review_count":244,"rating":3,"zip_code":"10014"},{"id":"vpWPgusmUD0cYNKf0uEQIw","name":"Cemitas El Tigre","cuisine":"Mexican","address":"45-14 48th Ave","coordinates":{"latitude":40.7391913,"longitude":-73.9198491},"review_count":173,"rating":4.5,"zip_code":"11377"},{"id":"UAEQ0J9QmAJWv3vL5HEmeg","name":"No Fun","cuisine":"Mexican","address":"161 Ludlow St","coordinates":{"latitude":40.72145,"longitude":-73.98789},"review_count":254,"rating":3,"zip_code":"10002"},{"id":"qXdxckyNMQ_jFz7ZFvAWXg","name":"Dos Toros Taqueria","cuisine":"Mexican","address":"295 Park Ave S","coordinates":{"latitude":40.739847,"longitude":-73.986326},"review_count":116,"rating":3.5,"zip_code":"10010"},{"id":"PsYY7NHs5cFEI5hW5IZUlg","name":"The Creek & The Cave","cuisine":"Mexican","address":"10-93 Jackson Ave","coordinates":{"latitude":40.7432511476929,"longitude":-73.9517892774468},"review_count":325,"rating":3.5,"zip_code":"11101"},{"id":"QIsFsiOP3H_NkgeWST7GPA","name":"Maizal Restaurant & Tequila Bar","cuisine":"Mexican","address":"3207 34th Ave","coordinates":{"latitude":40.759331,"longitude":-73.926035},"review_count":250,"rating":4,"zip_code":"11106"},{"id":"xIi-TO8iDQCy1ZSHe11_Zw","name":"El Paso Taqueria","cuisine":"Mexican","address":"64 E 97th St","coordinates":{"latitude":40.787296295166,"longitude":-73.9528121948242},"review_count":190,"rating":3,"zip_code":"10029"},{"id":"j9tAoiEsgSS85QV04pY3lQ","name":"Kimchi Taco","cuisine":"Mexican","address":"","coordinates":{"latitude":40.7112121582031,"longitude":-74.0148391723633},"review_count":224,"rating":3,"zip_code":"10281"},{"id":"EycuZuG4mSMdVcweEwC1IQ","name":"goa taco","cuisine":"Mexican","address":"101 Macdougal St","coordinates":{"latitude":40.7296813255743,"longitude":-74.0009146795216},"review_count":83,"rating":3.5,"zip_code":"10012"},{"id":"DY2wlHlgC5eHITs-d5rT4w","name":"Panchos","cuisine":"Mexican","address":"964 Amsterdam Ave","coordinates":{"latitude":40.8015,"longitude":-73.96534},"review_count":43,"rating":4.5,"zip_code":"10025"},{"id":"A8qXfx_LBI6fnOhxDmvIOA","name":"Sabor A Mexico","cuisine":"Mexican","address":"1744 1st Ave","coordinates":{"latitude":40.77953,"longitude":-73.94704},"review_count":127,"rating":3.5,"zip_code":"10128"},{"id":"R6cdgEFQwu0vDllP5tEWUQ","name":"Blockheads","cuisine":"Mexican","address":"175 W 90th St","coordinates":{"latitude":40.79024,"longitude":-73.97274},"review_count":186,"rating":3,"zip_code":"10024"},{"id":"yKPRuBvD3ScCc18QrZ4Y6w","name":"El Porton Mexican Restaurant Bar","cuisine":"Mexican","address":"3151 Broadway","coordinates":{"latitude":40.81452,"longitude":-73.95966},"review_count":145,"rating":3.5,"zip_code":"10027"},{"id":"hcI6TVxFyVNEPXg3rF1bQw","name":"Oaxaca Taqueria","cuisine":"Mexican","address":"405 W 44th St","coordinates":{"latitude":40.7601356506348,"longitude":-73.992057800293},"review_count":77,"rating":4,"zip_code":"10036"},{"id":"vN1CYP0WNSPfdmZAstfdOg","name":"Sabor A Mexico","cuisine":"Mexican","address":"233 E 77th St","coordinates":{"latitude":40.772556,"longitude":-73.957035},"review_count":145,"rating":3.5,"zip_code":"10021"},{"id":"iK2jJQA72XRjf4nUD3cAnA","name":"Tortilleria Mexicana Los Hermanos","cuisine":"Mexican","address":"271 Starr St","coordinates":{"latitude":40.7066307067871,"longitude":-73.9219818115234},"review_count":634,"rating":4,"zip_code":"11237"},{"id":"hGbfDMM2POAevBXe-H3qgg","name":"Chipotle Mexican Grill","cuisine":"Mexican","address":"149 8th Ave","coordinates":{"latitude":40.742057,"longitude":-74.001251},"review_count":116,"rating":3.5,"zip_code":"10011"},{"id":"WgAJUrVaMcMtQxsiIc02sQ","name":"Quesadillas Doña Maty","cuisine":"Mexican","address":"228 E 116th St","coordinates":{"latitude":40.79721,"longitude":-73.939025},"review_count":34,"rating":4.5,"zip_code":"10029"},{"id":"95a04LtXLX6gePhPEwff9A","name":"Amaranto Mexican Restaurant","cuisine":"Mexican","address":"887 Hart St","coordinates":{"latitude":40.703111,"longitude":-73.921892},"review_count":250,"rating":4.5,"zip_code":"11237"},{"id":"Up5xjxx_K-OEGAneVzE_UA","name":"Domo Taco","cuisine":"Mexican","address":null,"coordinates":{"latitude":40.75994,"longitude":-73.97095},"review_count":157,"rating":3,"zip_code":"10022"},{"id":"tvqtAjAyc7dplVVwhw3VZQ","name":"La Contenta Oeste","cuisine":"Mexican","address":"78 W 11th St","coordinates":{"latitude":40.7352,"longitude":-73.99808},"review_count":59,"rating":4,"zip_code":"10011"},{"id":"HwDu45zV90Wmprn6sPttCQ","name":"Mexican Festival","cuisine":"Mexican","address":"2672 Broadway","coordinates":{"latitude":40.7982804740353,"longitude":-73.9689128100872},"review_count":177,"rating":3,"zip_code":"10025"},{"id":"_WWH46Z3RvdM6TO3hqVa8A","name":"Chipotle Mexican Grill","cuisine":"Mexican","address":"304 W 34th St","coordinates":{"latitude":40.7521935,"longitude":-73.9938354},"review_count":168,"rating":3,"zip_code":"10001"},{"id":"jB5fXguSmlX65asSB3KIfQ","name":"Charrito's Restaurant","cuisine":"Mexican","address":"974 Blvd E","coordinates":{"latitude":40.77707,"longitude":-74.0136},"review_count":452,"rating":3.5,"zip_code":"07086"},{"id":"zjnnccSIpMdx5fN-MxAr_w","name":"La Superior","cuisine":"Mexican","address":"295 Berry St","coordinates":{"latitude":40.71357,"longitude":-73.96363},"review_count":496,"rating":3.5,"zip_code":"11211"},{"id":"E_oFzRY-7j9T04qHkORCsw","name":"Santa Fe","cuisine":"Mexican","address":"73 W 71st St","coordinates":{"latitude":40.7767077615034,"longitude":-73.9789559105304},"review_count":140,"rating":3.5,"zip_code":"10023"},{"id":"6rM-N1SBbKPC7DWZNg5awQ","name":"Los Portales","cuisine":"Mexican","address":"2508 Broadway","coordinates":{"latitude":40.7631768211379,"longitude":-73.9282260153443},"review_count":205,"rating":4,"zip_code":"11105"},{"id":"hiEgXuKHzCZDg6ByV0HuTQ","name":"Pachanga Patterson","cuisine":"Mexican","address":"33-17 31st Ave","coordinates":{"latitude":40.76349,"longitude":-73.92109},"review_count":378,"rating":3.5,"zip_code":"11103"},{"id":"9zLUJSScvExs91YizSTLRQ","name":"Moe's Southwest Grill","cuisine":"Mexican","address":"1029A Ave Of The Americas","coordinates":{"latitude":40.7527917,"longitude":-73.9859157},"review_count":101,"rating":3.5,"zip_code":"10018"},{"id":"sul_ihulQ5VUPNbk9liWqA","name":"Cantina Rooftop","cuisine":"Mexican","address":"605 W 48th St","coordinates":{"latitude":40.765101,"longitude":-73.996046},"review_count":271,"rating":2.5,"zip_code":"10036"},{"id":"yNDY2nPrmXR0bfUAsIngxA","name":"Taco Bell","cuisine":"Mexican","address":"18 E 14th St","coordinates":{"latitude":40.73529,"longitude":-73.99285},"review_count":116,"rating":3.5,"zip_code":"10003"},{"id":"skN-mgnOezFQr9YNh5G5TQ","name":"Lolita's Kitchen","cuisine":"Mexican","address":"1364 Lexington Ave","coordinates":{"latitude":40.7824207446896,"longitude":-73.9534502033954},"review_count":61,"rating":4,"zip_code":"10128"},{"id":"jgFMmMnwipOBv8jOUQpjRQ","name":"El Original TX MX","cuisine":"Mexican","address":"735 10th Ave","coordinates":{"latitude":40.764496514454,"longitude":-73.9921226352453},"review_count":316,"rating":3,"zip_code":"10019"},{"id":"7RgdHGMY9Xa2Ur5y7vSBZQ","name":"Homemade Taqueria","cuisine":"Mexican","address":"45-09 34th Ave","coordinates":{"latitude":40.7546939084048,"longitude":-73.9165629007979},"review_count":253,"rating":4,"zip_code":"11101"},{"id":"jFYEsw6_4y4VMpSVB863sw","name":"Mojave","cuisine":"Mexican","address":"22-36 31st St","coordinates":{"latitude":40.7753290076368,"longitude":-73.9119911693115},"review_count":612,"rating":3.5,"zip_code":"11105"},{"id":"E4bvZKVGLolSwNBPjw2JMA","name":"Cholo Noir","cuisine":"Mexican","address":"503 E 6th St","coordinates":{"latitude":40.72548,"longitude":-73.98342},"review_count":47,"rating":4,"zip_code":"10009"}]}
