{"businesses":[{"id":"a0IET3_yCFcO36OqGSsisg","name":"Eataly","cuisine":"Italian","address":"200 5th Ave","coordinates":{"latitude":40.74195877796,"longitude":-73.989716662832},"review_count":4856,"rating":4,"zip_code":"10010"},{"id":"zj8Lq1T8KIC5zwFief15jg","name":"Prince Street Pizza","cuisine":"Italian","address":"27 Prince St","coordinates":{"latitude":40.7229087705545,"longitude":-73.9944863319397},"review_count":1722,"rating":4.5,"zip_code":"10012"},{"id":"22nKUyCIbpnzR6R3_g1ptQ","name":"Carmine's Italian Restaurant - Times Square","cuisine":"Italian","address":"200 W 44th St","coordinates":{"latitude":40.7575102204203,"longitude":-73.9867817215653},"review_count":2867,"rating":4,"zip_code":"10036"},{"id":"rp8S7scxOkVVeG7dNneMGQ","name":"L'Artusi","cuisine":"Italian","address":"228 W 10th St","coordinates":{"latitude":40.733714,"longitude":-74.005068},"review_count":1475,"rating":4.5,"zip_code":"10014"},{"id":"raqwXUBlnc0e8c7CYmxEJQ","name":"Scarpetta","cuisine":"Italian","address":"88 Madison Ave","coordinates":{"latitude":40.7444728,"longitude":-73.9855426},"review_count":1619,"rating":4,"zip_code":"10016"},{"id":"P4hm-IKNMbBbtfWSvPf25A","name":"The Meatball Shop","cuisine":"Italian","address":"84 Stanton St","coordinates":{"latitude":40.7214961,"longitude":-73.9887357},"review_count":2637,"rating":4,"zip_code":"10002"},{"id":"5TX0X8w5ssIACU_pnBEq6g","name":"Tony's Di Napoli","cuisine":"Italian","address":"147 W 43rd St","coordinates":{"latitude":40.75641,"longitude":-73.98547},"review_count":1640,"rating":4,"zip_code":"10036"},{"id":"-hUvO0C0A-pGZdiSKvjoFw","name":"Babbo","cuisine":"Italian","address":"110 Waverly Pl","coordinates":{"latitude":40.732283,"longitude":-73.999284},"review_count":2192,"rating":4,"zip_code":"10011"},{"id":"c3D2ckzacnPtdGIM8tb-_w","name":"B Side Pizza & Wine Bar","cuisine":"Italian","address":"370 W 51st St","coordinates":{"latitude":40.76394,"longitude":-73.9883399},"review_count":839,"rating":4.5,"zip_code":"10019"},{"id":"WG639VkTjmK5dzydd1BBJA","name":"Rubirosa","cuisine":"Italian","address":"235 Mulberry St","coordinates":{"latitude":40.72275,"longitude":-73.99622},"review_count":1550,"rating":4,"zip_code":"10012"},{"id":"VtJd1l64kqUUyWacwK0J2Q","name":"Veniero's","cuisine":"Italian","address":"342 E 11th St","coordinates":{"latitude":40.72941,"longitude":-73.98454},"review_count":1779,"rating":4,"zip_code":"10003"},{"id":"OAqsZMbjv66nOMqlimnYuQ","name":"Uva","cuisine":"Italian","address":"1486 2nd Ave","coordinates":{"latitude":40.77216,"longitude":-73.95556},"review_count":1977,"rating":4,"zip_code":"10075"},{"id":"DoSU8IPq-Py_YV3kYmXPfQ","name":"Trattoria Trecolori","cuisine":"Italian","address":"254 W 47th St","coordinates":{"latitude":40.75987,"longitude":-73.98679},"review_count":1726,"rating":4,"zip_code":"10036"},{"id":"QObHX0yR6zd0WfksRDbJTA","name":"Becco","cuisine":"Italian","address":"355 W 46th St","coordinates":{"latitude":40.76083,"longitude":-73.98981},"review_count":2394,"rating":3.5,"zip_code":"10036"},{"id":"N-rwVhnEtXg8yY_TlB_KZw","name":"Del Posto","cuisine":"Italian","address":"85 10th Ave","coordinates":{"latitude":40.7434155953035,"longitude":-74.007533013261},"review_count":1254,"rating":4,"zip_code":"10011"},{"id":"xQ445GaWVN5Aa3sFX9OoIg","name":"Buvette","cuisine":"Italian","address":"42 Grove St","coordinates":{"latitude":40.732852,"longitude":-74.004213},"review_count":1413,"rating":4,"zip_code":"10014"},{"id":"bEXTA_Gwo2oVg4gnFd9fNA","name":"Ai Fiori","cuisine":"Italian","address":"400 5th Ave","coordinates":{"latitude":40.750159,"longitude":-73.983882},"review_count":1061,"rating":4,"zip_code":"10018"},{"id":"V-FCEicobl5Su-R7EVJQNA","name":"La Lanterna Di Vittorio","cuisine":"Italian","address":"129 MacDougal St","coordinates":{"latitude":40.73069,"longitude":-74.00015},"review_count":1290,"rating":4,"zip_code":"10012"},{"id":"oJ_XSPZFpvIt6rvheSQl7A","name":"Bleecker Street Pizza","cuisine":"Italian","address":"69 7th Ave S","coordinates":{"latitude":40.7320627016512,"longitude":-74.0036552270137},"review_count":1717,"rating":4,"zip_code":"10014"},{"id":"jdNdy-MwBtnXoBGC_JVvwQ","name":"Gaia Italian Café","cuisine":"Italian","address":"251 E Houston St","coordinates":{"latitude":40.721653,"longitude":-73.985346},"review_count":876,"rating":4.5,"zip_code":"10002"},{"id":"d7Asc4q2ImoPlA_BhfroTQ","name":"Kesté Pizza & Vino","cuisine":"Italian","address":"271 Bleecker St","coordinates":{"latitude":40.73154,"longitude":-74.00293},"review_count":1234,"rating":4,"zip_code":"10014"},{"id":"yZJbealagfujEkgesAl2hA","name":"Lupa","cuisine":"Italian","address":"170 Thompson St","coordinates":{"latitude":40.7276,"longitude":-74.000045},"review_count":1345,"rating":4,"zip_code":"10012"},{"id":"eVk4F9ixl89zyUHJ1G2Aiw","name":"Luzzo's","cuisine":"Italian","address":"211 1st Ave","coordinates":{"latitude":40.730551,"longitude":-73.9834846},"review_count":983,"rating":4,"zip_code":"10003"},{"id":"yi6jIxzHo-nbAOG4KWuqcw","name":"Maialino","cuisine":"Italian","address":"2 Lexington Ave","coordinates":{"latitude":40.738437,"longitude":-73.985686},"review_count":1219,"rating":4,"zip_code":"10010"},{"id":"IErfGS0DASSJfYU73m0Sqg","name":"Malatesta Trattoria","cuisine":"Italian","address":"649 Washington St","coordinates":{"latitude":40.73285,"longitude":-74.00847},"review_count":1099,"rating":4,"zip_code":"10014"},{"id":"pk89jzL1RsE9U0thf_z6tw","name":"Locanda Verde","cuisine":"Italian","address":"377 Greenwich St","coordinates":{"latitude":40.7198601300801,"longitude":-74.010039072422},"review_count":1422,"rating":4,"zip_code":"10013"},{"id":"A2DV-AQIXRYUMu5Ak5mjxg","name":"Patzeria Family & Friends","cuisine":"Italian","address":"311 W 48th St","coordinates":{"latitude":40.7615,"longitude":-73.98754},"review_count":762,"rating":4.5,"zip_code":"10036"},{"id":"ADHX7nBixDPVlq3OXhny0g","name":"Faicco's Italian Specialties","cuisine":"Italian","address":"260 Bleecker St","coordinates":{"latitude":40.73113,"longitude":-74.00306},"review_count":408,"rating":4.5,"zip_code":"10014"},{"id":"FKzpfWUpyupl4q74Jt8fTA","name":"Don Antonio","cuisine":"Italian","address":"309 W 50th St","coordinates":{"latitude":40.762711,"longitude":-73.986708},"review_count":1142,"rating":4,"zip_code":"10019"},{"id":"5Akss-swwfyoSVeIsDBbvw","name":"Basta Pasta","cuisine":"Italian","address":"37 W 17th St","coordinates":{"latitude":40.73881,"longitude":-73.99407},"review_count":1287,"rating":3.5,"zip_code":"10011"},{"id":"yH6t1JWcwkdWG4CS5KPvow","name":"Adrienne's Pizzabar","cuisine":"Italian","address":"54 Stone St","coordinates":{"latitude":40.7043362,"longitude":-74.0101733},"review_count":1356,"rating":4,"zip_code":"10004"},{"id":"xsQTIeq-WLkp4ParkTQpMQ","name":"Pizzarte","cuisine":"Italian","address":"69 W 55th St","coordinates":{"latitude":40.7629335072372,"longitude":-73.9776668697596},"review_count":858,"rating":4,"zip_code":"10019"},{"id":"9iC39Z1YjZKbrrCANgzBXg","name":"Sergimmo Salumeria","cuisine":"Italian","address":"456 9th Ave","coordinates":{"latitude":40.754296,"longitude":-73.995498},"review_count":587,"rating":4,"zip_code":"10018"},{"id":"8qSOz7oTPUUCafsMOBBNEQ","name":"Pisillo Italian Panini","cuisine":"Italian","address":"97 Nassau St","coordinates":{"latitude":40.7104975,"longitude":-74.0076675},"review_count":457,"rating":4.5,"zip_code":"10038"},{"id":"dc3hkLkAqCSxDWQzrx-g9A","name":"Quality Italian","cuisine":"Italian","address":"57 W 57th St","coordinates":{"latitude":40.7644044527436,"longitude":-73.9767805051616},"review_count":786,"rating":4,"zip_code":"10019"},{"id":"16ZnHpuaaBt92XWeJHCC5A","name":"Olio e Piú","cuisine":"Italian","address":"3 Greenwich Ave","coordinates":{"latitude":40.733826,"longitude":-73.999852},"review_count":1057,"rating":4,"zip_code":"10014"},{"id":"yFtOtTd7ncSjFF3QavQ5cA","name":"Crispo","cuisine":"Italian","address":"240 W 14th St","coordinates":{"latitude":40.7392469,"longitude":-74.0016882},"review_count":848,"rating":4,"zip_code":"10011"},{"id":"KCBfW6sWl9Gx-LvMff08jg","name":"Osteria Morini","cuisine":"Italian","address":"218 Lafayette St","coordinates":{"latitude":40.7219179851303,"longitude":-73.9976472073402},"review_count":968,"rating":4,"zip_code":"10012"},{"id":"J0OeDwmh5JBhid0A5GvltA","name":"Il Corallo Trattoria","cuisine":"Italian","address":"176 Prince St","coordinates":{"latitude":40.7262073,"longitude":-74.0018919},"review_count":785,"rating":4,"zip_code":"10012"},{"id":"vjubSxmdG_HoBBgd39geBw","name":"Nino's 46","cuisine":"Italian","address":"39 W 46th St","coordinates":{"latitude":40.7569159,"longitude":-73.980516},"review_count":925,"rating":4,"zip_code":"10036"},{"id":"WHQpLvxkCK_BMtF8pIShnQ","name":"Carroll Place","cuisine":"Italian","address":"157 Bleecker St","coordinates":{"latitude":40.7286329,"longitude":-73.9998011},"review_count":774,"rating":4,"zip_code":"10012"},{"id":"MOwB9YYd-Ko6nVgSB-ltQw","name":"Briciola","cuisine":"Italian","address":"370 W 51st St","coordinates":{"latitude":40.7637997047278,"longitude":-73.9880919456482},"review_count":655,"rating":4,"zip_code":"10019"},{"id":"AHVlPpOkiEl9maijGhar-Q","name":"The Meatball Shop","cuisine":"Italian","address":"64 Greenwich Ave","coordinates":{"latitude":40.736125,"longitude":-74.000607},"review_count":808,"rating":4,"zip_code":"10011"},{"id":"kqewBLuQDB3euc-s_mRf4A","name":"Otto Enoteca Pizzeria","cuisine":"Italian","address":"One Fifth Ave At 8th St","coordinates":{"latitude":40.7320605431463,"longitude":-73.996197909787},"review_count":1973,"rating":3.5,"zip_code":"10003"},{"id":"04exhf1PZ79_Km9vHAzvfA","name":"Pepe Rosso Social","cuisine":"Italian","address":"173 Mott St","coordinates":{"latitude":40.7200621068478,"longitude":-73.9961392432451},"review_count":666,"rating":4,"zip_code":"10013"},{"id":"J9xVQScnr0lYWl61_mLXMA","name":"Lido","cuisine":"Italian","address":"2168 Frederick Douglass Blvd","coordinates":{"latitude":40.8049797781916,"longitude":-73.9548260014624},"review_count":798,"rating":4,"zip_code":"10026"},{"id":"KpBfFpjzsGvvqAzCasVW0g","name":"Extra Virgin","cuisine":"Italian","address":"259 W 4th St","coordinates":{"latitude":40.7353962496717,"longitude":-74.0031888223197},"review_count":1112,"rating":4,"zip_code":"10014"},{"id":"mTWlEiCUEBlxBAkIikkB1A","name":"Carmine's Italian Restaurant - Upper West Side","cuisine":"Italian","address":"2450 Broadway","coordinates":{"latitude":40.791077,"longitude":-73.973763},"review_count":1056,"rating":4,"zip_code":"10024"},{"id":"ugIv_ylUdqRIlx6AD8lTJA","name":"Basso56","cuisine":"Italian","address":"234 W 56th St","coordinates":{"latitude":40.7655,"longitude":-73.98267},"review_count":520,"rating":4,"zip_code":"10019"},{"id":"Vs8kQ4R381y27AH018gLpg","name":"Supper","cuisine":"Italian","address":"156 E 2nd St","coordinates":{"latitude":40.7229,"longitude":-73.98527},"review_count":1112,"rating":4,"zip_code":"10009"},{"id":"wZkZmjZEJDraLJgAalnHvA","name":"Pisticci","cuisine":"Italian","address":"125 La Salle St","coordinates":{"latitude":40.8141624,"longitude":-73.960288},"review_count":690,"rating":4,"zip_code":"10027"},{"id":"efYELOeAJ-CjKpzayEfblg","name":"Cornerstone Cafe","cuisine":"Italian","address":"17 Ave B","coordinates":{"latitude":40.7220618263077,"longitude":-73.983249573445},"review_count":966,"rating":4,"zip_code":"10009"},{"id":"hdiuRS9sVZSMReZm4oV5SA","name":"Da Andrea","cuisine":"Italian","address":"35 W 13th St","coordinates":{"latitude":40.736218,"longitude":-73.99597},"review_count":655,"rating":4,"zip_code":"10011"},{"id":"6Z5OWpaeGGazJHR4LfThsw","name":"Palma","cuisine":"Italian","address":"28 Cornelia St","coordinates":{"latitude":40.73115,"longitude":-74.00233},"review_count":587,"rating":4,"zip_code":"10014"},{"id":"Z67mgMkN3RfdPEX5mXsyYA","name":"Piacere","cuisine":"Italian","address":"351 Broome St","coordinates":{"latitude":40.7196979,"longitude":-73.9951175},"review_count":597,"rating":4,"zip_code":"10013"},{"id":"5ZEFbq_AQV5VQFG2JKYzlA","name":"Giorgio's of Gramercy","cuisine":"Italian","address":"27 E 21st St","coordinates":{"latitude":40.7394209879325,"longitude":-73.9885425567627},"review_count":687,"rating":4,"zip_code":"10010"},{"id":"LXdblKc5g1Dp17xiV-Am1w","name":"Trattoria Dell'Arte","cuisine":"Italian","address":"900 7th Ave","coordinates":{"latitude":40.765295646702,"longitude":-73.98046281606},"review_count":780,"rating":4,"zip_code":"10019"},{"id":"F2YbqhVr6hBsFrDCyr6M_w","name":"The Meatball Shop","cuisine":"Italian","address":"200 9th Ave","coordinates":{"latitude":40.7459138,"longitude":-74.0015369},"review_count":779,"rating":4,"zip_code":"10011"},{"id":"yc4vsT-Q4Ej1_9hr94DxkQ","name":"Sotto 13","cuisine":"Italian","address":"140 W 13th St","coordinates":{"latitude":40.73729,"longitude":-73.9991299},"review_count":732,"rating":4,"zip_code":"10011"},{"id":"pxtno4adrYTjyQsxngTj9A","name":"dell'anima","cuisine":"Italian","address":"38 8th Ave","coordinates":{"latitude":40.7379511,"longitude":-74.0039166},"review_count":577,"rating":4,"zip_code":"10014"},{"id":"na-2_gQCY7ccS2ZkLJDumQ","name":"Waldy's Wood Fired Pizza & Penne","cuisine":"Italian","address":"800 6th Ave","coordinates":{"latitude":40.7457666039821,"longitude":-73.9906402533629},"review_count":723,"rating":4,"zip_code":"10001"},{"id":"rZ9OFoSqy8u4WECfh--ylg","name":"Marta","cuisine":"Italian","address":"29 E 29th St","coordinates":{"latitude":40.7445882,"longitude":-73.9847936},"review_count":677,"rating":4,"zip_code":"10016"},{"id":"7_hGsGEkHrjgAiYVjrCFnw","name":"Carbone","cuisine":"Italian","address":"181 Thompson St","coordinates":{"latitude":40.728,"longitude":-74.0001497},"review_count":690,"rating":4,"zip_code":"10012"},{"id":"V3USzFEGhuoXez4G2Rk11A","name":"Tavola","cuisine":"Italian","address":"488 9th Ave","coordinates":{"latitude":40.755403,"longitude":-73.994516},"review_count":675,"rating":4,"zip_code":"10018"},{"id":"cnMNL1O_dVtCdTyQwwOwOQ","name":"Bistango","cuisine":"Italian","address":"415 3rd Ave","coordinates":{"latitude":40.7425771,"longitude":-73.9800892},"review_count":615,"rating":4,"zip_code":"10016"},{"id":"S8OKQ5S40oZ1Rr5RbC0jdg","name":"Motorino","cuisine":"Italian","address":"349 E 12th St","coordinates":{"latitude":40.73039,"longitude":-73.98381},"review_count":1014,"rating":3.5,"zip_code":"10003"},{"id":"I2lgw_7DUnwD92ND4PN-Ow","name":"Aunt Jake's","cuisine":"Italian","address":"149 Mulberry St","coordinates":{"latitude":40.7190315,"longitude":-73.9977161},"review_count":689,"rating":4,"zip_code":"10013"},{"id":"LTi4_wcCVmqQeJ_jgTEbOQ","name":"Emporio","cuisine":"Italian","address":"231 Mott St","coordinates":{"latitude":40.7226371,"longitude":-73.9951331},"review_count":640,"rating":4,"zip_code":"10012"},{"id":"EegEULbC3qoMA-FaEjivtA","name":"Barbuto","cuisine":"Italian","address":"775 Washington St","coordinates":{"latitude":40.7377203192966,"longitude":-74.0080020711638},"review_count":816,"rating":4,"zip_code":"10014"},{"id":"k5fd-RSdG4IuXnnGSQ5oOw","name":"San Marzano Pasta Fresca","cuisine":"Italian","address":"117 Second Ave","coordinates":{"latitude":40.727989,"longitude":-73.98845},"review_count":756,"rating":4,"zip_code":"10003"},{"id":"3qIISjUYn1tbqHXi7nCLXg","name":"Sofia Wine Bar","cuisine":"Italian","address":"242 E 50th St","coordinates":{"latitude":40.75492,"longitude":-73.96922},"review_count":563,"rating":4,"zip_code":"10022"},{"id":"15k7iqFbhf4h8L01yggLqg","name":"Song E Napule","cuisine":"Italian","address":"146 W Houston St","coordinates":{"latitude":40.7280296,"longitude":-74.0018334},"review_count":291,"rating":4.5,"zip_code":"10012"},{"id":"X8Hl9OezX-Yr9Jir3fsF7g","name":"Posto","cuisine":"Italian","address":"310 2nd Ave","coordinates":{"latitude":40.73483,"longitude":-73.98282},"review_count":545,"rating":4,"zip_code":"10003"},{"id":"MeUq9lombxM9alxs64tejQ","name":"Pepolino Restaurant","cuisine":"Italian","address":"281 W Broadway","coordinates":{"latitude":40.72077,"longitude":-74.00489},"review_count":444,"rating":4.5,"zip_code":"10013"},{"id":"z0ISq18mrnq9y3AupMn7MA","name":"Merilu Pizza Al Metro","cuisine":"Italian","address":"791 9th Ave","coordinates":{"latitude":40.76527,"longitude":-73.98805},"review_count":455,"rating":4,"zip_code":"10019"},{"id":"TWH4MjLtN1fKlF-7n6YXHg","name":"Lil' Frankie's","cuisine":"Italian","address":"19 1st Ave","coordinates":{"latitude":40.723625,"longitude":-73.988555},"review_count":864,"rating":4,"zip_code":"10003"},{"id":"dh5r9-SbN8xJ76XvnayWLQ","name":"Giano Restaurant","cuisine":"Italian","address":"126 E 7th St","coordinates":{"latitude":40.7262256596862,"longitude":-73.9840574049125},"review_count":488,"rating":4,"zip_code":"10009"},{"id":"kVrTff8uDMSBAaceBwQ7dg","name":"Saluggi's","cuisine":"Italian","address":"325 Church St","coordinates":{"latitude":40.720104,"longitude":-74.003578},"review_count":524,"rating":4,"zip_code":"10013"},{"id":"DtnlLLvcqeEUIyZTypHnzw","name":"Il Mulino New York - Downtown","cuisine":"Italian","address":"86 W 3rd St","coordinates":{"latitude":40.729807,"longitude":-73.999159},"review_count":478,"rating":4,"zip_code":"10012"},{"id":"h9rymMeMUMOxQ9d93U0YDg","name":"Baker & Co","cuisine":"Italian","address":"259 Bleecker St","coordinates":{"latitude":40.7313423,"longitude":-74.0028996},"review_count":525,"rating":4,"zip_code":"10014"},{"id":"MphfKkYFEe0BDQ6hZ0A5fA","name":"Gelso & Grand","cuisine":"Italian","address":"186 Grand St","coordinates":{"latitude":40.7194089547259,"longitude":-73.9973777877722},"review_count":482,"rating":4,"zip_code":"10013"},{"id":"PajKY49h4SpvSr-TW3lwCQ","name":"Rafele Ristorante","cuisine":"Italian","address":"29 7th Ave S","coordinates":{"latitude":40.7309471231405,"longitude":-74.0041171779098},"review_count":385,"rating":4.5,"zip_code":"10014"},{"id":"twHJyFgUSd7wzioKQjE7Jw","name":"Galli Restaurant","cuisine":"Italian","address":"45 Mercer St","coordinates":{"latitude":40.72168,"longitude":-74.00141},"review_count":708,"rating":4,"zip_code":"10013"},{"id":"LnMRZhKtOrW1eL04FiPYTg","name":"Senza Gluten","cuisine":"Italian","address":"206 Sullivan St","coordinates":{"latitude":40.7290911050589,"longitude":-74.0003699151971},"review_count":384,"rating":4.5,"zip_code":"10012"},{"id":"BgGz5IdV53bGb4o7opR5zg","name":"Arturo's","cuisine":"Italian","address":"106 W Houston St","coordinates":{"latitude":40.7273563342024,"longitude":-74.0004944801331},"review_count":582,"rating":4,"zip_code":"10012"},{"id":"0-hM-ARw7sLpkyyow_qf6w","name":"Artichoke Basille's Pizza","cuisine":"Italian","address":"114 10th Ave","coordinates":{"latitude":40.7440239266286,"longitude":-74.0064220257327},"review_count":1319,"rating":3.5,"zip_code":"10011"},{"id":"-Td-YEPTOUq2H3LRWgRxUw","name":"Non Solo Piada","cuisine":"Italian","address":"302 W 37th St","coordinates":{"latitude":40.75414,"longitude":-73.99245},"review_count":184,"rating":5,"zip_code":"10018"},{"id":"XHhRAKq6DArQXYhkgvwaow","name":"Spaghetti Incident","cuisine":"Italian","address":"231 Eldridge St","coordinates":{"latitude":40.7223153441439,"longitude":-73.9899454318763},"review_count":431,"rating":4,"zip_code":"10002"},{"id":"Ve6GVzzJpR5QIIPdcn6ViQ","name":"Mercato","cuisine":"Italian","address":"352 W 39th St","coordinates":{"latitude":40.75619,"longitude":-73.9937},"review_count":698,"rating":4,"zip_code":"10018"},{"id":"ZMFj1vCfQWdSAtwyjqRUlw","name":"Felidia","cuisine":"Italian","address":"243 E 58th St","coordinates":{"latitude":40.76036,"longitude":-73.96512},"review_count":453,"rating":4,"zip_code":"10022"},{"id":"faukkggAc_tuJ4THYlf4fg","name":"La Masseria","cuisine":"Italian","address":"235 W 48th St","coordinates":{"latitude":40.760868632784,"longitude":-73.986348802868},"review_count":495,"rating":4,"zip_code":"10036"},{"id":"7Oq1UdUHUGZGH_QI6N-0LQ","name":"Hearth","cuisine":"Italian","address":"403 E 12th St","coordinates":{"latitude":40.7300466,"longitude":-73.9832498},"review_count":635,"rating":4,"zip_code":"10009"},{"id":"kIm0oeOaVfC9-2flLPVklA","name":"Patrizia's Pizza and Pasta","cuisine":"Italian","address":"462-466 2nd Ave","coordinates":{"latitude":40.7398415,"longitude":-73.9792862},"review_count":375,"rating":4,"zip_code":"10016"},{"id":"zg9Jrtx9rqTXeaqufSOxHQ","name":"Masseria Dei Vini","cuisine":"Italian","address":"887 9th Ave","coordinates":{"latitude":40.7682379335165,"longitude":-73.9855485409498},"review_count":366,"rating":4,"zip_code":"10019"},{"id":"tRIHhPKryUZ56SfIz6mLiA","name":"Angelo's Coal Oven Pizzeria","cuisine":"Italian","address":"117 W 57th St","coordinates":{"latitude":40.76492,"longitude":-73.97794},"review_count":641,"rating":4,"zip_code":"10019"},{"id":"rJJiGJx3kfMAxtD7P7okHQ","name":"Celeste","cuisine":"Italian","address":"502 Amsterdam Ave","coordinates":{"latitude":40.78666,"longitude":-73.97599},"review_count":800,"rating":3.5,"zip_code":"10024"},{"id":"geNwD4ySIwA732eK2CvDZw","name":"B Squared","cuisine":"Italian","address":"679 9th Ave","coordinates":{"latitude":40.7615509,"longitude":-73.9906616},"review_count":266,"rating":4.5,"zip_code":"10036"},{"id":"DI_FoHY84hfzTWwlzF76aw","name":"Benito One","cuisine":"Italian","address":"174 Mulberry St","coordinates":{"latitude":40.7199876084147,"longitude":-73.9969271421432},"review_count":531,"rating":4,"zip_code":"10013"},{"id":"lwfCl81r5a0mjxDNxNGC9w","name":"Il Buco","cuisine":"Italian","address":"47 Bond St","coordinates":{"latitude":40.72583,"longitude":-73.99299},"review_count":550,"rating":4,"zip_code":"10012"},{"id":"gL4V5DN3yH45hbXqvy8-9g","name":"Pizza By Certé","cuisine":"Italian","address":"132 E 56th St","coordinates":{"latitude":40.7603726135173,"longitude":-73.9701185417372},"review_count":363,"rating":4,"zip_code":"10022"},{"id":"uDJw4dQiySoNCBoUalW1Ww","name":"Lincoln Ristorante","cuisine":"Italian","address":"142 W 65th St","coordinates":{"latitude":40.773359006218,"longitude":-73.9835011005249},"review_count":481,"rating":4,"zip_code":"10023"},{"id":"l7OsDvMOO3ji3fg0nT0QzA","name":"Tony's Di Napoli","cuisine":"Italian","address":"1081 3rd Ave","coordinates":{"latitude":40.76435,"longitude":-73.96408},"review_count":500,"rating":4,"zip_code":"10065"},{"id":"AUifp6IDKzmorCM6vY2fug","name":"Pepe Giallo","cuisine":"Italian","address":"195 10th Ave","coordinates":{"latitude":40.7468940064083,"longitude":-74.0049896784992},"review_count":491,"rating":4,"zip_code":"10011"},{"id":"Q1_UvNyONsaVS_VC1mD9Dw","name":"Osteria Cotta","cuisine":"Italian","address":"513 Columbus Ave","coordinates":{"latitude":40.78554,"longitude":-73.97263},"review_count":639,"rating":4,"zip_code":"10024"},{"id":"1uOB_tWZwvI0_HakXfu5Jg","name":"Nick's Pizza","cuisine":"Italian","address":"1814 2nd Ave","coordinates":{"latitude":40.78272,"longitude":-73.94781},"review_count":452,"rating":4,"zip_code":"10128"},{"id":"0Tvwk0hvgaY0QVIsZGTZKQ","name":"Antica Ristorante","cuisine":"Italian","address":"8 Stone St","coordinates":{"latitude":40.7039355145338,"longitude":-74.0121731758117},"review_count":374,"rating":4.5,"zip_code":"10004"},{"id":"Cnqy9w1BFXZFEaChfox0ow","name":"Rosemary's","cuisine":"Italian","address":"18 Greenwich Ave","coordinates":{"latitude":40.7347241,"longitude":-73.9997973},"review_count":799,"rating":3.5,"zip_code":"10011"},{"id":"ZVa3-O6LMxZXSpKG0J1h-w","name":"Piccolo Angolo Restaurant","cuisine":"Italian","address":"621 Hudson St","coordinates":{"latitude":40.7378601855952,"longitude":-74.0058052539825},"review_count":458,"rating":4,"zip_code":"10014"},{"id":"pGr5QuQU7Ur5GHLvXbT8bw","name":"Paulie Gee's","cuisine":"Italian","address":"60 Greenpoint Ave","coordinates":{"latitude":40.729546,"longitude":-73.958568},"review_count":1053,"rating":4.5,"zip_code":"11222"},{"id":"goqTQ4tOD-asC_ZJBW9l7w","name":"Patsy's Italian Restaurant","cuisine":"Italian","address":"236 W 56th St","coordinates":{"latitude":40.76553,"longitude":-73.98274},"review_count":599,"rating":4,"zip_code":"10019"},{"id":"ONEe1U1fNGT80jAEE0sCrg","name":"Vapiano","cuisine":"Italian","address":"113 University Pl","coordinates":{"latitude":40.7343869142235,"longitude":-73.9921539848726},"review_count":997,"rating":3.5,"zip_code":"10003"},{"id":"HD0e3eHwv573qHZOJJitWg","name":"Aurora Soho","cuisine":"Italian","address":"510 Broome St","coordinates":{"latitude":40.723543,"longitude":-74.003199},"review_count":367,"rating":4,"zip_code":"10013"},{"id":"32VbG_XgkZIuye0PV-BxaA","name":"Zero Otto Nove","cuisine":"Italian","address":"15 W 21st St","coordinates":{"latitude":40.7407551035259,"longitude":-73.9914887388588},"review_count":394,"rating":4,"zip_code":"10010"},{"id":"RUfsaabXoeH_FDKS8ocWjA","name":"D'Amore Winebar & Ristorante","cuisine":"Italian","address":"118 E 116th St","coordinates":{"latitude":40.7986510380525,"longitude":-73.9424410834908},"review_count":192,"rating":4.5,"zip_code":"10029"},{"id":"xbrQ2dHuQoFJmNxAuOky4A","name":"Vic's","cuisine":"Italian","address":"31 Great Jones St","coordinates":{"latitude":40.72683,"longitude":-73.99328},"review_count":328,"rating":4,"zip_code":"10012"},{"id":"jku9Fg8JsUbv_LQzg6PK4g","name":"Lavagna","cuisine":"Italian","address":"545 E 5th St","coordinates":{"latitude":40.72406,"longitude":-73.98226},"review_count":331,"rating":4,"zip_code":"10009"},{"id":"Hv_jHNuw63oO-jtNXuWDVQ","name":"Spunto","cuisine":"Italian","address":"65 Carmine St","coordinates":{"latitude":40.7297584,"longitude":-74.0046303},"review_count":396,"rating":4,"zip_code":"10014"},{"id":"hzPBADaUBQEL30MGrvKsww","name":"Il Tinello Ristorante Italiano","cuisine":"Italian","address":"16 W 56th St","coordinates":{"latitude":40.76256,"longitude":-73.97566},"review_count":206,"rating":4.5,"zip_code":"10019"},{"id":"MoyxzhaYIsJx-p9IuGGK4w","name":"Stella 34 Trattoria","cuisine":"Italian","address":"Macy's 6th Floor - 35th Broadway Entrance","coordinates":{"latitude":40.7503815541938,"longitude":-73.9880325325882},"review_count":541,"rating":3.5,"zip_code":"10001"},{"id":"r_fUOUhz-pHZxFDV1hzy0w","name":"Peasant","cuisine":"Italian","address":"194 Elizabeth St","coordinates":{"latitude":40.72171,"longitude":-73.99428},"review_count":631,"rating":4,"zip_code":"10012"},{"id":"n_NIY1KTi-R5DPkduEUKIw","name":"Ovest Pizzoteca","cuisine":"Italian","address":"513 W 27th St","coordinates":{"latitude":40.7507476806641,"longitude":-74.0030212402344},"review_count":448,"rating":4,"zip_code":"10001"},{"id":"5MpWHGQ6Qc-M4q1KL_nioA","name":"Bar B","cuisine":"Italian","address":"84 7th Ave","coordinates":{"latitude":40.7395018010206,"longitude":-73.9990556562659},"review_count":139,"rating":4.5,"zip_code":"10011"},{"id":"WYhRkUATHRyXZrE55MArbA","name":"Scalini Fedeli","cuisine":"Italian","address":"165 Duane St","coordinates":{"latitude":40.7173964385114,"longitude":-74.0093277537459},"review_count":273,"rating":4.5,"zip_code":"10013"},{"id":"CAGAWbPE8uPr2VVvEnv0ZA","name":"Ribalta Pizza","cuisine":"Italian","address":"48 E 12th St","coordinates":{"latitude":40.7334346,"longitude":-73.9916923},"review_count":434,"rating":4,"zip_code":"10003"},{"id":"GZvelhGenbfJxc4_SG_RJw","name":"Cielo At the Mayfair","cuisine":"Italian","address":"242 W 49th St","coordinates":{"latitude":40.761195,"longitude":-73.9859352},"review_count":351,"rating":4,"zip_code":"10019"},{"id":"P2CTp4xyaNCe2AXSiLeOSQ","name":"The Odeon","cuisine":"Italian","address":"145 W Broadway","coordinates":{"latitude":40.71692,"longitude":-74.00792},"review_count":546,"rating":4,"zip_code":"10013"},{"id":"kLJfizeHMQqesp1K9mfUtg","name":"Via Quadronno","cuisine":"Italian","address":"25 E 73rd St","coordinates":{"latitude":40.77277,"longitude":-73.96514},"review_count":455,"rating":4,"zip_code":"10021"},{"id":"ip733nbgjaMMazfQ-Ibhgg","name":"Fiat Cafe","cuisine":"Italian","address":"203 Mott St","coordinates":{"latitude":40.7214697,"longitude":-73.9956631},"review_count":464,"rating":4,"zip_code":"10012"},{"id":"rupPZLhd0oRSAmVDaeYaGA","name":"Bocca di Bacco Hell's Kitchen","cuisine":"Italian","address":"828 9th Ave","coordinates":{"latitude":40.7662168,"longitude":-73.9867943},"review_count":569,"rating":3.5,"zip_code":"10019"},{"id":"f8TZ_ctcSwxwW8S69YKnwg","name":"Il Bambino","cuisine":"Italian","address":"34-08 31st Ave","coordinates":{"latitude":40.76281,"longitude":-73.92089},"review_count":1136,"rating":4.5,"zip_code":"11106"},{"id":"f8ipr8Wdy1_wHhw7JgNqPQ","name":"Da Claudio","cuisine":"Italian","address":"21 Ann St","coordinates":{"latitude":40.71087,"longitude":-74.00753},"review_count":299,"rating":4,"zip_code":"10038"},{"id":"WG8vi6huvU1PkpY_R3whlw","name":"Trattoria Belvedere","cuisine":"Italian","address":"165 Lexington Ave","coordinates":{"latitude":40.74397,"longitude":-73.98114},"review_count":294,"rating":4,"zip_code":"10016"},{"id":"aJJlY5xvqS180wtRIHEWqA","name":"Cotenna","cuisine":"Italian","address":"21 Bedford St","coordinates":{"latitude":40.7288766399798,"longitude":-74.0034306011874},"review_count":310,"rating":4,"zip_code":"10014"},{"id":"3o0W7asUgP7EEKn8iFWFyA","name":"Casa Nonna","cuisine":"Italian","address":"310 W 38th St","coordinates":{"latitude":40.75496,"longitude":-73.99247},"review_count":406,"rating":4,"zip_code":"10018"},{"id":"JyXn_GCGM2DsNYIzgzQrDw","name":"Da Gennaro","cuisine":"Italian","address":"129 Mulberry St","coordinates":{"latitude":40.71832,"longitude":-73.99794},"review_count":571,"rating":4,"zip_code":"10013"},{"id":"u5gLdI6l6zsPxL2kOYbyfw","name":"Nizza","cuisine":"Italian","address":"630 9th Ave","coordinates":{"latitude":40.76018,"longitude":-73.99113},"review_count":604,"rating":3.5,"zip_code":"10036"},{"id":"VF3wSCRC3mE6JpBQPQXELA","name":"Parm","cuisine":"Italian","address":"248 Mulberry St","coordinates":{"latitude":40.72303,"longitude":-73.99567},"review_count":665,"rating":3.5,"zip_code":"10012"},{"id":"MA1QPFSYddVq_KzEldpcRg","name":"Aria Wine Bar","cuisine":"Italian","address":"117 Perry St","coordinates":{"latitude":40.73512,"longitude":-74.00671},"review_count":593,"rating":3.5,"zip_code":"10014"},{"id":"mk3UxnO9MQlJMsr_mMG9yQ","name":"Numero 28 Pizzeria - West Village","cuisine":"Italian","address":"28 Carmine St","coordinates":{"latitude":40.73012,"longitude":-74.00275},"review_count":416,"rating":4,"zip_code":"10014"},{"id":"Fu7J2Fwoj_S6Jpg9dULzKg","name":"Pepe Rosso To Go","cuisine":"Italian","address":"149 Sullivan St","coordinates":{"latitude":40.727127,"longitude":-74.001518},"review_count":336,"rating":4,"zip_code":"10012"},{"id":"jDIVPYpxQAk1HUAi0NIlQw","name":"Pazza Notte","cuisine":"Italian","address":"1375 Avenue Of The Americas","coordinates":{"latitude":40.7635099,"longitude":-73.978},"review_count":592,"rating":3.5,"zip_code":"10019"},{"id":"fL-JDsQ2I_MT7SpwfyHRFg","name":"The Meatball Shop","cuisine":"Italian","address":"1462 2nd Ave","coordinates":{"latitude":40.771569,"longitude":-73.9559804},"review_count":591,"rating":3.5,"zip_code":"10075"},{"id":"JLpEKUYAtzBRQwsUL3RPIA","name":"Il Corso","cuisine":"Italian","address":"54 W 55th St","coordinates":{"latitude":40.762463,"longitude":-73.977161},"review_count":254,"rating":4,"zip_code":"10019"},{"id":"z7H9ApIGopnDnQaglnPTzg","name":"Allora Ristorante","cuisine":"Italian","address":"145 E 47th St","coordinates":{"latitude":40.75433,"longitude":-73.97277},"review_count":208,"rating":4.5,"zip_code":"10017"},{"id":"6n7D4amt9vEruR73tt3S9w","name":"Cafe Fiorello","cuisine":"Italian","address":"1900 Broadway","coordinates":{"latitude":40.7713747769594,"longitude":-73.9819805324078},"review_count":629,"rating":3.5,"zip_code":"10023"},{"id":"GqTgQEqwf3k5JyE7DHDhjw","name":"Numero 28 Pizzeria Napoletana","cuisine":"Italian","address":"176 2nd Ave","coordinates":{"latitude":40.73041,"longitude":-73.98595},"review_count":487,"rating":4,"zip_code":"10003"},{"id":"jo30o65XFWmgMJS86zFiFQ","name":"La Mela Ristorante","cuisine":"Italian","address":"167 Mulberry St","coordinates":{"latitude":40.719928,"longitude":-73.997352},"review_count":645,"rating":3.5,"zip_code":"10013"},{"id":"bdKc4CSJPv-XLgxVwrtPrg","name":"Forlini's Restaurant","cuisine":"Italian","address":"93 Baxter St","coordinates":{"latitude":40.71695,"longitude":-73.99957},"review_count":283,"rating":4.5,"zip_code":"10013"},{"id":"UQZmhaPAMdZabid6ccvhTg","name":"Il Punto Ristorante","cuisine":"Italian","address":"507 9th Ave","coordinates":{"latitude":40.75612,"longitude":-73.99467},"review_count":278,"rating":4,"zip_code":"10018"},{"id":"y800EdmdRpesUgQYN4VXNw","name":"Caffe Reggio","cuisine":"Italian","address":"119 MacDougal St","coordinates":{"latitude":40.7302281,"longitude":-74.0004194},"review_count":529,"rating":3.5,"zip_code":"10012"},{"id":"bjzBkF2FFMsdkCk50xseFQ","name":"Etcetera Etcetera","cuisine":"Italian","address":"352 W 44th St","coordinates":{"latitude":40.75926,"longitude":-73.99115},"review_count":381,"rating":4,"zip_code":"10036"},{"id":"vZ5-JXlJS75k8wmPNS5U5w","name":"Max Soha","cuisine":"Italian","address":"1274 Amsterdam Ave","coordinates":{"latitude":40.811302,"longitude":-73.958183},"review_count":365,"rating":4,"zip_code":"10027"},{"id":"8-Ug0Zjs5sL6MARspRJ7CA","name":"Bond 45","cuisine":"Italian","address":"221 W 46th St","coordinates":{"latitude":40.7591637016814,"longitude":-73.9859788257256},"review_count":490,"rating":3.5,"zip_code":"10036"},{"id":"RXCCofQw1EjTcSN0ZeXfRA","name":"Risotteria Melotti NYC","cuisine":"Italian","address":"309 E 5th St","coordinates":{"latitude":40.726673363853,"longitude":-73.9880919456482},"review_count":232,"rating":4.5,"zip_code":"10003"},{"id":"cDUait5j29Pe0QynQ3JtYQ","name":"Gradisca","cuisine":"Italian","address":"126 W 13th St","coordinates":{"latitude":40.73709,"longitude":-73.99863},"review_count":344,"rating":4,"zip_code":"10011"},{"id":"He5DhOW-vf1WHjzQ_NMnTA","name":"Il Bambino","cuisine":"Italian","address":"48 W 8th St","coordinates":{"latitude":40.73313,"longitude":-73.99867},"review_count":143,"rating":4.5,"zip_code":"10011"},{"id":"gGkkzrcHh1xS-S55OsuKsw","name":"Santina","cuisine":"Italian","address":"820 Washington St","coordinates":{"latitude":40.7396,"longitude":-74.00844},"review_count":524,"rating":3.5,"zip_code":"10014"},{"id":"C3E8CVVwzKtOv_sRR1WuRQ","name":"Salumeria Rosi","cuisine":"Italian","address":"283 Amsterdam Ave","coordinates":{"latitude":40.77932,"longitude":-73.9809},"review_count":413,"rating":4,"zip_code":"10023"},{"id":"uPe0efNw-uwPybeqccZ1zQ","name":"Osteria Al Doge","cuisine":"Italian","address":"142 W 44th St","coordinates":{"latitude":40.75662,"longitude":-73.9849},"review_count":382,"rating":4,"zip_code":"10036"},{"id":"6aVgixwks8EgirE1JtyDAQ","name":"John's of 12th Street","cuisine":"Italian","address":"302 E 12th St","coordinates":{"latitude":40.73061,"longitude":-73.98554},"review_count":577,"rating":3.5,"zip_code":"10003"},{"id":"qBGKigOGn_flCx1apxPzlA","name":"Piccola Cucina Osteria","cuisine":"Italian","address":"196 Spring St","coordinates":{"latitude":40.72506,"longitude":-74.00322},"review_count":281,"rating":4.5,"zip_code":"10012"},{"id":"os09iVkYkzIg9G1xEIepiA","name":"Momofuku Nishi","cuisine":"Italian","address":"232 8th Ave","coordinates":{"latitude":40.7443479,"longitude":-73.9988054},"review_count":392,"rating":4,"zip_code":"10011"},{"id":"cGqMEMQFtkB3hIGfLy2R3A","name":"Bar Pitti","cuisine":"Italian","address":"268 Ave Of The Americas","coordinates":{"latitude":40.729047,"longitude":-74.002153},"review_count":856,"rating":3.5,"zip_code":"10014"},{"id":"iEUXrUUqGfUhpgYYSr5Zig","name":"Da Nico Ristorante","cuisine":"Italian","address":"164 Mulberry St","coordinates":{"latitude":40.71963,"longitude":-73.99691},"review_count":562,"rating":3.5,"zip_code":"10013"},{"id":"eWMuXtaBzf0H5u0Vf_zpjw","name":"Ciccio","cuisine":"Italian","address":"190 6th Ave","coordinates":{"latitude":40.726306,"longitude":-74.003427},"review_count":236,"rating":4,"zip_code":"10013"},{"id":"19zArMBG2qW2k16Y0i2aBA","name":"Obicà Mozzarella Bar Pizza e Cucina","cuisine":"Italian","address":"928 Broadway","coordinates":{"latitude":40.7400486,"longitude":-73.9893018},"review_count":347,"rating":4,"zip_code":"10010"},{"id":"3D6UAhoKnF3A03rX_v5ngA","name":"Bacaro","cuisine":"Italian","address":"136 Division St","coordinates":{"latitude":40.71456,"longitude":-73.99154},"review_count":357,"rating":4,"zip_code":"10002"},{"id":"xzN2k19JXDYjOWAhNw62aw","name":"Adoro Lei","cuisine":"Italian","address":"287 Hudson St","coordinates":{"latitude":40.725612,"longitude":-74.007916},"review_count":207,"rating":4.5,"zip_code":"10013"},{"id":"Sp-vnk-waTvKblG_88M4TA","name":"Trapizzino","cuisine":"Italian","address":"144 Orchard St","coordinates":{"latitude":40.72043,"longitude":-73.98894},"review_count":141,"rating":4.5,"zip_code":"10002"},{"id":"EL5Y6BSinmUte5VW4Eh54Q","name":"Frank","cuisine":"Italian","address":"88 2nd Ave","coordinates":{"latitude":40.7268483205383,"longitude":-73.9887172038649},"review_count":594,"rating":3.5,"zip_code":"10003"},{"id":"Tp3MF3DNXuW41A10PQ2nFw","name":"Amali","cuisine":"Italian","address":"115 E 60th St","coordinates":{"latitude":40.763437,"longitude":-73.968511},"review_count":317,"rating":4,"zip_code":"10022"},{"id":"vVVmHacu2YAxKfpIjhfd1g","name":"NORMA Gastronomia Siciliana","cuisine":"Italian","address":"438 3rd Ave","coordinates":{"latitude":40.743553,"longitude":-73.980026},"review_count":163,"rating":4.5,"zip_code":"10016"},{"id":"Mo8Q_bE6ehr00L2KC0DekQ","name":"Da Marcella","cuisine":"Italian","address":"142 W Houston St","coordinates":{"latitude":40.72806,"longitude":-74.00172},"review_count":225,"rating":4,"zip_code":"10012"},{"id":"iXV4FMZPru7BB_nwN_8mVw","name":"Maiella","cuisine":"Italian","address":"4610 Center Blvd","coordinates":{"latitude":40.7470416595732,"longitude":-73.956579002435},"review_count":571,"rating":4,"zip_code":"11109"},{"id":"6-ShONYFIM9K8HAUOhZVlw","name":"Da Mikele","cuisine":"Italian","address":"275 Church St","coordinates":{"latitude":40.718477,"longitude":-74.004802},"review_count":314,"rating":4,"zip_code":"10013"},{"id":"DCiEo7qucPaEj7Gtdj1U9A","name":"Sant Ambroeus","cuisine":"Italian","address":"1000 Madison Ave","coordinates":{"latitude":40.7752929376282,"longitude":-73.9629447443084},"review_count":318,"rating":4,"zip_code":"10021"},{"id":"HUY6yj38FXqAQvWUdgL0xA","name":"Pizzeria Sirenetta","cuisine":"Italian","address":"568 Amsterdam Ave","coordinates":{"latitude":40.788814,"longitude":-73.974594},"review_count":200,"rating":4,"zip_code":"10024"},{"id":"MeQU-nGaQvX12VXYOyzavQ","name":"Gruppo","cuisine":"Italian","address":"98 Ave B","coordinates":{"latitude":40.72474,"longitude":-73.98161},"review_count":209,"rating":4.5,"zip_code":"10009"},{"id":"E5rmVdrCn-0uwD2M9nkXdw","name":"Da Capo","cuisine":"Italian","address":"1392 Madison Ave","coordinates":{"latitude":40.7877696714384,"longitude":-73.9538384601474},"review_count":159,"rating":4.5,"zip_code":"10029"},{"id":"gyWc5qJRvu26LVQIShdR4Q","name":"Babbalucci","cuisine":"Italian","address":"331 Lenox Ave","coordinates":{"latitude":40.808854624629,"longitude":-73.9448426663876},"review_count":280,"rating":4,"zip_code":"10027"},{"id":"xKIv_b2L2pUHmsoJ-xOepg","name":"Gran Morsi","cuisine":"Italian","address":"22 Warren St","coordinates":{"latitude":40.714328,"longitude":-74.007751},"review_count":251,"rating":4.5,"zip_code":"10007"},{"id":"r_QyrpiVTXFva14r0mB_OA","name":"Piccolo Cafe","cuisine":"Italian","address":"157 3rd Ave","coordinates":{"latitude":40.73427,"longitude":-73.98625},"review_count":251,"rating":4,"zip_code":"10003"},{"id":"h4VCnZ2aZ33mdenS_ZI7jQ","name":"Mama Mia 44 SW","cuisine":"Italian","address":"621 9th Ave","coordinates":{"latitude":40.75976,"longitude":-73.99207},"review_count":349,"rating":4,"zip_code":"10036"},{"id":"YT5Ywu9y190B4IGIlBetzA","name":"Morandi","cuisine":"Italian","address":"211 Waverly Pl","coordinates":{"latitude":40.73534,"longitude":-74.00151},"review_count":578,"rating":3.5,"zip_code":"10014"},{"id":"f_1BjTChf6bobreSRpqhsw","name":"Arco Cafe","cuisine":"Italian","address":"886 Amsterdam Ave","coordinates":{"latitude":40.7988462,"longitude":-73.967065},"review_count":211,"rating":4.5,"zip_code":"10025"},{"id":"5xeTONqSB8hIXdPkhQQW7g","name":"Birreria","cuisine":"Italian","address":"200 5th Ave","coordinates":{"latitude":40.7420180432418,"longitude":-73.989967806221},"review_count":852,"rating":3,"zip_code":"10010"},{"id":"kDJbzzmCEjFbyDQ-lSygvw","name":"Fresh Salt","cuisine":"Italian","address":"146 Beekman St","coordinates":{"latitude":40.70707,"longitude":-74.00244},"review_count":357,"rating":4,"zip_code":"10038"},{"id":"CZOZ_iVcW7EH4U_lyPj4lg","name":"Zio Ristorante","cuisine":"Italian","address":"17 W 19th St","coordinates":{"latitude":40.7396006,"longitude":-73.9925876},"review_count":253,"rating":4,"zip_code":"10011"},{"id":"SpyQHasbnU5YkOR6PI4sNQ","name":"Margherita NYC","cuisine":"Italian","address":"197 Grand St","coordinates":{"latitude":40.7189865112305,"longitude":-73.9969329833984},"review_count":236,"rating":4,"zip_code":"10013"},{"id":"65RUNbor7l0IJcRrd4itTQ","name":"Louie and Chan","cuisine":"Italian","address":"303 Broome St","coordinates":{"latitude":40.7187118,"longitude":-73.9924058},"review_count":217,"rating":4,"zip_code":"10002"},{"id":"NPnWsPxOpG91GHx74S27Uw","name":"Sottocasa Pizzeria - Harlem","cuisine":"Italian","address":"227 Lenox Ave","coordinates":{"latitude":40.8055499,"longitude":-73.94746},"review_count":154,"rating":4.5,"zip_code":"10027"},{"id":"BA0_zeBrnugK2l0HHp38mw","name":"Via Della Pace","cuisine":"Italian","address":"48 E 7th St","coordinates":{"latitude":40.7277013287721,"longitude":-73.9877394513958},"review_count":449,"rating":4,"zip_code":"10003"},{"id":"R3gSQGB3aEmVpwbKIgOPqg","name":"Fabio Cucina Italiana","cuisine":"Italian","address":"214 E 52nd St","coordinates":{"latitude":40.75667,"longitude":-73.96912},"review_count":202,"rating":4.5,"zip_code":"10022"},{"id":"NZaq_ygLr4N8-blY5dGx-g","name":"Paul's On Times Square","cuisine":"Italian","address":"136 W 42nd St","coordinates":{"latitude":40.75522,"longitude":-73.98539},"review_count":243,"rating":4,"zip_code":"10036"},{"id":"NkAUvrtAcnebxPB6zayjsg","name":"Lamarcapasta","cuisine":"Italian","address":"161 E 22nd St","coordinates":{"latitude":40.73841,"longitude":-73.9839499},"review_count":261,"rating":4,"zip_code":"10010"},{"id":"v64bMLxutTS2MWIrywBczA","name":"Piccolo Cafe","cuisine":"Italian","address":"313 Amsterdam Ave","coordinates":{"latitude":40.7804139,"longitude":-73.9803013},"review_count":442,"rating":3.5,"zip_code":"10023"},{"id":"kr5fRwdHtVwPPwSJxm9Fkg","name":"Il Posto Accanto","cuisine":"Italian","address":"190 E 2nd St","coordinates":{"latitude":40.72238,"longitude":-73.98403},"review_count":160,"rating":4.5,"zip_code":"10009"},{"id":"Jwb556DrGTEZryeV7XgZmQ","name":"Bar Primi","cuisine":"Italian","address":"325 Bowery","coordinates":{"latitude":40.7256393,"longitude":-73.9917221},"review_count":473,"rating":3.5,"zip_code":"10003"},{"id":"7pvTicRAhXB1Ld74MWjkXQ","name":"Davio's Northern Italian Steakhouse","cuisine":"Italian","address":"447 Lexington Ave","coordinates":{"latitude":40.75304,"longitude":-73.97472},"review_count":233,"rating":4,"zip_code":"10017"},{"id":"dMrF98GlFYIPKYY5NVZHbw","name":"Gemma","cuisine":"Italian","address":"335 Bowery","coordinates":{"latitude":40.72609,"longitude":-73.99166},"review_count":576,"rating":3.5,"zip_code":"10003"},{"id":"Da9aNH6kW3fv4mTzqx3yPw","name":"Caffe Palermo","cuisine":"Italian","address":"148 Mulberry St","coordinates":{"latitude":40.7189596,"longitude":-73.9972725},"review_count":455,"rating":3.5,"zip_code":"10013"},{"id":"VqnPcfqYltgxAkIuTaGkYg","name":"Tre","cuisine":"Italian","address":"173 Ludlow St","coordinates":{"latitude":40.72184,"longitude":-73.987714},"review_count":426,"rating":3.5,"zip_code":"10002"},{"id":"M4pCWzdBCkp2g_d834a7Hw","name":"Sauce","cuisine":"Italian","address":"78 Rivington St","coordinates":{"latitude":40.720512182453,"longitude":-73.989400288419},"review_count":566,"rating":3.5,"zip_code":"10002"},{"id":"iBPQRnM_TMQX6tYdjCbCXA","name":"Vai Restaurant","cuisine":"Italian","address":"429 Amsterdam Ave","coordinates":{"latitude":40.78416,"longitude":-73.97736},"review_count":320,"rating":4,"zip_code":"10024"},{"id":"fuS39acPaRi38DhSSwEI4Q","name":"Felice","cuisine":"Italian","address":"15 Gold St","coordinates":{"latitude":40.70789,"longitude":-74.00712},"review_count":250,"rating":4,"zip_code":"10038"},{"id":"o5mMVFk4Hcpk2FuKfgTgdg","name":"Malaparte","cuisine":"Italian","address":"753 Washington St","coordinates":{"latitude":40.73687,"longitude":-74.00804},"review_count":255,"rating":4,"zip_code":"10014"},{"id":"TZto7AjdA337XIw66AOpUw","name":"Scalinatella Restaurant","cuisine":"Italian","address":"201 E 61st St","coordinates":{"latitude":40.7627823203802,"longitude":-73.9654829353094},"review_count":221,"rating":4,"zip_code":"10065"},{"id":"VgIiCZoUnujSMZATByk77Q","name":"The Meatball Shop","cuisine":"Italian","address":"798 9th Ave","coordinates":{"latitude":40.7651804928198,"longitude":-73.9874866666706},"review_count":220,"rating":4,"zip_code":"10019"},{"id":"HpjArOwDD0ddcD2cvCDp6Q","name":"Little Italy Pizza","cuisine":"Italian","address":"2476 Broadway","coordinates":{"latitude":40.7918751922647,"longitude":-73.9735541478506},"review_count":206,"rating":4,"zip_code":"10025"},{"id":"Zub6WrbrS_4XMI1mPbyeiw","name":"La Panineria","cuisine":"Italian","address":"1 W 8th St","coordinates":{"latitude":40.7324876186231,"longitude":-73.9967531074097},"review_count":168,"rating":4,"zip_code":"10011"},{"id":"_KIjhnsaui-wF9OePRZ5NA","name":"Gottino","cuisine":"Italian","address":"52 Greenwich Ave","coordinates":{"latitude":40.7358,"longitude":-74.00036},"review_count":265,"rating":4,"zip_code":"10011"},{"id":"_3QRn51W3IoqBzc9fYet4Q","name":"Grazie","cuisine":"Italian","address":"26 E 84th St","coordinates":{"latitude":40.77948,"longitude":-73.9601},"review_count":277,"rating":4,"zip_code":"10028"},{"id":"6_QdpGBllowmf94fqZr68Q","name":"Esca","cuisine":"Italian","address":"402 W 43rd St","coordinates":{"latitude":40.7590663,"longitude":-73.9924231},"review_count":619,"rating":3.5,"zip_code":"10036"},{"id":"8nXo6lNJlXQQIdy8Kf7J9Q","name":"Tessa","cuisine":"Italian","address":"349 Amsterdam Ave","coordinates":{"latitude":40.7814059,"longitude":-73.97918},"review_count":271,"rating":4,"zip_code":"10024"},{"id":"-VvrQWfbkQWeuGC4L0KcfQ","name":"il Buco Alimentari & Vineria","cuisine":"Italian","address":"53 Great Jones St","coordinates":{"latitude":40.7264539,"longitude":-73.992549},"review_count":472,"rating":3.5,"zip_code":"10012"},{"id":"0axnkZlDiQcJVc06DDXxGQ","name":"Ristorante Il Melograno","cuisine":"Italian","address":"501 W 51st St","coordinates":{"latitude":40.7654289685161,"longitude":-73.9914178848267},"review_count":252,"rating":4,"zip_code":"10019"},{"id":"ZqIFN8MctXVR1Y30Bsohtg","name":"Epistrophy","cuisine":"Italian","address":"200 Mott St","coordinates":{"latitude":40.72122,"longitude":-73.99552},"review_count":384,"rating":3.5,"zip_code":"10012"},{"id":"d5ya04K-2A_hI3Xzqe1HeA","name":"Caffe Buon Gusto","cuisine":"Italian","address":"236 E 77th St","coordinates":{"latitude":40.77249,"longitude":-73.95713},"review_count":300,"rating":4,"zip_code":"10075"},{"id":"JYE16G0z-wo1MTyYchhVCA","name":"Manzo Ristorante","cuisine":"Italian","address":"200 5th Ave","coordinates":{"latitude":40.7423476668244,"longitude":-73.9898968277084},"review_count":289,"rating":3.5,"zip_code":"10010"},{"id":"EYSIZX7b6Sp6TNc_KNvn7Q","name":"Speedy Romeo","cuisine":"Italian","address":"63 Clinton St","coordinates":{"latitude":40.71951,"longitude":-73.98514},"review_count":204,"rating":4,"zip_code":"10002"},{"id":"OCTiJwvjoK81WoDwsTkFvA","name":"Paesano of Mulberry Street","cuisine":"Italian","address":"136 Mulberry St","coordinates":{"latitude":40.718624,"longitude":-73.997665},"review_count":471,"rating":3.5,"zip_code":"10013"},{"id":"7EAj8VJX_DoKlZdCJBE4Pg","name":"La Bella Vita","cuisine":"Italian","address":"163 Mulberry St","coordinates":{"latitude":40.719795,"longitude":-73.997406},"review_count":272,"rating":4,"zip_code":"10013"},{"id":"Be1Y-vAEMgo7lqL5alXgDA","name":"Taverna Di Bacco","cuisine":"Italian","address":"175 Ludlow St","coordinates":{"latitude":40.72191,"longitude":-73.98768},"review_count":216,"rating":4,"zip_code":"10002"},{"id":"JSexQM-wn8HvWmfxu_m5ZA","name":"Gnocco","cuisine":"Italian","address":"337 E 10th St","coordinates":{"latitude":40.72713,"longitude":-73.9802799},"review_count":377,"rating":3.5,"zip_code":"10009"},{"id":"FCl5446Rovk1HRHoXpojdg","name":"LAVO Italian Restaurant","cuisine":"Italian","address":"39 E 58th St","coordinates":{"latitude":40.76283,"longitude":-73.9713},"review_count":701,"rating":3,"zip_code":"10022"},{"id":"XTSScqbNujYlE7c_nHmS1g","name":"DiSO's Italian Sandwich Society","cuisine":"Italian","address":"","coordinates":{"latitude":40.7527323302057,"longitude":-73.9705090608521},"review_count":136,"rating":4.5,"zip_code":"10017"},{"id":"lXzK0i9VnocLzPFwmEQ8Aw","name":"Garlic New York Pizza Bar","cuisine":"Italian","address":"629 2nd Ave","coordinates":{"latitude":40.74518,"longitude":-73.97594},"review_count":364,"rating":3.5,"zip_code":"10016"},{"id":"MH08_pIRKsUSwfkVYxUE7w","name":"VINATERÍA","cuisine":"Italian","address":"2211 Frederick Douglass Blvd","coordinates":{"latitude":40.8064392068585,"longitude":-73.9540110111145},"review_count":339,"rating":4,"zip_code":"10026"},{"id":"KOaeW18qq4C03Dfd06IXPQ","name":"Maria Pia","cuisine":"Italian","address":"319 W 51st St","coordinates":{"latitude":40.76343,"longitude":-73.98655},"review_count":353,"rating":3.5,"zip_code":"10019"},{"id":"tCFhIU4xSN6b7dbg3ApafQ","name":"Tiella","cuisine":"Italian","address":"1109 1st Ave","coordinates":{"latitude":40.7606782444803,"longitude":-73.9612435559085},"review_count":164,"rating":4,"zip_code":"10065"},{"id":"DF7PV0DE9z0LM4ae6XYeYg","name":"Harry's Italian","cuisine":"Italian","address":"2 Gold St","coordinates":{"latitude":40.707555318913,"longitude":-74.006898168681},"review_count":510,"rating":3.5,"zip_code":"10038"},{"id":"Zz-1pzGqrgParLQ_LzY0lw","name":"Massoni","cuisine":"Italian","address":"11 E 31st St","coordinates":{"latitude":40.74635,"longitude":-73.98494},"review_count":172,"rating":4,"zip_code":"10016"},{"id":"5pRxCYQppSq0czjFDN9X3Q","name":"Campagnola Restaurant","cuisine":"Italian","address":"1382 1st Ave","coordinates":{"latitude":40.768817,"longitude":-73.954833},"review_count":183,"rating":4,"zip_code":"10021"},{"id":"Pu09oBx1ekEZiFt90PsSIw","name":"Tableside Italian Cook Shoppe","cuisine":"Italian","address":"345 E 6th St","coordinates":{"latitude":40.7266287,"longitude":-73.9863384},"review_count":111,"rating":4.5,"zip_code":"10003"},{"id":"yB4ziqFM_7V8JxJas7CHfA","name":"Ulivo","cuisine":"Italian","address":"4 W 28th St","coordinates":{"latitude":40.7447371960713,"longitude":-73.9880339428782},"review_count":189,"rating":4,"zip_code":"10001"},{"id":"dvkQIG20RjgNi-SwRr_1CQ","name":"MAMO Restaurant","cuisine":"Italian","address":"323 W Broadway","coordinates":{"latitude":40.72186,"longitude":-74.00382},"review_count":197,"rating":4,"zip_code":"10013"},{"id":"AV9x0hUE0yQUMjUGQNPexQ","name":"Lamarca Cheese Shop","cuisine":"Italian","address":"161 E 22nd St","coordinates":{"latitude":40.73841,"longitude":-73.9839499},"review_count":107,"rating":4.5,"zip_code":"10010"},{"id":"QgEre4IFSHxbUvHMe8S12g","name":"Pinocchio Ristorante","cuisine":"Italian","address":"1748 1st Ave","coordinates":{"latitude":40.77965,"longitude":-73.94695},"review_count":184,"rating":4,"zip_code":"10128"},{"id":"xeC9vn3dxVVzAMR_aFwfXg","name":"IL Brigante","cuisine":"Italian","address":"214 Front St","coordinates":{"latitude":40.707492,"longitude":-74.002571},"review_count":283,"rating":4,"zip_code":"10038"},{"id":"Bh1JBgQWZl9zct46uw_FzQ","name":"Charlie Bird","cuisine":"Italian","address":"5 King St","coordinates":{"latitude":40.7278099,"longitude":-74.0028534},"review_count":375,"rating":3.5,"zip_code":"10012"},{"id":"25npnVAlhRjguunYS8zy8w","name":"Piccola Strada","cuisine":"Italian","address":"77 E 4th St","coordinates":{"latitude":40.726635460956,"longitude":-73.9904360317688},"review_count":155,"rating":4,"zip_code":"10003"},{"id":"rYvxje-p3e5sR4bJflz_pw","name":"Angelo's Pizza","cuisine":"Italian","address":"1697 Broadway","coordinates":{"latitude":40.7638169909039,"longitude":-73.9827420901337},"review_count":359,"rating":3.5,"zip_code":"10019"},{"id":"hVqZ4vihjL1gFTD-KdX-Tw","name":"Gennaro","cuisine":"Italian","address":"665 Amsterdam Ave","coordinates":{"latitude":40.79178,"longitude":-73.9718},"review_count":336,"rating":3.5,"zip_code":"10025"},{"id":"h37t9rA06Sr4EetJjKrfzw","name":"Don Angie","cuisine":"Italian","address":"103 Greenwich Ave","coordinates":{"latitude":40.73778,"longitude":-74.00197},"review_count":97,"rating":4.5,"zip_code":"10014"},{"id":"I0i9YzRBQn6MKIUFIHpeBQ","name":"Park Italian Gourmet","cuisine":"Italian","address":"60 W 45th St","coordinates":{"latitude":40.7562054271632,"longitude":-73.9814829826355},"review_count":175,"rating":4,"zip_code":"10036"},{"id":"rpVX-o82EEOX8ZDnM28a_Q","name":"Bistango","cuisine":"Italian","address":"145 E 50th St","coordinates":{"latitude":40.75628,"longitude":-73.97144},"review_count":187,"rating":4,"zip_code":"10022"},{"id":"hvi63FpI8TIhvVLFsvfKWQ","name":"Angelo's","cuisine":"Italian","address":"146 Mulberry St","coordinates":{"latitude":40.71895,"longitude":-73.997382},"review_count":381,"rating":3.5,"zip_code":"10013"},{"id":"FhXjAc6nKLf414KxYujUHw","name":"Roberta's","cuisine":"Italian","address":"261 Moore St","coordinates":{"latitude":40.705043534338,"longitude":-73.93357123374},"review_count":2317,"rating":4,"zip_code":"11206"},{"id":"E2zKMwHhz4--dyplQ7gf8A","name":"Pappardella","cuisine":"Italian","address":"316 Columbus Ave","coordinates":{"latitude":40.7792833,"longitude":-73.9776967},"review_count":469,"rating":3.5,"zip_code":"10023"},{"id":"LlGgNYGumpEcsrHbnFP0cw","name":"Union Fare Gastrohall And Bakery","cuisine":"Italian","address":"7 E 17th St","coordinates":{"latitude":40.7378857192058,"longitude":-73.9912893877316},"review_count":208,"rating":4,"zip_code":"10003"}]}
