{"businesses":[{"id":"tKpTRuNe7JJD6IYFPVCXNg","name":"Mariachi's","cuisine":"Mexican","address":"156 Chambers St","coordinates":{"latitude":40.715751,"longitude":-74.010219},"review_count":172,"rating":3,"zip_code":"10007"},{"id":"QP77bL34-vftZFZZC2N7sQ","name":"Ghost Donkey","cuisine":"Mexican","address":"4 Bleecker St","coordinates":{"latitude":40.72524,"longitude":-73.99271},"review_count":70,"rating":3.5,"zip_code":"10012"},{"id":"tCuPhpmf1PaYe5dmwdq8Ew","name":"Guacamole Mexican Restaurant","cuisine":"Mexican","address":"768 Amsterdam Ave","coordinates":{"latitude":40.7952,"longitude":-73.96992},"review_count":65,"rating":4,"zip_code":"10025"},{"id":"NvyOagUcodDPHSDF5Vhbmg","name":"Skinny's Cantina","cuisine":"Mexican","address":"4705 Center Blvd","coordinates":{"latitude":40.7457158661738,"longitude":-73.9563131306885},"review_count":380,"rating":3,"zip_code":"11109"},{"id":"jzVv_21473lAMYXIhVbuTA","name":"De Mole Astoria","cuisine":"Mexican","address":"4220 30th Ave","coordinates":{"latitude":40.7625999,"longitude":-73.9129028},"review_count":308,"rating":4,"zip_code":"11103"},{"id":"WJIU2Cu6i6-9n-ZUE5rEQA","name":"Sabor A Mexico Taqueria","cuisine":"Mexican","address":"160 1st Ave","coordinates":{"latitude":40.7284353669,"longitude":-73.9844540083},"review_count":81,"rating":3.5,"zip_code":"10009"},{"id":"zNcDCPiUsE5aT6jyaCVtmA","name":"Fresco's Cantina","cuisine":"Mexican","address":"12-14 31st Ave","coordinates":{"latitude":40.76837,"longitude":-73.93303},"review_count":79,"rating":4.5,"zip_code":"11106"},{"id":"X6A6a8hTPd1pZFNZE80TfA","name":"Tacos Morelos","cuisine":"Mexican","address":"438 E 9th St","coordinates":{"latitude":40.7274619080615,"longitude":-73.9832050287211},"review_count":101,"rating":3.5,"zip_code":"10009"},{"id":"CVRte0pMwk3Q9QfWsqWGqg","name":"Chipotle Mexican Grill","cuisine":"Mexican","address":"9 W 42nd St","coordinates":{"latitude":40.7537928601174,"longitude":-73.9815028699143},"review_count":145,"rating":3,"zip_code":"10036"},{"id":"KRyzOZnbK-A7NmJM7xn21Q","name":"Choza Taqueria","cuisine":"Mexican","address":"600 11th Ave","coordinates":{"latitude":40.762384,"longitude":-73.9967513},"review_count":107,"rating":3.5,"zip_code":"10036"},{"id":"9CHpio1-VqDD3zqAI93sVA","name":"Chipotle Mexican Grill","cuisine":"Mexican","address":"274 Madison Ave","coordinates":{"latitude":40.751396,"longitude":-73.980712},"review_count":99,"rating":3.5,"zip_code":"10016"},{"id":"juULANORQ2onWkEvSMjlaw","name":"Al Horno Lean Mexican Kitchen","cuisine":"Mexican","address":"1089 2nd Ave","coordinates":{"latitude":40.7597,"longitude":-73.965332},"review_count":101,"rating":3,"zip_code":"10022"},{"id":"OG_P-C9fK_0Y-YYwwKfxBA","name":"Monika's Cafe Bar","cuisine":"Mexican","address":"32-90 36th St","coordinates":{"latitude":40.7580193,"longitude":-73.9233269},"review_count":347,"rating":3.5,"zip_code":"11106"},{"id":"hR1bG0jgd2_Z9Q5L6siTEw","name":"Antojito Mexicano","cuisine":"Mexican","address":"6th Avenue & 28th Street","coordinates":{"latitude":40.7460380678347,"longitude":-73.9905191880082},"review_count":32,"rating":4.5,"zip_code":"10001"},{"id":"ueL0t_7Yu_ev2RrWK9dgDA","name":"Tacombi - Empire State Building","cuisine":"Mexican","address":"23 W 33rd St","coordinates":{"latitude":40.748375,"longitude":-73.9864908},"review_count":33,"rating":4,"zip_code":"10118"},{"id":"mdNall-R8nQb6gYLxWlJMg","name":"Guac Tacos and Tequila","cuisine":"Mexican","address":"179 Avenue B","coordinates":{"latitude":40.7276,"longitude":-73.97911},"review_count":92,"rating":3.5,"zip_code":"10009"},{"id":"bwvd5ZwBTXdpCwJktU-P8g","name":"Sabor A Veracruz","cuisine":"Mexican","address":"6415 Bergenline Ave","coordinates":{"latitude":40.79295,"longitude":-74.01361},"review_count":109,"rating":4.5,"zip_code":"07093"},{"id":"6Pa3-9piblDJu0l8u84Jhg","name":"Mi Mariachi Taqueria","cuisine":"Mexican","address":"213 Sip Ave","coordinates":{"latitude":40.73156,"longitude":-74.06974},"review_count":214,"rating":4.5,"zip_code":"07306"},{"id":"B-bx4pZXrat0D25vde2bJQ","name":"Cantina Taqueria & Tequila Bar","cuisine":"Mexican","address":"329 Lenox","coordinates":{"latitude":40.8088408787201,"longitude":-73.9449808870425},"review_count":133,"rating":3.5,"zip_code":"10027"},{"id":"rKhwtWGawgIXnTVW3Nl3YA","name":"Taco Bar","cuisine":"Mexican","address":"358 Bowery","coordinates":{"latitude":40.727023,"longitude":-73.9918770865082},"review_count":64,"rating":3.5,"zip_code":"10003"},{"id":"uLWp1QR_W2WJImMnB706hg","name":"Mexicue","cuisine":"Mexican","address":"160 8th Ave","coordinates":{"latitude":40.74202,"longitude":-74.00046},"review_count":92,"rating":3.5,"zip_code":"10011"},{"id":"Yilk_Ucz4L6w9EmvAS2gHg","name":"Taqueria Coatzingo","cuisine":"Mexican","address":"7605 Roosevelt Ave","coordinates":{"latitude":40.7471912668812,"longitude":-73.8895068500844},"review_count":365,"rating":4,"zip_code":"11372"},{"id":"RGSjUKs-hNpCSafrFcU-VQ","name":"La Flor","cuisine":"Mexican","address":"53-02 Roosevelt Ave","coordinates":{"latitude":40.74434,"longitude":-73.91141},"review_count":210,"rating":4,"zip_code":"11377"},{"id":"Q10FeFs1mtNchv1NbNcsLg","name":"Oaxaca Taqueria","cuisine":"Mexican","address":"152 E 33rd St","coordinates":{"latitude":40.7453117370605,"longitude":-73.9795227050781},"review_count":86,"rating":3.5,"zip_code":"10016"},{"id":"Guy0Mow5rqt4a3RDMRTY5g","name":"Gordo's Cantina","cuisine":"Mexican","address":"24-11 Bridge Plz N","coordinates":{"latitude":40.7512226,"longitude":-73.9407712},"review_count":126,"rating":4,"zip_code":"11101"},{"id":"xwOhe0kIfB-ogOkxRcKtVg","name":"Chipotle Mexican Grill","cuisine":"Mexican","address":"2 Broadway","coordinates":{"latitude":40.7042316742746,"longitude":-74.013003687106},"review_count":135,"rating":3,"zip_code":"10004"},{"id":"yqU1-chsjix3T4EMY2MyxA","name":"Athens Grill & Sports Bar","cuisine":"Mexican","address":"3011 30th Ave","coordinates":{"latitude":40.7671808396101,"longitude":-73.9218648523092},"review_count":176,"rating":4,"zip_code":"11102"},{"id":"VOAryQk18GIxwErygoranA","name":"Charrito's","cuisine":"Mexican","address":"121 Washington St","coordinates":{"latitude":40.738116,"longitude":-74.030436},"review_count":405,"rating":3.5,"zip_code":"07030"},{"id":"kawmpvfSzhDAy9pk8n3MxQ","name":"The Haab","cuisine":"Mexican","address":"4722 48th Ave","coordinates":{"latitude":40.7390211,"longitude":-73.9182275},"review_count":159,"rating":4,"zip_code":"11377"},{"id":"Jh6bSOaw0ftGh9ONiwr7nA","name":"Los Tres Chilitos","cuisine":"Mexican","address":"456 Central Ave","coordinates":{"latitude":40.75021,"longitude":-74.04619},"review_count":161,"rating":4,"zip_code":"07307"},{"id":"HSQrBVZ0wiXYs96yEt2qUw","name":"Santos Anne","cuisine":"Mexican","address":"366 Union Ave","coordinates":{"latitude":40.7113837497199,"longitude":-73.9510455988026},"review_count":270,"rating":4,"zip_code":"11211"},{"id":"yvva7IYpD6J7OfKlCdQrkw","name":"Mi Espiguita Taqueria","cuisine":"Mexican","address":"32-44 31st St","coordinates":{"latitude":40.7612033639422,"longitude":-73.9261436462402},"review_count":96,"rating":4.5,"zip_code":"11106"},{"id":"wKjv2DVTtfvHu-DJoWtatg","name":"Chipotle Mexican Grill","cuisine":"Mexican","address":"129 W 48th St","coordinates":{"latitude":40.759475,"longitude":-73.982588},"review_count":109,"rating":3,"zip_code":"10020"},{"id":"hdBhZcdZGHkTESrldAObJg","name":"La Morada Restaurant","cuisine":"Mexican","address":"308 Willis Ave","coordinates":{"latitude":40.810552,"longitude":-73.92142},"review_count":120,"rating":4.5,"zip_code":"10454"},{"id":"okNIE5TrZVy43GI0A3aUIw","name":"Rocco's Tacos & Tequila Bar","cuisine":"Mexican","address":"339 Adams St","coordinates":{"latitude":40.69319596606,"longitude":-73.9885798943981},"review_count":957,"rating":3.5,"zip_code":"11201"},{"id":"QH3VbBAf7MlePoaipxT4pA","name":"Taqueria Kermes","cuisine":"Mexican","address":"66-36 Fresh Pond Rd","coordinates":{"latitude":40.70785,"longitude":-73.89798},"review_count":339,"rating":4,"zip_code":"11385"},{"id":"WyeBhonhjnjzzpuPJ1euvw","name":"La Chula NYC","cuisine":"Mexican","address":"89 E 42nd St","coordinates":{"latitude":40.7524183,"longitude":-73.977933},"review_count":57,"rating":3.5,"zip_code":"10017"},{"id":"4c4Uwb5yUqXJ-inkcDinIg","name":"Los Tacos-Mcondo","cuisine":"Mexican","address":"502 Grand St","coordinates":{"latitude":40.7108323440285,"longitude":-73.9509542539666},"review_count":218,"rating":4,"zip_code":"11211"},{"id":"EU7d7_D9cQuSWL1iFvFz0A","name":"Mi Nidito","cuisine":"Mexican","address":"789 9th Ave","coordinates":{"latitude":40.76521,"longitude":-73.98809},"review_count":155,"rating":3,"zip_code":"10019"},{"id":"WV4wYPAGb3W69MfBqIZDHg","name":"Dos Toros Taqueria","cuisine":"Mexican","address":"555 8th Ave","coordinates":{"latitude":40.7546,"longitude":-73.99194},"review_count":36,"rating":4,"zip_code":"10018"},{"id":"7I-4qCgJq3n0yan1ChE-ew","name":"Zona Rosa","cuisine":"Mexican","address":"571 Lorimer St","coordinates":{"latitude":40.7139388888686,"longitude":-73.9494076703442},"review_count":332,"rating":3.5,"zip_code":"11211"},{"id":"AUm7If5Cbvy20AnmyxE-xA","name":"Dos Toros Taqueria","cuisine":"Mexican","address":"52 W 52nd St","coordinates":{"latitude":40.7607084122727,"longitude":-73.9784675091505},"review_count":49,"rating":4,"zip_code":"10019"},{"id":"F76RYME8VeIIJDkVCOe0rg","name":"Tequila Chito's Mexican Grill","cuisine":"Mexican","address":"358 W 23rd St","coordinates":{"latitude":40.7460136413574,"longitude":-74.0009002685547},"review_count":192,"rating":2.5,"zip_code":"10011"},{"id":"xmbBNjDuGEyeQFTkQPHMLQ","name":"Dos Toros Taqueria","cuisine":"Mexican","address":"101 Maiden Ln","coordinates":{"latitude":40.707,"longitude":-74.00686},"review_count":71,"rating":3.5,"zip_code":"10038"},{"id":"qGpDDZKwlkuJNL-OurWivw","name":"Fusion HK Bar and Grill","cuisine":"Mexican","address":"688 10th Ave","coordinates":{"latitude":40.76347,"longitude":-73.99231},"review_count":45,"rating":4,"zip_code":"10019"},{"id":"ETiWBqqeYmr_9U4L5CJaig","name":"Calico's Nyc","cuisine":"Mexican","address":"800 2nd Ave","coordinates":{"latitude":40.75014,"longitude":-73.97176},"review_count":422,"rating":2,"zip_code":"10017"},{"id":"WZLhPYaYSFy7M_-Jh1VuNw","name":"Dos Toros Taqueria","cuisine":"Mexican","address":"200 Vesey St","coordinates":{"latitude":40.7130865074113,"longitude":-74.0160842315927},"review_count":85,"rating":3.5,"zip_code":"10285"},{"id":"bVi0Rk_GfkrJJELLXaqEeA","name":"Dos Toros Taqueria","cuisine":"Mexican","address":"636 Lexington Ave","coordinates":{"latitude":40.7592114,"longitude":-73.9706706},"review_count":71,"rating":3.5,"zip_code":"10022"},{"id":"hyKnC3_a86vaY2iZUkygWw","name":"El Mariachi Restaurant","cuisine":"Mexican","address":"3311 Broadway","coordinates":{"latitude":40.7611304286653,"longitude":-73.9233571500763},"review_count":216,"rating":3.5,"zip_code":"11106"},{"id":"f7g3GhoQs9nQVTJEL2p48Q","name":"Gran Electrica","cuisine":"Mexican","address":"5 Front St","coordinates":{"latitude":40.7027,"longitude":-73.99314},"review_count":384,"rating":3.5,"zip_code":"11201"},{"id":"441p9X0RMR4epB_yOHs73A","name":"Panchito's Mexican Restaurant & Cantina","cuisine":"Mexican","address":"105 MacDougal St","coordinates":{"latitude":40.72977,"longitude":-74.00082},"review_count":287,"rating":2.5,"zip_code":"10012"},{"id":"EhJO7B2hzHq8NT8iFKoCwg","name":"Hot Jalapeño","cuisine":"Mexican","address":"219 E 116th St","coordinates":{"latitude":40.7976444478292,"longitude":-73.9390864432851},"review_count":61,"rating":4,"zip_code":"10029"},{"id":"0An2LzS7tOExGWTHCHJy8A","name":"Chipotle Mexican Grill","cuisine":"Mexican","address":"350 Fifth Ave","coordinates":{"latitude":40.748472,"longitude":-73.984961},"review_count":100,"rating":3,"zip_code":"10118"},{"id":"JYXDcwqsWp3d5tifAwgQ5Q","name":"Taco Chulo","cuisine":"Mexican","address":"318 Grand St","coordinates":{"latitude":40.71259,"longitude":-73.95661},"review_count":385,"rating":3.5,"zip_code":"11211"},{"id":"iV4Qm5DnGChgrnbYG20ASw","name":"Sombrero","cuisine":"Mexican","address":"303 W 48th St","coordinates":{"latitude":40.7611200213432,"longitude":-73.9870921522379},"review_count":257,"rating":2.5,"zip_code":"10036"},{"id":"xlv_CcDXH1hkG4Wq5mECkQ","name":"Vamos Al Tequila","cuisine":"Mexican","address":"162 Franklin St","coordinates":{"latitude":40.73079,"longitude":-73.9576},"review_count":245,"rating":3.5,"zip_code":"11222"},{"id":"QxqN_tZQmkVQ1TjwCpnQUA","name":"Chipotle Mexican Grill","cuisine":"Mexican","address":"55 E 8th St C","coordinates":{"latitude":40.73117,"longitude":-73.99353},"review_count":114,"rating":3,"zip_code":"10003"},{"id":"sA1BRfKeVivN63XZDInrRw","name":"Dahlia's Mexican Restaurant","cuisine":"Mexican","address":"353 Greenwich St","coordinates":{"latitude":40.7186421,"longitude":-74.010138},"review_count":110,"rating":3.5,"zip_code":"10013"},{"id":"kKRzPQD6XF5Nx3pX2R8NIw","name":"Chinelos II","cuisine":"Mexican","address":"530 W 136th St","coordinates":{"latitude":40.82033,"longitude":-73.95378},"review_count":53,"rating":3.5,"zip_code":"10031"},{"id":"VoEB81AQajTsatt56aiTLA","name":"Dos Toros Taqueria","cuisine":"Mexican","address":"119 W 40th St","coordinates":{"latitude":40.7540578242766,"longitude":-73.9859579131007},"review_count":60,"rating":3.5,"zip_code":"10018"},{"id":"8oHCb-XvLpqCQD7En17Fzw","name":"Chipotle Mexican Grill","cuisine":"Mexican","address":"2843 Broadway","coordinates":{"latitude":40.8044476,"longitude":-73.966795},"review_count":99,"rating":3,"zip_code":"10025"},{"id":"FeSZi6LBCcAIipoSua6dXg","name":"La Esquina UES","cuisine":"Mexican","address":"1402 2nd Ave","coordinates":{"latitude":40.7693091,"longitude":-73.9578192},"review_count":73,"rating":3.5,"zip_code":"10021"},{"id":"8gmRUYZIcfmWl0pFB60tpA","name":"Tacos El Vagabundo","cuisine":"Mexican","address":"Queens Blvd & 41st St","coordinates":{"latitude":40.7435472309835,"longitude":-73.9233639225631},"review_count":83,"rating":4.5,"zip_code":"11104"},{"id":"Fj9ZANHw4gVd1W7UljnTFw","name":"El Nuevo Amanecer Restaurant","cuisine":"Mexican","address":"117 Stanton St","coordinates":{"latitude":40.72098,"longitude":-73.9872},"review_count":103,"rating":3,"zip_code":"10002"},{"id":"8DvAPUI0qP43rY_CD8YYZQ","name":"Lenita","cuisine":"Mexican","address":"7 Hanover Square","coordinates":{"latitude":40.704046,"longitude":-74.0096618},"review_count":46,"rating":4,"zip_code":"10004"},{"id":"jeWIYbgBho9vBDhc5S1xvg","name":"Holy Guacamole","cuisine":"Mexican","address":"3555 31st St","coordinates":{"latitude":40.756621,"longitude":-73.929336},"review_count":101,"rating":4,"zip_code":"11106"},{"id":"OoFr5pilPnfIhH5Uvj7aAw","name":"Rosarito Fish Shack","cuisine":"Mexican","address":"168 Wythe Ave","coordinates":{"latitude":40.7195575,"longitude":-73.9607528},"review_count":481,"rating":3,"zip_code":"11211"},{"id":"8F3LlIYk4-Fn5HBC_1r6Gg","name":"Oaxaca Mexican Grill","cuisine":"Mexican","address":"245 Park Ave","coordinates":{"latitude":40.75462,"longitude":-73.97471},"review_count":112,"rating":3,"zip_code":"10167"},{"id":"FwPKY2uds5Wx2sj7fo6vHQ","name":"Chipotle Mexican Grill","cuisine":"Mexican","address":"269 Amsterdam","coordinates":{"latitude":40.779372,"longitude":-73.9811},"review_count":101,"rating":3,"zip_code":"10023"},{"id":"2ajolU30h6rq66lm-qU1_w","name":"Automatic Slims","cuisine":"Mexican","address":"733 Washington St","coordinates":{"latitude":40.73632,"longitude":-74.00817},"review_count":86,"rating":3.5,"zip_code":"10014"},{"id":"t5bLApk2dbQPJiLuzfy5tg","name":"Lucha Lucha","cuisine":"Mexican","address":"283 Nostrand Ave","coordinates":{"latitude":40.688983,"longitude":-73.951026},"review_count":230,"rating":4,"zip_code":"11216"},{"id":"TPN2at7fMDHxeGYuQdQZVA","name":"Homemade Taqueria","cuisine":"Mexican","address":"7103 Grand Ave","coordinates":{"latitude":40.7279658,"longitude":-73.8921686},"review_count":229,"rating":4,"zip_code":"11378"},{"id":"7KO4zcBtc2-2M5kJLfl0kw","name":"Jolie Cantina","cuisine":"Mexican","address":"241 Smith St","coordinates":{"latitude":40.683532,"longitude":-73.992288},"review_count":339,"rating":4,"zip_code":"11231"},{"id":"MxrjY6myVl8vK0YvCT4r4g","name":"Las Delicias Mexicanas","cuisine":"Mexican","address":"2109 3rd Ave","coordinates":{"latitude":40.79735,"longitude":-73.94009},"review_count":42,"rating":4,"zip_code":"10029"},{"id":"GNdUcCQH-7pnE2gT8Aq6-w","name":"Taco Rey de Oro","cuisine":"Mexican","address":"52ND St And Roosevelt Ave","coordinates":{"latitude":40.74416,"longitude":-73.91249},"review_count":69,"rating":4.5,"zip_code":"11377"},{"id":"16bXxf22x14xrzvVWbFeHQ","name":"Leon Bakery Mexican Restaurant","cuisine":"Mexican","address":"695 9th Ave","coordinates":{"latitude":40.762237,"longitude":-73.990272},"review_count":43,"rating":3.5,"zip_code":"10036"},{"id":"PZM0lwv0i0ZRpyzioRU8SA","name":"Lime Jungle Empanadas","cuisine":"Mexican","address":"197 7th Ave","coordinates":{"latitude":40.743201852814,"longitude":-73.9966291921214},"review_count":63,"rating":3.5,"zip_code":"10012"},{"id":"6AJwsgXr7YwsqneGVAdgzw","name":"Las Catrinas Mexican Bar & Eatery","cuisine":"Mexican","address":"32-02 Broadway","coordinates":{"latitude":40.7614214682633,"longitude":-73.9246649456171},"review_count":151,"rating":4,"zip_code":"11106"},{"id":"y66xYcgKuEq_D10fCyl8pw","name":"Chipotle Mexican Grill","cuisine":"Mexican","address":"125 E 23rd St","coordinates":{"latitude":40.73996,"longitude":-73.98508},"review_count":112,"rating":3,"zip_code":"10010"},{"id":"AABqAsYdRI9gSyU1gStdxg","name":"Gina Mexicana","cuisine":"Mexican","address":"145 E 61st St","coordinates":{"latitude":40.763456,"longitude":-73.966753},"review_count":100,"rating":3,"zip_code":"10021"},{"id":"-7mvJpV-gmOCT0HFNOhMNA","name":"The Brothers Cafe","cuisine":"Mexican","address":"3949 43rd Ave","coordinates":{"latitude":40.74607,"longitude":-73.924109},"review_count":72,"rating":4.5,"zip_code":"11104"},{"id":"hlc6c-3N_rOvO_XwOGEYRw","name":"Rosa Mexicano","cuisine":"Mexican","address":"41 Murray St","coordinates":{"latitude":40.7141113543271,"longitude":-74.0092619508505},"review_count":113,"rating":3,"zip_code":"10007"},{"id":"LuCM4SY_aIQc9Foblxz0ug","name":"Chipotle Mexican Grill","cuisine":"Mexican","address":"25 W 45th St","coordinates":{"latitude":40.756197,"longitude":-73.980714},"review_count":62,"rating":3,"zip_code":"10036"},{"id":"mgl-H8o6Ld4B3Zlrv3_bYA","name":"Macho's","cuisine":"Mexican","address":"118A E 15th St","coordinates":{"latitude":40.73467,"longitude":-73.98859},"review_count":79,"rating":3.5,"zip_code":"10003"},{"id":"veeKjzzHsO9e4wKLxpuhtQ","name":"El Rey Del Taco Truck #2","cuisine":"Mexican","address":"31ST St And Ditmars Ave","coordinates":{"latitude":40.77613,"longitude":-73.9107},"review_count":86,"rating":4.5,"zip_code":"11105"},{"id":"H-EZ1g_3M8oNHctGjnddwQ","name":"Taqueria Viva Mexico Kitchen Cafe","cuisine":"Mexican","address":"133 Morris St","coordinates":{"latitude":40.7139,"longitude":-74.04029},"review_count":282,"rating":4,"zip_code":"07302"},{"id":"bRzE-FnE1QgbUb-3cosoUA","name":"Donna","cuisine":"Mexican","address":"27 Broadway","coordinates":{"latitude":40.71093,"longitude":-73.96772},"review_count":132,"rating":4,"zip_code":"11249"},{"id":"0tzK7l-DWDpG5UrYKL_mxw","name":"St James Deli","cuisine":"Mexican","address":"34-02 34th Ave","coordinates":{"latitude":40.7584647036595,"longitude":-73.9247274398804},"review_count":68,"rating":4.5,"zip_code":"11106"},{"id":"uvcEo61aL2F8e4PCzwZsYg","name":"Chihuahua","cuisine":"Mexican","address":"47-02 Greenpoint Ave","coordinates":{"latitude":40.74232,"longitude":-73.91777},"review_count":103,"rating":4.5,"zip_code":"11104"},{"id":"5j3PQDsOY3st1boi3P2gEA","name":"Chipotle Mexican Grill","cuisine":"Mexican","address":"678 6th Ave","coordinates":{"latitude":40.74163,"longitude":-73.9933099},"review_count":114,"rating":2.5,"zip_code":"10010"},{"id":"fJXCMGOhaS6rKGjoGldSSQ","name":"Taqueria Tepango","cuisine":"Mexican","address":"568 Myrtle Ave","coordinates":{"latitude":40.6937857,"longitude":-73.9616331},"review_count":197,"rating":4,"zip_code":"11205"},{"id":"h8J10FpJGaU_4OvP2MgoKQ","name":"Oso","cuisine":"Mexican","address":"1618 Amsterdam Ave At 140th St","coordinates":{"latitude":40.82195,"longitude":-73.9502399},"review_count":174,"rating":4,"zip_code":"10031"},{"id":"7l0uy47dEHXg2S1lA1s-EQ","name":"Vote For Pedro Tequila & Tacos","cuisine":"Mexican","address":"231 E 53rd St","coordinates":{"latitude":40.75725,"longitude":-73.96808},"review_count":28,"rating":4,"zip_code":"10022"},{"id":"RjblkxUBTtzG-tcgFyCofA","name":"Takumi Taco","cuisine":"Mexican","address":"601 W 26th St","coordinates":{"latitude":40.75154,"longitude":-74.00685},"review_count":30,"rating":4,"zip_code":"10001"},{"id":"7xY3vxBy7yFF5dVAi-6hPQ","name":"Pipo's Mexican Restaurant","cuisine":"Mexican","address":"166 E 118th St","coordinates":{"latitude":40.7994318892483,"longitude":-73.9398034173906},"review_count":45,"rating":3.5,"zip_code":"10035"},{"id":"G8JRGtO-S-zHbDZCmIK0gQ","name":"Presto Fresh Cafe","cuisine":"Mexican","address":"559 Lenox Ave","coordinates":{"latitude":40.81642,"longitude":-73.9395},"review_count":62,"rating":3.5,"zip_code":"10037"},{"id":"etceI1Kf9CTAu7VpRqy65Q","name":"Chipotle Mexican Grill","cuisine":"Mexican","address":"200 Varick St","coordinates":{"latitude":40.7282126439376,"longitude":-74.0051813741597},"review_count":66,"rating":3,"zip_code":"10014"},{"id":"wGcBnWVSl1hW9nDWA-0Dzg","name":"Chipotle Mexican Grill","cuisine":"Mexican","address":"283 Seventh Ave","coordinates":{"latitude":40.74606,"longitude":-73.994},"review_count":98,"rating":3,"zip_code":"10001"},{"id":"oVErTSAtA-DgyKoncr8NkA","name":"Mojito's","cuisine":"Mexican","address":"227 E 116th St","coordinates":{"latitude":40.79761,"longitude":-73.93879},"review_count":89,"rating":3,"zip_code":"10029"},{"id":"4bSYj9nl_mAXIqpA2loIag","name":"Oaxaca Taqueria","cuisine":"Mexican","address":"1198 1st Ave","coordinates":{"latitude":40.7631132993777,"longitude":-73.9591559395194},"review_count":60,"rating":3.5,"zip_code":"10065"},{"id":"0mUqijlzmRllplcM57sQeg","name":"Chipotle Mexican Grill","cuisine":"Mexican","address":"620 9th Ave","coordinates":{"latitude":40.75954,"longitude":-73.9916},"review_count":91,"rating":3,"zip_code":"10036"},{"id":"rb84INY9Uk1_S4vHCdPXLQ","name":"Chipotle Mexican Grill","cuisine":"Mexican","address":"111 Fulton St","coordinates":{"latitude":40.7097511291504,"longitude":-74.0069122314453},"review_count":90,"rating":3,"zip_code":"10038"},{"id":"PbLGoaIkihF2JPnVRFtxxw","name":"Oaxaca Taqueria","cuisine":"Mexican","address":"87 Beaver St","coordinates":{"latitude":40.7054473656225,"longitude":-74.0083641817509},"review_count":55,"rating":3.5,"zip_code":"10005"},{"id":"M5uz_XXduI7dVrTK6DzWfA","name":"Chipotle Mexican Grill","cuisine":"Mexican","address":"864 Broadway","coordinates":{"latitude":40.737316,"longitude":-73.989967},"review_count":78,"rating":3,"zip_code":"10003"},{"id":"DaZ7-WpvtPkZxViVzt9pnQ","name":"Flaming Burritos","cuisine":"Mexican","address":"4625 Park Ave","coordinates":{"latitude":40.77843,"longitude":-74.017},"review_count":140,"rating":3.5,"zip_code":"07087"},{"id":"oNYP0AFOSw_oZEHkF_f0kQ","name":"Cemitas Puebla","cuisine":"Mexican","address":"520 24th St","coordinates":{"latitude":40.767849,"longitude":-74.0327988},"review_count":98,"rating":4,"zip_code":"07087"},{"id":"bWi_lbhtLOo3VfiqYJewQQ","name":"Breakfast Burritos El Donkey","cuisine":"Mexican","address":"75 9th Ave","coordinates":{"latitude":40.7421586,"longitude":-74.0047099},"review_count":11,"rating":4.5,"zip_code":"10011"},{"id":"Lfx2qsOLfv7Lz_hf5RXfLg","name":"Chipotle Mexican Grill","cuisine":"Mexican","address":"117 E 14th St","coordinates":{"latitude":40.73427,"longitude":-73.98911},"review_count":96,"rating":2.5,"zip_code":"10003"},{"id":"4QVG74AmkmhjE63-gwyWow","name":"Mexican Deli","cuisine":"Mexican","address":"2711 Broadway","coordinates":{"latitude":40.7996094,"longitude":-73.9685912},"review_count":21,"rating":4.5,"zip_code":"10025"},{"id":"5Ia7a72M6b8ht88mD_E3-A","name":"Viva Toro","cuisine":"Mexican","address":"188 Berry St","coordinates":{"latitude":40.7166,"longitude":-73.96136},"review_count":381,"rating":3,"zip_code":"11249"},{"id":"mJVO64T1WWzJYvNlbLSQNA","name":"Lucio Angelita Tacos","cuisine":"Mexican","address":"55 Lexington Ave","coordinates":{"latitude":40.7594591154635,"longitude":-73.9697938801726},"review_count":19,"rating":4.5,"zip_code":"10022"},{"id":"5SOM3bh1R5K3RZ9E20TxUg","name":"Alma Restaurant","cuisine":"Mexican","address":"187 Columbia St","coordinates":{"latitude":40.6855617,"longitude":-74.0021676},"review_count":421,"rating":3.5,"zip_code":"11231"},{"id":"4jucppz-BA0MiY06DjuBYQ","name":"Frijolito's","cuisine":"Mexican","address":"3446 Broadway","coordinates":{"latitude":40.8234652876854,"longitude":-73.9524172246456},"review_count":88,"rating":4.5,"zip_code":"10031"},{"id":"GXK3j99VZK-7JJ0YrtIR0w","name":"Parada 47","cuisine":"Mexican","address":"526 W 47th St","coordinates":{"latitude":40.763092,"longitude":-73.99443},"review_count":34,"rating":3.5,"zip_code":"10036"},{"id":"CaFkfhLxjzPAxS9-G6lNVg","name":"Cantina Royal","cuisine":"Mexican","address":"58 N 3rd St","coordinates":{"latitude":40.7175416270346,"longitude":-73.9634865865082},"review_count":195,"rating":3.5,"zip_code":"11211"},{"id":"j4QECkHqVZzTfJVdAmy7lw","name":"El Rico Tinto","cuisine":"Mexican","address":"7607 37th Ave","coordinates":{"latitude":40.749358,"longitude":-73.889562},"review_count":129,"rating":4,"zip_code":"11372"},{"id":"NKDLr_aBy5WRX8-JR_SGyQ","name":"Calaca","cuisine":"Mexican","address":"139 Putnam Ave","coordinates":{"latitude":40.6834,"longitude":-73.9565499},"review_count":145,"rating":4.5,"zip_code":"11238"},{"id":"EzKvmyYk-7xQZ47Me-NDwg","name":"Taco Today","cuisine":"Mexican","address":"1659 1st Avenue","coordinates":{"latitude":40.77726,"longitude":-73.94932},"review_count":70,"rating":3,"zip_code":"10028"},{"id":"gKJ-rb2di7fPGIuIjF0ylw","name":"Taco Dumbo","cuisine":"Mexican","address":"2 Pennsylvania Plz","coordinates":{"latitude":40.750652969875,"longitude":-73.9922510412298},"review_count":36,"rating":4,"zip_code":"10121"},{"id":"gQVXiIJxyT03Is4XeZrVbQ","name":"El Rey Del Sabor","cuisine":"Mexican","address":"148 49th St","coordinates":{"latitude":40.7566760156385,"longitude":-73.9746434377878},"review_count":27,"rating":3.5,"zip_code":"10022"},{"id":"D1zMdl-vHRZHQctWeq3brQ","name":"Chipotle Mexican Grill","cuisine":"Mexican","address":"501 7th Ave","coordinates":{"latitude":40.752857,"longitude":-73.988563},"review_count":78,"rating":3,"zip_code":"10018"},{"id":"6_diNjI8MJUWDyYT2mjvSA","name":"El Gallo De Oro","cuisine":"Mexican","address":"1 Seventh Ave S","coordinates":{"latitude":40.72975,"longitude":-74.0048},"review_count":48,"rating":3,"zip_code":"10014"},{"id":"ONpovEzuqFtHMHN-AtPd8g","name":"Guadalupe Inn","cuisine":"Mexican","address":"1 Knickerbocker Ave","coordinates":{"latitude":40.70773,"longitude":-73.93167},"review_count":113,"rating":4,"zip_code":"11237"},{"id":"MRF4bNFPAyHe2rMS1yZobg","name":"El Toro Mexican Grill","cuisine":"Mexican","address":"69 New St","coordinates":{"latitude":40.7058516,"longitude":-74.0122291},"review_count":82,"rating":3,"zip_code":"10004"},{"id":"Gw9wDneQviRAhrpEUkcnWQ","name":"Chipotle Mexican Grill","cuisine":"Mexican","address":"1497 3rd Ave","coordinates":{"latitude":40.7778585552157,"longitude":-73.9545533815732},"review_count":133,"rating":2.5,"zip_code":"10028"},{"id":"iUsk8CPoDyoBmwVdU1_9QQ","name":"Taqueria Garibaldi","cuisine":"Mexican","address":"Bleecker & Thompson","coordinates":{"latitude":40.7284088,"longitude":-73.9996719},"review_count":26,"rating":4,"zip_code":"10012"},{"id":"XDl93co2VJznxglYcoQvmA","name":"Chilo's","cuisine":"Mexican","address":"323 Franklin Ave","coordinates":{"latitude":40.68837,"longitude":-73.95684},"review_count":162,"rating":4,"zip_code":"11238"},{"id":"T30fVIwEeJMvJQm9tikXbA","name":"Lucky Cheng's","cuisine":"Mexican","address":"605 W 48th St","coordinates":{"latitude":40.765076,"longitude":-73.995986},"review_count":55,"rating":3.5,"zip_code":"10036"},{"id":"q__dTB3y_aMwoqhDsg8ImQ","name":"The Great Burrito","cuisine":"Mexican","address":"10 Hilliard Ave","coordinates":{"latitude":40.82605,"longitude":-73.974592},"review_count":182,"rating":4,"zip_code":"07020"},{"id":"Lq9HxEUrkceCUDut00qlHQ","name":"El Kucho Mexican Restaurant","cuisine":"Mexican","address":"141 Wilson Ave","coordinates":{"latitude":40.700817,"longitude":-73.925422},"review_count":165,"rating":4,"zip_code":"11237"},{"id":"Pda9zJfg0pRABp9krlJh3Q","name":"El Rey Del Sabor","cuisine":"Mexican","address":"43RD And 6th Ave","coordinates":{"latitude":40.7555250546562,"longitude":-73.9836306448101},"review_count":25,"rating":4,"zip_code":"10036"},{"id":"AgHjo6NP9VTuAU8jCKFHjw","name":"Florentinas Restaurant","cuisine":"Mexican","address":"454 Graham Ave","coordinates":{"latitude":40.71867,"longitude":-73.9449099},"review_count":97,"rating":4,"zip_code":"11211"},{"id":"-RGiP0Hboxsq7aRCbpdadA","name":"Fresh Tortillas Express","cuisine":"Mexican","address":"206 Varick St","coordinates":{"latitude":40.72874,"longitude":-74.00505},"review_count":61,"rating":3,"zip_code":"10014"},{"id":"9laSSXnr4F16gURfUBbZTA","name":"Oaxaca Taqueria","cuisine":"Mexican","address":"1709 2nd Ave","coordinates":{"latitude":40.77964,"longitude":-73.95081},"review_count":60,"rating":3.5,"zip_code":"10128"},{"id":"9ijkw9x8oSSSnsUo5uR4Xw","name":"Taco Santana","cuisine":"Mexican","address":"301 Keap St","coordinates":{"latitude":40.7079186820012,"longitude":-73.9554587596491},"review_count":134,"rating":4,"zip_code":"11211"},{"id":"yGQT6OZ-nNIhTKj32wRlmA","name":"Bar Bolinas","cuisine":"Mexican","address":"455 Myrtle Ave","coordinates":{"latitude":40.69342,"longitude":-73.9673},"review_count":97,"rating":4,"zip_code":"11205"},{"id":"FjeUodgFr0KCWJ1ylvGjdQ","name":"Haab","cuisine":"Mexican","address":"202 Leonard St","coordinates":{"latitude":40.71099,"longitude":-73.94707},"review_count":163,"rating":3.5,"zip_code":"11206"},{"id":"qSKjtOgP0SsxfKqdqgLMzg","name":"Chipotle Mexican Grill","cuisine":"Mexican","address":"854 8th Ave","coordinates":{"latitude":40.76307,"longitude":-73.98532},"review_count":92,"rating":2.5,"zip_code":"10019"},{"id":"_URXTaYBbd2XX5qJbDkKAg","name":"Taco Morelos","cuisine":"Mexican","address":"N 7th And Bedford Ave","coordinates":{"latitude":40.71783,"longitude":-73.95773},"review_count":81,"rating":4,"zip_code":"11211"},{"id":"wflQFYM4PHZM5sfWXl0aOQ","name":"Al Horno Lean Mexican Kitchen","cuisine":"Mexican","address":"36 Lexington Ave","coordinates":{"latitude":40.74004,"longitude":-73.98453},"review_count":70,"rating":3,"zip_code":"10010"},{"id":"E_XstVPsYMbU4sNTIttarQ","name":"Gallito's Kitchen","cuisine":"Mexican","address":"140 Montague St","coordinates":{"latitude":40.6944006,"longitude":-73.9937447},"review_count":237,"rating":4,"zip_code":"11201"},{"id":"GeL6wGdzhdEhuIFQau3ocQ","name":"Taqueria Meza","cuisine":"Mexican","address":"95 7th Ave S","coordinates":{"latitude":40.7328153,"longitude":-74.0030814},"review_count":108,"rating":3,"zip_code":"10014"},{"id":"cGQZOrC0Dn_-E2a8CGhh0A","name":"Chipotle Mexican Grill","cuisine":"Mexican","address":"235 W 56th St","coordinates":{"latitude":40.7659759521484,"longitude":-73.982551574707},"review_count":100,"rating":2.5,"zip_code":"10019"},{"id":"-zrSA8XT-GVLQ4yxG_wa1w","name":"SeoulFood Truck","cuisine":"Mexican","address":"303 5th Ave","coordinates":{"latitude":40.7465096,"longitude":-73.9854736},"review_count":79,"rating":2.5,"zip_code":"10022"},{"id":"h1PXV90jW1bXIWVlKiF0NQ","name":"DesiBowl","cuisine":"Mexican","address":"49-11 Vernon Blvd","coordinates":{"latitude":40.7429077652858,"longitude":-73.9539128914475},"review_count":36,"rating":4.5,"zip_code":"11101"},{"id":"wO9FMvtYqsJoYrnHDASE0A","name":"Don Pancho Villa Restaurant","cuisine":"Mexican","address":"189 Borinquen Pl","coordinates":{"latitude":40.7108400017023,"longitude":-73.9527411013842},"review_count":162,"rating":4,"zip_code":"11211"},{"id":"1vkYZbdwMpqteI8x_sS68g","name":"Fast and Fresh Burrito Deli","cuisine":"Mexican","address":"84 Hoyt St","coordinates":{"latitude":40.688096,"longitude":-73.987033},"review_count":147,"rating":4,"zip_code":"11201"},{"id":"8Gg_SoA5TA7pLNB-xuPhPw","name":"Mexikosher","cuisine":"Mexican","address":"100 W 83rd St","coordinates":{"latitude":40.78458,"longitude":-73.97393},"review_count":62,"rating":3.5,"zip_code":"10024"},{"id":"FrYsIO_pXB6csWkvy-nfbQ","name":"Made In Mexico Harlem","cuisine":"Mexican","address":"2161 2nd Ave","coordinates":{"latitude":40.7940072130959,"longitude":-73.9402346313},"review_count":53,"rating":4,"zip_code":"10029"},{"id":"zupIzmhdcH0U6vJQQxDBiQ","name":"Bar Bruno","cuisine":"Mexican","address":"520 Henry St","coordinates":{"latitude":40.6833674,"longitude":-73.9997959},"review_count":202,"rating":4,"zip_code":"11231"},{"id":"r4Z1eXoiWwJeMM7fseoZ9A","name":"Taco Hut","cuisine":"Mexican","address":"3210 Broadway","coordinates":{"latitude":40.815948103912,"longitude":-73.957760599224},"review_count":47,"rating":3.5,"zip_code":"10027"},{"id":"HOEjrJUwKBxSmQRVSILS8Q","name":"Tepache","cuisine":"Mexican","address":"361 Halsey St","coordinates":{"latitude":40.68325,"longitude":-73.93826},"review_count":272,"rating":4,"zip_code":"11216"},{"id":"yl214H_cUd1intjVAeE1Mw","name":"Casa Publica","cuisine":"Mexican","address":"594 Union Ave","coordinates":{"latitude":40.718194,"longitude":-73.9520543},"review_count":57,"rating":4,"zip_code":"11211"},{"id":"Ay38C7i2ziGjjoG9Q6Bo0A","name":"Grand Morelos","cuisine":"Mexican","address":"727 Grand St","coordinates":{"latitude":40.71188,"longitude":-73.94367},"review_count":182,"rating":3.5,"zip_code":"11211"},{"id":"aStZY21Qmtzm1IS8y1_81g","name":"Móle","cuisine":"Mexican","address":"178 Kent Ave","coordinates":{"latitude":40.718819,"longitude":-73.963455},"review_count":226,"rating":3,"zip_code":"11211"},{"id":"RLjlJPtciMdE2nEurLmmNQ","name":"La Casa de Los Tacos","cuisine":"Mexican","address":"290 County Ave","coordinates":{"latitude":40.7740104861106,"longitude":-74.06321},"review_count":97,"rating":4,"zip_code":"07094"},{"id":"x4W0rufd01dP8ieMhlTqmQ","name":"Dos Toros Taqueria","cuisine":"Mexican","address":"668 6th Ave","coordinates":{"latitude":40.7413,"longitude":-73.99359},"review_count":32,"rating":3.5,"zip_code":"10010"},{"id":"KyOtOluTH8c8SICpf85thg","name":"Mesa Azteca","cuisine":"Mexican","address":"91 Wyckoff Ave","coordinates":{"latitude":40.705162,"longitude":-73.920116},"review_count":196,"rating":4,"zip_code":"11237"},{"id":"paogBWxBRdyByOGAkln8Lw","name":"New Taco Express","cuisine":"Mexican","address":"130 E 28th St","coordinates":{"latitude":40.74267,"longitude":-73.98276},"review_count":49,"rating":3,"zip_code":"10016"},{"id":"5fUY5sq00VMPdb1SDJWBug","name":"New Mexico Place","cuisine":"Mexican","address":"189 Graham Ave","coordinates":{"latitude":40.708499,"longitude":-73.943709},"review_count":177,"rating":3.5,"zip_code":"11226"},{"id":"SiwsLmJ_7sxt2C7S-8muTw","name":"El Luchador Taqueria","cuisine":"Mexican","address":"132 Ludlow St","coordinates":{"latitude":40.7202,"longitude":-73.98819},"review_count":63,"rating":3,"zip_code":"10002"},{"id":"vIDX92ttk7H-266e1Qo7RA","name":"Juquila Mexican Cuisine","cuisine":"Mexican","address":"40-12 83rd St","coordinates":{"latitude":40.74727,"longitude":-73.88318},"review_count":126,"rating":4,"zip_code":"11373"},{"id":"IwCABldBA_oOg6S2LnAXYw","name":"Takumi Taco","cuisine":"Mexican","address":"230 Park Ave","coordinates":{"latitude":40.7543951061432,"longitude":-73.975995182991},"review_count":44,"rating":3,"zip_code":"10169"},{"id":"JPOjbYV-4NG1C221UVUtiQ","name":"Baja Mexican Cuisine","cuisine":"Mexican","address":"104 14th St","coordinates":{"latitude":40.75352,"longitude":-74.02636},"review_count":175,"rating":3,"zip_code":"07030"},{"id":"XGdUYzkPkX94RoLlPDymeQ","name":"Tacos Y Quesadillas Mexico","cuisine":"Mexican","address":"2030 Broadway Ave","coordinates":{"latitude":40.777487,"longitude":-73.982069},"review_count":30,"rating":4,"zip_code":"10023"},{"id":"G9BdbmiuoLkF3qxk4d1d3g","name":"Lime Jungle","cuisine":"Mexican","address":"741 9th Ave","coordinates":{"latitude":40.7637225067011,"longitude":-73.9890897274017},"review_count":90,"rating":2.5,"zip_code":"10036"},{"id":"nSARpLirJF8vyiFMCuN1Aw","name":"Chipotle Mexican Grill","cuisine":"Mexican","address":"470 Park Ave S","coordinates":{"latitude":40.7454705293401,"longitude":-73.9828921834671},"review_count":65,"rating":3,"zip_code":"10016"},{"id":"rNldYbdOcJRGmLgD29ZELA","name":"Don Panchito","cuisine":"Mexican","address":"N 3rd St","coordinates":{"latitude":40.7154074225537,"longitude":-73.9603268362965},"review_count":36,"rating":4,"zip_code":"11211"},{"id":"E4wNBoe1PD0pCyF6qr-xbA","name":"Greenpoint Beer and Ale","cuisine":"Mexican","address":"7 N 15th St","coordinates":{"latitude":40.72516,"longitude":-73.95705},"review_count":108,"rating":3.5,"zip_code":"11222"},{"id":"snORfbD1AkFlRtlITvS_YQ","name":"Mexico 2000 Grocery","cuisine":"Mexican","address":"367 Broadway","coordinates":{"latitude":40.70758,"longitude":-73.95509},"review_count":66,"rating":4,"zip_code":"11211"},{"id":"ejrmaeYJ98VNJn7AbxkcOA","name":"Chipotle Mexican Grill","cuisine":"Mexican","address":"1153 Third Ave","coordinates":{"latitude":40.76665,"longitude":-73.96245},"review_count":62,"rating":2.5,"zip_code":"10065"},{"id":"xBx9GgsH2Npbcp7foPobQA","name":"Castro's Restaurant","cuisine":"Mexican","address":"511 Myrtle Ave","coordinates":{"latitude":40.6938559,"longitude":-73.964426},"review_count":244,"rating":3.5,"zip_code":"11205"},{"id":"8b0iC1j499IEmy8a4IVyog","name":"Chipotle Mexican Grill","cuisine":"Mexican","address":"1379 Sixth Ave","coordinates":{"latitude":40.7635843626354,"longitude":-73.9779210090637},"review_count":58,"rating":3,"zip_code":"10019"},{"id":"9tlYA026rvZ0m6OBUeZX7w","name":"La Cabana","cuisine":"Mexican","address":"3318 30th Ave","coordinates":{"latitude":40.76564,"longitude":-73.91929},"review_count":35,"rating":4.5,"zip_code":"11103"},{"id":"uVfOB37NyYEGRs5FITM-nQ","name":"Leyenda","cuisine":"Mexican","address":"221 Smith St","coordinates":{"latitude":40.684257,"longitude":-73.991874},"review_count":159,"rating":4,"zip_code":"11201"},{"id":"xNgaGyePJ7fyZ9D0J74-3A","name":"East LA","cuisine":"Mexican","address":"508 Washington St","coordinates":{"latitude":40.74258,"longitude":-74.02966},"review_count":299,"rating":3,"zip_code":"07030"},{"id":"cmUAEag_wLyh8LsHWJTpvQ","name":"Chipotle Mexican Grill","cuisine":"Mexican","address":"320 Park Ave","coordinates":{"latitude":40.757682,"longitude":-73.974212},"review_count":53,"rating":2.5,"zip_code":"10022"},{"id":"Cn0aZzeIrulN6N4OF7eMdQ","name":"Arriba Arriba Sunnyside","cuisine":"Mexican","address":"40-15 Queens Blvd","coordinates":{"latitude":40.74413,"longitude":-73.92352},"review_count":187,"rating":3,"zip_code":"11104"},{"id":"hUo4q9yZmZTyI-GECcP7ow","name":"Taco Recipes","cuisine":"Mexican","address":"23 Essex St","coordinates":{"latitude":40.7152606869718,"longitude":-73.9900060870141},"review_count":25,"rating":3.5,"zip_code":"10002"},{"id":"a9rBsBs6DFNbsKvAmbq3BA","name":"Emilia's Pizza & Authentic Mexican Food","cuisine":"Mexican","address":"3705 28th Ave","coordinates":{"latitude":40.7662621,"longitude":-73.9150543},"review_count":35,"rating":4.5,"zip_code":"11103"},{"id":"1-QgkACd4atRtc4AOGWz_Q","name":"Genesis","cuisine":"Mexican","address":"7804 Woodside Ave","coordinates":{"latitude":40.7435971734647,"longitude":-73.8868284970522},"review_count":73,"rating":4.5,"zip_code":"11373"},{"id":"_FrbMrCJQMUEoNiKJA3q_w","name":"Harlem Taco & Bowl Company","cuisine":"Mexican","address":"2288 Frederick Douglass Blvd","coordinates":{"latitude":40.80869,"longitude":-73.95202},"review_count":21,"rating":4.5,"zip_code":"10027"},{"id":"CCSe0G6E8C_XK5ZEYX9EiA","name":"Chipotle Mexican Grill","cuisine":"Mexican","address":"604 2nd Ave","coordinates":{"latitude":40.7443253695965,"longitude":-73.9761447161436},"review_count":62,"rating":2.5,"zip_code":"10016"},{"id":"YjAM0lKyc_ysySljDLfH0Q","name":"Cafe De La Esquina","cuisine":"Mexican","address":"225 Wythe Ave","coordinates":{"latitude":40.71709,"longitude":-73.96286},"review_count":343,"rating":2.5,"zip_code":"11249"},{"id":"lxKFLdnWRglNVQg7O20-RQ","name":"Sweet Life Pastry","cuisine":"Mexican","address":"3887 Broadway","coordinates":{"latitude":40.8375109438682,"longitude":-73.9426190258619},"review_count":88,"rating":4.5,"zip_code":"10032"},{"id":"A1tXlvO0BsRhCnujvSuKkA","name":"Calexico- Red Hook","cuisine":"Mexican","address":"122 Union St","coordinates":{"latitude":40.6841796,"longitude":-74.0025404},"review_count":237,"rating":3.5,"zip_code":"11231"},{"id":"MIaM6XD8nW-y89GaXxs-pw","name":"Yolanda's Tamales","cuisine":"Mexican","address":"3380 Broadway","coordinates":{"latitude":40.8213076768784,"longitude":-73.9539987592992},"review_count":36,"rating":5,"zip_code":"10031"},{"id":"dKI9VFUjQbiFgIRs00C8qw","name":"La Troca del Sabor","cuisine":"Mexican","address":"N 4th St Bedford Ave","coordinates":{"latitude":40.7194,"longitude":-73.95604},"review_count":38,"rating":4.5,"zip_code":"11211"},{"id":"RNYpDA-Dd9HPEPU0Eo7fhw","name":"El Diablo Taco Truck","cuisine":"Mexican","address":"484 Union Ave","coordinates":{"latitude":40.7156147733261,"longitude":-73.9521074295044},"review_count":67,"rating":4,"zip_code":"11211"},{"id":"9vISn2VuyhBgB3C1I6pyvw","name":"Dos Toros Taqueria","cuisine":"Mexican","address":"189 Bedford Ave","coordinates":{"latitude":40.7175893,"longitude":-73.9579096},"review_count":129,"rating":3.5,"zip_code":"11211"},{"id":"dh3px6yeYcUUN_WkzXxj7Q","name":"Tacos Al Suadero","cuisine":"Mexican","address":"87-21 Roosevelt Ave","coordinates":{"latitude":40.7482863,"longitude":-73.879015},"review_count":129,"rating":4,"zip_code":"11372"},{"id":"b1YI5HyveAliyFh7Tuiszg","name":"Cozumel Tortilla","cuisine":"Mexican","address":"877 10th Ave","coordinates":{"latitude":40.76944,"longitude":-73.98867},"review_count":42,"rating":3,"zip_code":"10019"},{"id":"60sLpAHHl-IvANGTRzfCow","name":"Tacos Grand Central","cuisine":"Mexican","address":"711 2nd Ave","coordinates":{"latitude":40.7476230390695,"longitude":-73.9740906903076},"review_count":10,"rating":4,"zip_code":"10016"},{"id":"sbdRT4UyIYTFrXfCKraAhQ","name":"Vera Cruz","cuisine":"Mexican","address":"195 Bedford Ave","coordinates":{"latitude":40.71729,"longitude":-73.9579399},"review_count":188,"rating":3,"zip_code":"11211"},{"id":"7Er3ykMx3xUzw_kAyoyz4w","name":"Poquito Picante","cuisine":"Mexican","address":"497 Atlantic Ave","coordinates":{"latitude":40.6857420572961,"longitude":-73.98126199517},"review_count":80,"rating":4.5,"zip_code":"11217"},{"id":"YYB2lPax5wAdeNWUcm5WAg","name":"Mexicocina","cuisine":"Mexican","address":"503 Jackson Ave","coordinates":{"latitude":40.811884525549,"longitude":-73.90966713749},"review_count":124,"rating":4,"zip_code":"10455"},{"id":"m3C3d47Bh4NJHGXvT6Rqbg","name":"Mexico 2000 Restaurant","cuisine":"Mexican","address":"369 Broadway","coordinates":{"latitude":40.70754,"longitude":-73.955},"review_count":84,"rating":4,"zip_code":"11211"},{"id":"YvTqr7SBCestzWyi5iCaLw","name":"Bushwick Pita Palace","cuisine":"Mexican","address":"243 Bushwick Ave","coordinates":{"latitude":40.70753,"longitude":-73.93965},"review_count":158,"rating":3.5,"zip_code":"11206"},{"id":"drHqgDkBC5lDv1Qge1IyZQ","name":"Choza Taqueria","cuisine":"Mexican","address":"185 Greenwich St","coordinates":{"latitude":40.7115712,"longitude":-74.0114251},"review_count":31,"rating":3,"zip_code":"10007"},{"id":"KtzxoHCm9N9QJi31TNjbhw","name":"Pequena","cuisine":"Mexican","address":"86 S Portland Ave","coordinates":{"latitude":40.6868452,"longitude":-73.9747352},"review_count":287,"rating":3.5,"zip_code":"11217"},{"id":"l0ZOGV9tohkpfHiZ-3XSRg","name":"Friducha","cuisine":"Mexican","address":"946 Manhattan Ave","coordinates":{"latitude":40.73153,"longitude":-73.95416},"review_count":28,"rating":4.5,"zip_code":"11222"},{"id":"xSXS19FnzrHSlC_HnZ50Fg","name":"Chipotle Mexican Grill","cuisine":"Mexican","address":"1288 1st Ave","coordinates":{"latitude":40.7659378,"longitude":-73.9571533},"review_count":59,"rating":2.5,"zip_code":"10021"},{"id":"_XPusO4eMV3L9TiD38I4gw","name":"Al Horno Lean Mexican Kitchen","cuisine":"Mexican","address":"110 Pearl St","coordinates":{"latitude":40.7044967,"longitude":-74.009238},"review_count":39,"rating":3,"zip_code":"10005"},{"id":"mIb2fcxjJ81y8omv7oyi7g","name":"Gina Mexicana","cuisine":"Mexican","address":"1288 Madison Ave","coordinates":{"latitude":40.78454,"longitude":-73.95631},"review_count":48,"rating":3,"zip_code":"10128"},{"id":"jF9hIgD5MvZBXyKvztUtSA","name":"GMC Temaxcal Deli & Grocery","cuisine":"Mexican","address":"163 Park Ave","coordinates":{"latitude":40.696418,"longitude":-73.972984},"review_count":29,"rating":5,"zip_code":"11205"},{"id":"023ivwWL8ruoHsr3-AaGFA","name":"Chipotle Mexican Grill","cuisine":"Mexican","address":"234 Fifth Ave","coordinates":{"latitude":40.7443150242025,"longitude":-73.9880258962512},"review_count":36,"rating":3,"zip_code":"10001"},{"id":"ibiATQS8ZsG4XlKSmenB3g","name":"Chipotle Mexican Grill","cuisine":"Mexican","address":"185 Montague St","coordinates":{"latitude":40.694339,"longitude":-73.991813},"review_count":179,"rating":3.5,"zip_code":"11201"},{"id":"22hJnIdH-_UryUCvdjCChg","name":"Yola's Cafe","cuisine":"Mexican","address":"524 Metropolitan Ave","coordinates":{"latitude":40.713843,"longitude":-73.951128},"review_count":201,"rating":3,"zip_code":"11211"},{"id":"puezOVbnaPWQYtVb3hhw5w","name":"Chipotle Mexican Grill","cuisine":"Mexican","address":"14 The Promenade","coordinates":{"latitude":40.8069933052488,"longitude":-73.9902224336752},"review_count":108,"rating":3.5,"zip_code":"07020"},{"id":"DAAdG53Wry4Q6juEk3q6SA","name":"Taco House","cuisine":"Mexican","address":"178 Church St","coordinates":{"latitude":40.7156225,"longitude":-74.0073923},"review_count":82,"rating":2.5,"zip_code":"10013"},{"id":"UwZtUMsxS-mwWpeZnrO49g","name":"Chinantla","cuisine":"Mexican","address":"657 Myrtle Ave","coordinates":{"latitude":40.69464,"longitude":-73.95747},"review_count":95,"rating":4,"zip_code":"11205"},{"id":"AuKtb5a8DEe1qSVe_vwpzQ","name":"Side Park Cafe","cuisine":"Mexican","address":"1230 5th Ave","coordinates":{"latitude":40.7931,"longitude":-73.95137},"review_count":16,"rating":4,"zip_code":"10029"},{"id":"cOUYYcrOeManYPyuun_xVg","name":"Jimbo Slims","cuisine":"Mexican","address":"524 Graham Ave","coordinates":{"latitude":40.7209450363619,"longitude":-73.9465168238625},"review_count":21,"rating":5,"zip_code":"11222"},{"id":"cQGW6BWU6lppWVSwlFBDgA","name":"Cinco De Mayo","cuisine":"Mexican","address":"837 Washington Ave","coordinates":{"latitude":40.8225131696248,"longitude":-73.9115964114002},"review_count":109,"rating":4,"zip_code":"10451"},{"id":"0B1gLUwHvZDsKTLFeaxP6g","name":"Moe's Southwest Grill","cuisine":"Mexican","address":"75 River Rd","coordinates":{"latitude":40.804826,"longitude":-73.991892},"review_count":90,"rating":3.5,"zip_code":"07020"},{"id":"XsxnMWdMpVixA7Yyq_vq7Q","name":"Palomas","cuisine":"Mexican","address":"435 Menahan St","coordinates":{"latitude":40.7034683227539,"longitude":-73.9121246337891},"review_count":74,"rating":4.5,"zip_code":"11237"},{"id":"Tzt9Oc2WJGO5y80kIET5qA","name":"Chipotle Mexican Grill","cuisine":"Mexican","address":"71 Spring St","coordinates":{"latitude":40.722672,"longitude":-73.997429},"review_count":74,"rating":2.5,"zip_code":"10012"},{"id":"W_0AX5JL3QZnX1oQNxQGtw","name":"Xochimilco Family Restaurant","cuisine":"Mexican","address":"653 Melrose Ave","coordinates":{"latitude":40.8185645,"longitude":-73.9168277},"review_count":65,"rating":4.5,"zip_code":"10455"},{"id":"Y1dM7kSfq7PoB7NrDQFpdQ","name":"Picante","cuisine":"Mexican","address":"3424 Broadway","coordinates":{"latitude":40.8228372881426,"longitude":-73.9527709564668},"review_count":263,"rating":3,"zip_code":"10031"},{"id":"sI2edjlJaaSUv7j8s0R1UQ","name":"Chipotle Mexican Grill","cuisine":"Mexican","address":"275 Greenwich St","coordinates":{"latitude":40.7151865,"longitude":-74.011066},"review_count":68,"rating":2.5,"zip_code":"10007"},{"id":"TH7G0MEjBNYMQcBTkl_dpA","name":"Gramercy Grill","cuisine":"Mexican","address":"32 Lexington Ave","coordinates":{"latitude":40.7400232,"longitude":-73.984633},"review_count":53,"rating":2.5,"zip_code":"10010"},{"id":"hLXOnp4TB7M0VllhqeqBJQ","name":"Tacos y Quesadillas Mexicanos","cuisine":"Mexican","address":"6022 Roosevelt Ave","coordinates":{"latitude":40.7456882160225,"longitude":-73.9029264450073},"review_count":42,"rating":4,"zip_code":"11377"},{"id":"-yR4PHWqpkrPopwv4wrC5g","name":"Taquerias Veracruz","cuisine":"Mexican","address":"434 51st St","coordinates":{"latitude":40.7833448,"longitude":-74.0197169},"review_count":26,"rating":4,"zip_code":"07093"},{"id":"z3TwiFWdJUvY9tW8QMEseQ","name":"Taco Dumbo","cuisine":"Mexican","address":"56 Prospect St","coordinates":{"latitude":40.7006726,"longitude":-73.9885398},"review_count":92,"rating":4,"zip_code":"11201"},{"id":"0Y8dv9UHGquFkWlVK7PdjA","name":"Buddy's Burrito & Taco Bar","cuisine":"Mexican","address":"260 Court St","coordinates":{"latitude":40.685341,"longitude":-73.994661},"review_count":144,"rating":4,"zip_code":"11231"},{"id":"zBORlLYwMqqJ_GOX6K31mw","name":"Pedro's Mexican Bar & Restaurant","cuisine":"Mexican","address":"73 Jay St","coordinates":{"latitude":40.702523,"longitude":-73.986503},"review_count":394,"rating":2.5,"zip_code":"11201"},{"id":"HfVMTVjgxumjFpUF_T8mqg","name":"Taqueria Sofia","cuisine":"Mexican","address":"187 Suydam St","coordinates":{"latitude":40.7000869,"longitude":-73.9257427},"review_count":99,"rating":4,"zip_code":"11221"},{"id":"HqI1ROCmZa2THlBxT9nyrA","name":"Las Palmas Restaurant","cuisine":"Mexican","address":"3891 Broadway","coordinates":{"latitude":40.8377037,"longitude":-73.9425248},"review_count":130,"rating":4,"zip_code":"10032"},{"id":"bO8x1Xvtyj4_gUxtX-sjrA","name":"Taqueria Guadalupe","cuisine":"Mexican","address":"1743 Lexington Ave","coordinates":{"latitude":40.793716,"longitude":-73.944923},"review_count":40,"rating":3,"zip_code":"10029"},{"id":"Fp2QuKOu_zCjOxbyCLfnjw","name":"El Rey Restaurant","cuisine":"Mexican","address":"25-21 Astoria Blvd","coordinates":{"latitude":40.77137,"longitude":-73.92198},"review_count":63,"rating":3.5,"zip_code":"11102"},{"id":"dFu9biMhpZ_jGyEXV4ofmA","name":"Chipotle Mexican Grill","cuisine":"Mexican","address":"229 Washington St","coordinates":{"latitude":40.7395222,"longitude":-74.0300599},"review_count":75,"rating":3.5,"zip_code":"07030"},{"id":"5IR02V3Bbkcbs14yfKNDTQ","name":"Taqueria San Pedro","cuisine":"Mexican","address":"3662 Broadway","coordinates":{"latitude":40.8303299,"longitude":-73.94728},"review_count":98,"rating":4,"zip_code":"10031"},{"id":"KX7-L2PTl_ZM1ufx2tVVVA","name":"Taqueria Mexicana","cuisine":"Mexican","address":"7024 Bergenline Ave","coordinates":{"latitude":40.7965563,"longitude":-74.0103249},"review_count":54,"rating":3.5,"zip_code":"07047"},{"id":"PONtyQEKPROcBbnp4oZXTQ","name":"Chipotle Mexican Grill","cuisine":"Mexican","address":"281 Broadway","coordinates":{"latitude":40.7146416,"longitude":-74.0063629},"review_count":43,"rating":3,"zip_code":"10007"},{"id":"FTze-KoZbdpwIIGzijkeMQ","name":"Naive","cuisine":"Mexican","address":"299 S 4th St","coordinates":{"latitude":40.70937,"longitude":-73.95571},"review_count":47,"rating":4.5,"zip_code":"11211"},{"id":"eZ0J2lwGdOBZHQKTC5hQYQ","name":"Cerveceria Havemeyer","cuisine":"Mexican","address":"149 Havemeyer St","coordinates":{"latitude":40.7116974,"longitude":-73.9574585},"review_count":105,"rating":3.5,"zip_code":"11211"},{"id":"qOW2fskGqpUlWkbFqlzPbw","name":"211 New Taco Grill","cuisine":"Mexican","address":"211 E 14th St","coordinates":{"latitude":40.73317,"longitude":-73.98616},"review_count":38,"rating":2.5,"zip_code":"10003"},{"id":"hLwzr3ku6D2zsW9OUmp6cA","name":"El Tio Taco","cuisine":"Mexican","address":"5024 Bergenline Ave","coordinates":{"latitude":40.7832760321852,"longitude":-74.0203918615574},"review_count":36,"rating":4,"zip_code":"07093"},{"id":"DGa4PysLx10aRnXqRQ4Cng","name":"La Mesita Restaurant","cuisine":"Mexican","address":"1513 Myrtle Ave","coordinates":{"latitude":40.6992569,"longitude":-73.9152222},"review_count":62,"rating":4.5,"zip_code":"11237"},{"id":"LghHcDB42fkYx43rVq-O9w","name":"Tequila Sunrise","cuisine":"Mexican","address":"40-01 Northern Blvd","coordinates":{"latitude":40.7527848676672,"longitude":-73.9237234023634},"review_count":168,"rating":3,"zip_code":"11101"},{"id":"36NGJ_vn81vgdSi15WyHKQ","name":"Puerto Vallarta Restaurant","cuisine":"Mexican","address":"7721 John F Kennedy Blvd W","coordinates":{"latitude":40.8032128178057,"longitude":-74.0123075991869},"review_count":46,"rating":4,"zip_code":"07047"},{"id":"aIigHZBgXDHXalBZMRHsvg","name":"Gringo's","cuisine":"Mexican","address":"12 Coles St","coordinates":{"latitude":40.7216329213934,"longitude":-74.0476842694786},"review_count":192,"rating":3.5,"zip_code":"07302"},{"id":"0kFP2UiYHoJHx6d9w1ZNhg","name":"El Carrito Rojo","cuisine":"Mexican","address":"19TH St And 6th Ave","coordinates":{"latitude":40.74044,"longitude":-73.99459},"review_count":17,"rating":3.5,"zip_code":"10011"},{"id":"4Fe6J1brxdVHdhFW1iKUlQ","name":"El Coyote Restaurant","cuisine":"Mexican","address":"80-18 Northern Blvd","coordinates":{"latitude":40.7552907510186,"longitude":-73.8866319740258},"review_count":194,"rating":3,"zip_code":"11372"},{"id":"0vlKdw90vkZzn-i9tk57mA","name":"Off The Grid Pub & Grub","cuisine":"Mexican","address":"3480 Broadway","coordinates":{"latitude":40.8245999,"longitude":-73.95146},"review_count":44,"rating":4,"zip_code":"10031"},{"id":"PtiKYwe-8DlwNOabLKgUpw","name":"Choza Taqueria","cuisine":"Mexican","address":"100 Park Ave","coordinates":{"latitude":40.75134,"longitude":-73.97892},"review_count":35,"rating":3,"zip_code":"10017"},{"id":"TleAd45T6-9TP7FBO19dww","name":"TRI Mexican Tacos","cuisine":"Mexican","address":"20th St & Broadway","coordinates":{"latitude":40.73918,"longitude":-73.98977},"review_count":9,"rating":4.5,"zip_code":"10003"},{"id":"14gt2epj7Tbbcu1HRwjwBw","name":"Antojitos Mexicano El Taco Taco","cuisine":"Mexican","address":"2831 Broadway","coordinates":{"latitude":40.8041252611665,"longitude":-73.9670319963918},"review_count":6,"rating":4.5,"zip_code":"10025"},{"id":"USbP_ZBNSP0h_gja_xob5w","name":"Holy Mole Tamale!","cuisine":"Mexican","address":"133 E 110th St","coordinates":{"latitude":40.79519,"longitude":-73.94473},"review_count":7,"rating":4.5,"zip_code":"10029"},{"id":"ZVtui4cnUs7iXRJMDD1GwA","name":"El Rey Del Taco","cuisine":"Mexican","address":"3217 Bergenline Ave","coordinates":{"latitude":40.7725668,"longitude":-74.0291146},"review_count":29,"rating":4,"zip_code":"07087"}]}
