{"businesses":[{"id":"Dj_ItL2pHLlOAUZ2oQBS8w","name":"Happy Garden Palace","cuisine":"Chinese","address":"54 E Broadway","coordinates":{"latitude":40.71381,"longitude":-73.9955},"review_count":12,"rating":3.5,"zip_code":"10002"},{"id":"hZPnCn69y31pkqy334tviQ","name":"Lily's","cuisine":"Chinese","address":"31 Oliver St","coordinates":{"latitude":40.71211,"longitude":-73.99806},"review_count":52,"rating":2,"zip_code":"10038"},{"id":"kQWAx-Otx-sw6eakRSAGow","name":"Emperor Japanese Tapas Shabu Restaurant","cuisine":"Chinese","address":"96 Bowery","coordinates":{"latitude":40.71767,"longitude":-73.995574},"review_count":37,"rating":2.5,"zip_code":"10013"},{"id":"vC3yBLteaaPp0ycXRtfwPA","name":"Tsing Garden Chinese Restaurant","cuisine":"Chinese","address":"6409 Park Ave","coordinates":{"latitude":40.7892719,"longitude":-74.0060948},"review_count":32,"rating":3.5,"zip_code":"07093"},{"id":"BbODF2tZuw4xW_RFwMzwRg","name":"Jiangnan Chinese Cuisine","cuisine":"Chinese","address":"103 Washington St","coordinates":{"latitude":40.70838,"longitude":-74.01408},"review_count":12,"rating":3.5,"zip_code":"10006"},{"id":"hUtNR4grA0l1a1YeDb1kjQ","name":"Hiro Sushi","cuisine":"Chinese","address":"160 Freedom Pl","coordinates":{"latitude":40.7777531278516,"longitude":-73.9881146585633},"review_count":79,"rating":2,"zip_code":"10069"},{"id":"bWENqo52d9fFPH9D-CWuqQ","name":"New Fresco Tortillas","cuisine":"Chinese","address":"63 Reade St","coordinates":{"latitude":40.7148315,"longitude":-74.0065651},"review_count":38,"rating":2,"zip_code":"10007"},{"id":"nrsWSUJdNtOhV2UzPi-oOQ","name":"La Preciosa China Restaurant","cuisine":"Chinese","address":"163 E 116th St","coordinates":{"latitude":40.79859,"longitude":-73.94081},"review_count":20,"rating":3,"zip_code":"10029"},{"id":"PKkCtyZQpVEzivSF41ZgIw","name":"Sunrise Chinese Restaurant","cuisine":"Chinese","address":"3320 Broadway","coordinates":{"latitude":40.760806,"longitude":-73.923281},"review_count":39,"rating":3.5,"zip_code":"11106"},{"id":"czQm6Ull9V6b-64amhUMyA","name":"Good Taste Restaurant","cuisine":"Chinese","address":"3371 Broadway","coordinates":{"latitude":40.8214624,"longitude":-73.9543845},"review_count":41,"rating":4,"zip_code":"10031"},{"id":"i6RhqnCJ_oUfTu5LikGXUg","name":"Dun Huang","cuisine":"Chinese","address":"300 E 12th St","coordinates":{"latitude":40.73081,"longitude":-73.98568},"review_count":13,"rating":4.5,"zip_code":"10003"},{"id":"5J0lUZ3yyYM1QGohm-IvfA","name":"Xing Wang","cuisine":"Chinese","address":"Chinatown","coordinates":{"latitude":40.7157550918675,"longitude":-73.9982862881705},"review_count":5,"rating":4.5,"zip_code":""},{"id":"ayw4_D-wSCIr-xcJ3_aZ4A","name":"Wah Kwoon Chinese Kitchen","cuisine":"Chinese","address":"146 Nassau Ave","coordinates":{"latitude":40.72463,"longitude":-73.947486},"review_count":30,"rating":3.5,"zip_code":"11222"},{"id":"IQ91FltwJmIPhS6fKKf2pw","name":"China 1 Kitchen","cuisine":"Chinese","address":"609 Main St","coordinates":{"latitude":40.7632023290684,"longitude":-73.9490040654764},"review_count":48,"rating":2.5,"zip_code":"10044"},{"id":"RUnj4RTVOSbbHE5zyguhrg","name":"No 1 Flower Drum House","cuisine":"Chinese","address":"21-05 31st St","coordinates":{"latitude":40.777674,"longitude":-73.908463},"review_count":56,"rating":3.5,"zip_code":"11105"},{"id":"vkgl6UT8e7PXoVZUhxXq8w","name":"Good Taste","cuisine":"Chinese","address":"3801 29th St","coordinates":{"latitude":40.7543728,"longitude":-73.9335449},"review_count":31,"rating":3.5,"zip_code":"11101"},{"id":"zqi2taRgN5VzkEMQGOMQHg","name":"Shanghai Sogo","cuisine":"Chinese","address":"36 W 47th St","coordinates":{"latitude":40.757195,"longitude":-73.980431},"review_count":12,"rating":3,"zip_code":"10036"},{"id":"EgBPFtixZK9VhRtFsobDxg","name":"Best Fuzhou Restaurant","cuisine":"Chinese","address":"71A Eldridge St","coordinates":{"latitude":40.7167625427246,"longitude":-73.9927978515625},"review_count":5,"rating":4,"zip_code":"10002"},{"id":"zBW83MXi_r2YQmTkwwbwFQ","name":"New Golden Bowl Restaurant","cuisine":"Chinese","address":"51 Division St","coordinates":{"latitude":40.71412,"longitude":-73.99509},"review_count":8,"rating":4,"zip_code":"10002"},{"id":"Ex_qolTE5syJ8so0NscfGw","name":"King Wah","cuisine":"Chinese","address":"21-04 Newtown Ave","coordinates":{"latitude":40.7719699594225,"longitude":-73.9257651953376},"review_count":38,"rating":3,"zip_code":"11102"},{"id":"Xr8jXXafb0tG5oAoS07Jbg","name":"8 Dragon & Phoenix Chinese Restaurant","cuisine":"Chinese","address":"2217 31st St","coordinates":{"latitude":40.7758518242693,"longitude":-73.9112854238624},"review_count":17,"rating":4.5,"zip_code":"11105"},{"id":"iFAAI-7NoceHYVybom5SyA","name":"New Peking","cuisine":"Chinese","address":"7715 37th Ave","coordinates":{"latitude":40.7494475,"longitude":-73.8884253},"review_count":52,"rating":3.5,"zip_code":"11372"},{"id":"Cj1RTtW3zZF_eDqYRZBMYQ","name":"Tang's Noodle 大唐小面","cuisine":"Chinese","address":"125 Canal St","coordinates":{"latitude":40.71603,"longitude":-73.99523},"review_count":17,"rating":3.5,"zip_code":"10002"},{"id":"__r8_g1cgDaiDn10cGeJ3Q","name":"New China Red","cuisine":"Chinese","address":"118 Chambers St","coordinates":{"latitude":40.715023,"longitude":-74.008636},"review_count":29,"rating":2.5,"zip_code":"10007"},{"id":"YCBjn0t4bMaQb8Bk7l37ng","name":"Gan Asia","cuisine":"Chinese","address":"691 Amsterdam Ave","coordinates":{"latitude":40.7923393,"longitude":-73.971405},"review_count":42,"rating":2.5,"zip_code":"10025"},{"id":"RCzBcrOgc2ZWzXmkdmb6QA","name":"Taste of China","cuisine":"Chinese","address":"101 48th St","coordinates":{"latitude":40.7789153727524,"longitude":-74.0161604825466},"review_count":18,"rating":4,"zip_code":"07087"},{"id":"Vd2lWwWkJTN5317-sCiDTg","name":"Future Restaurant","cuisine":"Chinese","address":"216 Newark Ave","coordinates":{"latitude":40.72214,"longitude":-74.0468999},"review_count":90,"rating":3.5,"zip_code":"07302"},{"id":"fMLvqGCuPWGsK6vMKthlkg","name":"Jade Sixty Asian Steakhouse","cuisine":"Chinese","address":"116 E 60th St","coordinates":{"latitude":40.76303,"longitude":-73.96873},"review_count":31,"rating":3.5,"zip_code":"10022"},{"id":"etU9gCufydWxkm44Y_esyA","name":"Szechun Express","cuisine":"Chinese","address":"639 Palisade Ave","coordinates":{"latitude":40.8243995817555,"longitude":-73.984444908711},"review_count":23,"rating":4.5,"zip_code":"07010"},{"id":"Dh2I2jRTXE7oDCfuA9vCoQ","name":"Super China Pagoda","cuisine":"Chinese","address":"4720 30th Ave","coordinates":{"latitude":40.7610039,"longitude":-73.9091797},"review_count":38,"rating":3.5,"zip_code":"11103"},{"id":"vAlfZ1NitNxyhJlxmHoTyg","name":"Hoa Kitchen","cuisine":"Chinese","address":"370 8th Ave","coordinates":{"latitude":40.74864,"longitude":-73.99564},"review_count":60,"rating":2,"zip_code":"10001"},{"id":"7GFuwK9bv_rmn_-eykzk8Q","name":"Jade Gourmet","cuisine":"Chinese","address":"237 Palisade Ave","coordinates":{"latitude":40.81275,"longitude":-73.9926},"review_count":30,"rating":3.5,"zip_code":"07010"},{"id":"sEShqxRbZuWqjXEVCGMK9g","name":"Talk of the Town","cuisine":"Chinese","address":"37-21 72nd St","coordinates":{"latitude":40.74807,"longitude":-73.89348},"review_count":75,"rating":3,"zip_code":"11372"},{"id":"wtHvdNN_-O8D8t_04eyuPA","name":"Asian Wok","cuisine":"Chinese","address":"88 Fulton St","coordinates":{"latitude":40.709792012435,"longitude":-74.0018463134766},"review_count":31,"rating":2.5,"zip_code":"10038"},{"id":"Wezt_3dALzHmfXjHOPG4GQ","name":"Empire","cuisine":"Chinese","address":"1902 Adam Clayton Powell Jr Blvd","coordinates":{"latitude":40.8028688256819,"longitude":-73.9530954451981},"review_count":20,"rating":3.5,"zip_code":"10039"},{"id":"wo7-TKh4B37RTBjPNtkp7w","name":"Chengdu1","cuisine":"Chinese","address":"166 15th St","coordinates":{"latitude":40.7323552298113,"longitude":-74.039612951068},"review_count":32,"rating":3.5,"zip_code":"07310"},{"id":"ZYWwYSXWyDlVYIjPgXmIQA","name":"East Garden","cuisine":"Chinese","address":"32-10 36th Ave","coordinates":{"latitude":40.7560263,"longitude":-73.9285962},"review_count":37,"rating":3.5,"zip_code":"11106"},{"id":"L6fT2SWSRlwBEc3jWqV2Ig","name":"Jef Chinese","cuisine":"Chinese","address":"919 2nd Ave","coordinates":{"latitude":40.7542031,"longitude":-73.9694108},"review_count":10,"rating":3.5,"zip_code":"10017"},{"id":"QFjyGK3DtTGJ9-g8E7ofCw","name":"Halal Kitchen","cuisine":"Chinese","address":"2135 2nd Ave","coordinates":{"latitude":40.7930498507672,"longitude":-73.9408185787398},"review_count":12,"rating":3.5,"zip_code":"10029"},{"id":"TjB0wn5MyHM5rDMBCSCnfw","name":"Old Peking","cuisine":"Chinese","address":"746 Montgomery St","coordinates":{"latitude":40.7255268,"longitude":-74.0683028},"review_count":32,"rating":4,"zip_code":"07306"},{"id":"s_N9uqqUqjgL7O-bHKZ80w","name":"China Express","cuisine":"Chinese","address":"7013 Park Ave","coordinates":{"latitude":40.79311,"longitude":-74.00313},"review_count":14,"rating":4,"zip_code":"07093"},{"id":"pnhnrLOs2WN7wpvxmjSm1w","name":"Off the Wall Chinese Cuisine","cuisine":"Chinese","address":"512 Washington St","coordinates":{"latitude":40.7427,"longitude":-74.02962},"review_count":53,"rating":3,"zip_code":"07030"},{"id":"5rX_7IkvFx5MKqS3ikQe3Q","name":"Fortune House","cuisine":"Chinese","address":"82 Henry St","coordinates":{"latitude":40.6984406,"longitude":-73.9927368},"review_count":95,"rating":3,"zip_code":"11201"},{"id":"ly02f_k_5VYnSTakZ_bxlw","name":"Buena Fortuna Restaurante","cuisine":"Chinese","address":"88-19 Roosevelt Ave","coordinates":{"latitude":40.7485,"longitude":-73.87759},"review_count":45,"rating":3.5,"zip_code":"11372"},{"id":"fnylA1RJhFui3gt8RXlznw","name":"Yummy Lotus Restaurant","cuisine":"Chinese","address":"38 Allen St","coordinates":{"latitude":40.71599,"longitude":-73.99175},"review_count":3,"rating":5,"zip_code":"10002"},{"id":"8ceGPxcSMdwa8k7y-DLZxA","name":"Sweet Yummy House","cuisine":"Chinese","address":"83-13 Broadway","coordinates":{"latitude":40.74095,"longitude":-73.87938},"review_count":57,"rating":3.5,"zip_code":"11373"},{"id":"GmtybiZEicQ4qqPTzhqVew","name":"Taste of China","cuisine":"Chinese","address":"7100 Grand Ave","coordinates":{"latitude":40.72762,"longitude":-73.892011},"review_count":49,"rating":3.5,"zip_code":"11378"},{"id":"2dmgtQTFM7koKllEQsZmhQ","name":"City One Restaurant","cuisine":"Chinese","address":"2726A Frederick Douglass Blvd","coordinates":{"latitude":40.8225557826076,"longitude":-73.9419602962225},"review_count":14,"rating":3.5,"zip_code":"10030"},{"id":"Y7rizwe37H8O1RfKiXrf0Q","name":"Super Red Star Kitchen","cuisine":"Chinese","address":"2060 Adam Clayton Powell","coordinates":{"latitude":40.80765,"longitude":-73.94963},"review_count":22,"rating":2.5,"zip_code":"10027"},{"id":"Qd4LleGL1MU7hcBYXcyVSA","name":"Good Chinese Kitchen","cuisine":"Chinese","address":"8101 Tonnelle Ave","coordinates":{"latitude":40.807477,"longitude":-74.017076},"review_count":27,"rating":4,"zip_code":"07047"},{"id":"FnWeS2HRGvDimOHMHRHOsw","name":"Number 1 Chinese Restaurant","cuisine":"Chinese","address":"6308 Broadway","coordinates":{"latitude":40.74965,"longitude":-73.89898},"review_count":22,"rating":4,"zip_code":"11377"},{"id":"Qphg_i_vHD2CjJJ5Xi6zKA","name":"Chang Le Xin Fan Zhuang","cuisine":"Chinese","address":"36 Eldridge St","coordinates":{"latitude":40.7156673073769,"longitude":-73.9931733906269},"review_count":12,"rating":3.5,"zip_code":"10002"},{"id":"j0tkph2po_37gtZ1ufxiow","name":"Golden House","cuisine":"Chinese","address":"3512 30th Ave","coordinates":{"latitude":40.76497,"longitude":-73.91789},"review_count":79,"rating":2.5,"zip_code":"11103"},{"id":"4jRVqVqkCNFwV8xxh2Jo3Q","name":"Empire Corner II","cuisine":"Chinese","address":"1415 5th Ave","coordinates":{"latitude":40.80045,"longitude":-73.9464},"review_count":14,"rating":3,"zip_code":"10029"},{"id":"kcNly_1fxCbqgROUdtlzVQ","name":"Zeng Xing Fu Zhou","cuisine":"Chinese","address":"13B Eldridge St","coordinates":{"latitude":40.714851,"longitude":-73.993935},"review_count":10,"rating":3,"zip_code":"10002"},{"id":"Rb9M86u6jYQmX3ubZuP9jw","name":"Savory Kitchen","cuisine":"Chinese","address":"237 Grand St","coordinates":{"latitude":40.718215,"longitude":-73.994613},"review_count":31,"rating":2,"zip_code":"10002"},{"id":"QQfwlKFD6X8-ZXf7gfQZqg","name":"Hardee Chinese- American","cuisine":"Chinese","address":"351 Myrtle Ave","coordinates":{"latitude":40.6933441162109,"longitude":-73.9722290039062},"review_count":17,"rating":4.5,"zip_code":"11205"},{"id":"8td6qiBvZ-En6gSpPjXWzQ","name":"Shanghai Zhen Gong Fu 上海真功夫","cuisine":"Chinese","address":"86-16 Queens Blvd","coordinates":{"latitude":40.73599,"longitude":-73.87735},"review_count":49,"rating":4,"zip_code":"11373"},{"id":"zWDiH7KpUhRhv1cPNExMDg","name":"New Hong Kong Restaurant","cuisine":"Chinese","address":"1907 Lexington Ave","coordinates":{"latitude":40.8001850545406,"longitude":-73.9404103159904},"review_count":4,"rating":4.5,"zip_code":"10035"},{"id":"yVI01P3ApyLlkqtOfgki7A","name":"Bei Jing Chinese Foods","cuisine":"Chinese","address":"860 10th Ave","coordinates":{"latitude":40.768619,"longitude":-73.98851},"review_count":14,"rating":3,"zip_code":"10019"},{"id":"J_CmfwKnzYbfRHvncl7uVA","name":"Hung Sang","cuisine":"Chinese","address":"3404 Bergenline Ave","coordinates":{"latitude":40.7729837,"longitude":-74.0285907},"review_count":12,"rating":4,"zip_code":"07087"},{"id":"EVQQ1Fs1YNlKd4HuxmzlJQ","name":"88 Chinese Restaurant","cuisine":"Chinese","address":"473 Malcolm X Blvd","coordinates":{"latitude":40.8133599154897,"longitude":-73.9418023908753},"review_count":13,"rating":3,"zip_code":"10037"},{"id":"LU4mHDTgFxOuvuK1SFbJag","name":"Asian 83","cuisine":"Chinese","address":"1605 2nd Ave","coordinates":{"latitude":40.77626,"longitude":-73.953269},"review_count":21,"rating":2.5,"zip_code":"10028"},{"id":"ng1wpKuQOFjZNCOe5YTwHA","name":"Chopstix","cuisine":"Chinese","address":"1 Hanover Square","coordinates":{"latitude":40.7043655812028,"longitude":-74.0091101794667},"review_count":14,"rating":3,"zip_code":"10004"},{"id":"3DmJv5rHFNyQykaUiXBOvA","name":"Hop Lee Kitchen","cuisine":"Chinese","address":"992 Manhattan Ave","coordinates":{"latitude":40.73292,"longitude":-73.95449},"review_count":26,"rating":3.5,"zip_code":"11222"},{"id":"OHqazo2j-RLZnLWo_YRnDw","name":"Five Luck Restaurant","cuisine":"Chinese","address":"1834 2nd Ave","coordinates":{"latitude":40.78331,"longitude":-73.94756},"review_count":27,"rating":2.5,"zip_code":"10128"},{"id":"6oQKDCJrgDffPKXPTPBXlA","name":"King Wah Restaurant","cuisine":"Chinese","address":"6417 Fresh Pond Rd","coordinates":{"latitude":40.7099237520059,"longitude":-73.8989976712028},"review_count":61,"rating":4,"zip_code":"11385"},{"id":"Rta-_ALLo7g9xTUi23pmRw","name":"Curry On","cuisine":"Chinese","address":"765 Newark Ave","coordinates":{"latitude":40.7351913452148,"longitude":-74.0635375976563},"review_count":90,"rating":3,"zip_code":"07306"},{"id":"aPI3_mdisxIOo9EwBEJPZQ","name":"Number 1 Chinese Kitchen","cuisine":"Chinese","address":"642 Washington St","coordinates":{"latitude":40.7446399,"longitude":-74.0289899},"review_count":39,"rating":3,"zip_code":"07030"},{"id":"b03GEE_pYlLCdD6yShZKqw","name":"New Chinatown Restaurant of New York","cuisine":"Chinese","address":"11 Avenue D","coordinates":{"latitude":40.720527,"longitude":-73.978652},"review_count":9,"rating":4,"zip_code":"10009"},{"id":"4OGtGzKP6fvRu7MfQMRSEQ","name":"Hong Kong","cuisine":"Chinese","address":"1703 Lexington Ave","coordinates":{"latitude":40.7926783064322,"longitude":-73.9457814748688},"review_count":10,"rating":3.5,"zip_code":"10029"},{"id":"i4cyV13lYIS4mcJKZW75cA","name":"Food Sing","cuisine":"Chinese","address":"172 Grand St","coordinates":{"latitude":40.714324,"longitude":-73.961257},"review_count":38,"rating":3,"zip_code":"11211"},{"id":"rHg81VzTGVREMCfMmgYMog","name":"Delicious Wok","cuisine":"Chinese","address":"5952 Summerfield St","coordinates":{"latitude":40.700328,"longitude":-73.896705},"review_count":24,"rating":4.5,"zip_code":"11385"},{"id":"5KDfEi17KRFD1TrzZyT4lQ","name":"Profit Chinese Restaurant II","cuisine":"Chinese","address":"643 2nd Ave","coordinates":{"latitude":40.74565,"longitude":-73.9755799},"review_count":23,"rating":3,"zip_code":"10016"},{"id":"AJKcsxpc9IthvhdEnfqogg","name":"Good Chinese Restaurant","cuisine":"Chinese","address":"663 Knickerbocker Ave","coordinates":{"latitude":40.6951122106303,"longitude":-73.9116479761463},"review_count":95,"rating":3.5,"zip_code":"11221"},{"id":"4fQuriJ0mFzzG6RE1cRV5A","name":"Halal Kitchen","cuisine":"Chinese","address":"4214 Greenpoint Ave","coordinates":{"latitude":40.74051,"longitude":-73.92241},"review_count":28,"rating":3.5,"zip_code":"11104"},{"id":"HM6cvh5A9LLBeb4Sca6fPA","name":"Ten Full Restaurant","cuisine":"Chinese","address":"39-49 48th Ave","coordinates":{"latitude":40.74018,"longitude":-73.92511},"review_count":61,"rating":3,"zip_code":"11104"},{"id":"8Rx82sRLaWA8FgdUkW_HnA","name":"Hot Pot Best","cuisine":"Chinese","address":"95 Montgomery St","coordinates":{"latitude":40.7168312,"longitude":-74.0385971},"review_count":73,"rating":3,"zip_code":"07302"},{"id":"XjPfgkSP-RDEkq_ox8fE3A","name":"King's Chef","cuisine":"Chinese","address":"4311 28th Ave","coordinates":{"latitude":40.764358,"longitude":-73.910705},"review_count":32,"rating":4,"zip_code":"11103"},{"id":"IregrqaJgF9jEghC5yljFw","name":"New Dynasty Chinese Restaurant","cuisine":"Chinese","address":"393 8th Ave","coordinates":{"latitude":40.749512,"longitude":-73.995766},"review_count":17,"rating":2.5,"zip_code":"10001"},{"id":"Bu_tZ7DxR12e7KULo180lg","name":"Aki King","cuisine":"Chinese","address":"219 E 23rd St","coordinates":{"latitude":40.73863,"longitude":-73.98193},"review_count":13,"rating":3.5,"zip_code":"10010"},{"id":"DslWPEBr1bVL8vyaH6r2Yg","name":"Harmony Palace Restaurant","cuisine":"Chinese","address":"94 Mott St","coordinates":{"latitude":40.717136,"longitude":-73.997283},"review_count":23,"rating":2.5,"zip_code":"10013"},{"id":"h3yz3w8ke1jIaGnqGln93A","name":"Sun Wah Restaurant","cuisine":"Chinese","address":"3016 36th Ave","coordinates":{"latitude":40.756608,"longitude":-73.930066},"review_count":34,"rating":3,"zip_code":"11106"},{"id":"YoGcGxo9JxE7NtmMtPaNng","name":"Golden Wok","cuisine":"Chinese","address":"4218 43rd Ave","coordinates":{"latitude":40.745129,"longitude":-73.921549},"review_count":34,"rating":3,"zip_code":"11104"},{"id":"5yHuB6cT4Y82u22kOziobw","name":"China Chef Restaurant","cuisine":"Chinese","address":"1322 Paterson Plank Rd","coordinates":{"latitude":40.791615379318,"longitude":-74.0578033479041},"review_count":87,"rating":3,"zip_code":"07094"},{"id":"IBMaz2RZPkU1Ng9b8A6ywg","name":"Lin's Kitchen","cuisine":"Chinese","address":"70-24 35th Ave","coordinates":{"latitude":40.7506063047067,"longitude":-73.8955131021168},"review_count":37,"rating":3.5,"zip_code":"11372"},{"id":"4XXzwYA8Ng1pOLSov_srDg","name":"Great Wok","cuisine":"Chinese","address":"1631 Lexington Ave","coordinates":{"latitude":40.790302,"longitude":-73.947349},"review_count":11,"rating":3.5,"zip_code":"10029"},{"id":"l1JP5MiQja95rF99qeJ1zw","name":"Golden Wok","cuisine":"Chinese","address":"1770 Amsterdam Ave","coordinates":{"latitude":40.827003,"longitude":-73.946723},"review_count":46,"rating":3.5,"zip_code":"10031"},{"id":"9ieA0TyApI94wEqqW_r93w","name":"Aaron's Chinese and Thai","cuisine":"Chinese","address":"338 9th Ave","coordinates":{"latitude":40.750379,"longitude":-73.998141},"review_count":46,"rating":1.5,"zip_code":"10001"},{"id":"gcbznFthZ-elsQrYYXrcXQ","name":"Shun Wei","cuisine":"Chinese","address":"45 Catherine St","coordinates":{"latitude":40.71193,"longitude":-73.99678},"review_count":19,"rating":2.5,"zip_code":"10038"},{"id":"IRQmUno4GQMvEDifCXO-cw","name":"China Place","cuisine":"Chinese","address":"3141 Broadway","coordinates":{"latitude":40.8140965,"longitude":-73.9597942},"review_count":46,"rating":2.5,"zip_code":"10027"},{"id":"PlCbEPF3aYLmc_EaYcYcNA","name":"The Old Spot","cuisine":"Chinese","address":"523 Jersey Ave","coordinates":{"latitude":40.72108,"longitude":-74.04676},"review_count":53,"rating":3.5,"zip_code":"07302"},{"id":"R1eZIyH8dOECfqUGGcANdQ","name":"Red Star Restaurant","cuisine":"Chinese","address":"112 E 116th St","coordinates":{"latitude":40.7987632751465,"longitude":-73.9426727294922},"review_count":16,"rating":3.5,"zip_code":"10029"},{"id":"d6i6sGHtPmyUkHze5S1lIQ","name":"Hunan House I","cuisine":"Chinese","address":"382 Summit Ave","coordinates":{"latitude":40.72857,"longitude":-74.06242},"review_count":24,"rating":4.5,"zip_code":"07306"},{"id":"e03tT0hH6qU-_dR8pwFa0Q","name":"Mr Wonton","cuisine":"Chinese","address":"4411 Queens Blvd","coordinates":{"latitude":40.743636,"longitude":-73.9202633},"review_count":51,"rating":3,"zip_code":"11104"},{"id":"yVDNPV0Yf3vQAsXTJett1g","name":"I Fortune Cookie","cuisine":"Chinese","address":"44-69 21st St","coordinates":{"latitude":40.7477277517319,"longitude":-73.9474202692509},"review_count":36,"rating":3,"zip_code":"11101"},{"id":"6Tz14_X7MCFKl0LK-65fnQ","name":"Min Jiang Mini Cafe","cuisine":"Chinese","address":"67A Eldridge St","coordinates":{"latitude":40.7168766,"longitude":-73.9926044},"review_count":10,"rating":3,"zip_code":"10002"},{"id":"U9bU_xY11bu88lYZwnMVfQ","name":"Broadway China Station","cuisine":"Chinese","address":"3212 31st St","coordinates":{"latitude":40.7616886,"longitude":-73.9258757},"review_count":33,"rating":3.5,"zip_code":"11106"},{"id":"5W89QQZqPJazBS80anuu3Q","name":"Wah Yoan Restaurant II","cuisine":"Chinese","address":"5406 Park Ave","coordinates":{"latitude":40.78225,"longitude":-74.01201},"review_count":15,"rating":3.5,"zip_code":"07093"},{"id":"K_gq_5HLN3bDIZlFgnrRsA","name":"Dumpling Cafe","cuisine":"Chinese","address":"861 Grand St","coordinates":{"latitude":40.712497,"longitude":-73.939476},"review_count":24,"rating":3.5,"zip_code":"11211"},{"id":"_F3jmjLn3PrOGNz7RuMPnw","name":"Max Bakery and Restaurant","cuisine":"Chinese","address":"37-63 90th St","coordinates":{"latitude":40.7507795280278,"longitude":-73.8767307208374},"review_count":15,"rating":4.5,"zip_code":"11372"},{"id":"Jr8S-deYDqbDoo-eJI7nyg","name":"Empire Szechuan Garden","cuisine":"Chinese","address":"4342 46th St","coordinates":{"latitude":40.7442226,"longitude":-73.9186565},"review_count":26,"rating":3.5,"zip_code":"11104"},{"id":"XbQNANeO1E4-yanLZHgCmw","name":"Beijing Chinese","cuisine":"Chinese","address":"223 E 14th St","coordinates":{"latitude":40.733059,"longitude":-73.9861382},"review_count":19,"rating":2.5,"zip_code":"10003"},{"id":"PBNV7luTABwO-m83BYBJdg","name":"Tina","cuisine":"Chinese","address":"203 E 14th St","coordinates":{"latitude":40.73332,"longitude":-73.98651},"review_count":9,"rating":3,"zip_code":"10003"},{"id":"2fjRDCUH39fCpvVtfyd8-Q","name":"China Garden Cliffside Park","cuisine":"Chinese","address":"352 Anderson Ave","coordinates":{"latitude":40.81819,"longitude":-73.99317},"review_count":14,"rating":3.5,"zip_code":"07010"},{"id":"Pm9g4v6bpq9_OEigK0jHYA","name":"La Unica Caridad Restaurant","cuisine":"Chinese","address":"2199 Broadway","coordinates":{"latitude":40.7832742,"longitude":-73.9807237},"review_count":7,"rating":3.5,"zip_code":"10024"},{"id":"_Acmtq5Nnv4Xmqmz914CUg","name":"New Happy Joy Restaurant","cuisine":"Chinese","address":"760 10th Ave","coordinates":{"latitude":40.765602,"longitude":-73.990768},"review_count":11,"rating":2.5,"zip_code":"10019"},{"id":"Aeiyyowii5GBL9Y-SjTxvg","name":"Xin Lin Chinese Restaurant","cuisine":"Chinese","address":"4507 Park Ave","coordinates":{"latitude":40.77735,"longitude":-74.0187399},"review_count":14,"rating":4,"zip_code":"07087"},{"id":"AjZ9hwJRu77jgWIrnhsGcg","name":"Modern Szechuan","cuisine":"Chinese","address":"7 W 45th St","coordinates":{"latitude":40.7559013,"longitude":-73.9800568},"review_count":11,"rating":3,"zip_code":"10036"},{"id":"B7dR05bIWJ6qgUYk5jvzYQ","name":"Yi Zhang Fishball","cuisine":"Chinese","address":"9 Eldridge St","coordinates":{"latitude":40.7154261,"longitude":-73.9931977},"review_count":6,"rating":4,"zip_code":"10002"},{"id":"lBFq-P2OGDZy2aPEKgUMfg","name":"Empire Garden","cuisine":"Chinese","address":"911 Columbus Ave","coordinates":{"latitude":40.7985736262374,"longitude":-73.9621864229434},"review_count":24,"rating":2,"zip_code":"10025"},{"id":"EmnooPyjNMCjaYJ9uyxz3w","name":"Hua Du Dumpling","cuisine":"Chinese","address":"7 Allen St","coordinates":{"latitude":40.714809,"longitude":-73.993072},"review_count":10,"rating":3,"zip_code":"10002"},{"id":"5ccJFGa6crpptt9tW0YKAA","name":"New Grand Buffet","cuisine":"Chinese","address":"34-45 48th St","coordinates":{"latitude":40.752193532499,"longitude":-73.9149212837219},"review_count":132,"rating":2,"zip_code":"11101"},{"id":"U2x299aFPwXRYXlMxyO4tw","name":"New Golden Dragon Restaurant","cuisine":"Chinese","address":"398 W 145th St","coordinates":{"latitude":40.8242006,"longitude":-73.9455163},"review_count":25,"rating":4,"zip_code":"10031"},{"id":"9jMek1KMCVXlRZJQWTCbxA","name":"May May Kitchen","cuisine":"Chinese","address":"181 Clinton St","coordinates":{"latitude":40.7151158270862,"longitude":-73.9871851439696},"review_count":11,"rating":3,"zip_code":"10002"},{"id":"akWRnF0VFJLJD4uOnGWB-g","name":"Po Wong Restaurant","cuisine":"Chinese","address":"617 Summit Ave","coordinates":{"latitude":40.758224,"longitude":-74.044303},"review_count":17,"rating":4,"zip_code":"07087"},{"id":"dSZH0XgoZ-AT0qezA9Xx-g","name":"King's Wok","cuisine":"Chinese","address":"4912 30th Ave","coordinates":{"latitude":40.76005,"longitude":-73.90741},"review_count":14,"rating":4,"zip_code":"11377"},{"id":"X_m7eCAdLRLlrxpIgjy5xg","name":"Mr Bing","cuisine":"Chinese","address":"24th St & 5th Ave","coordinates":{"latitude":40.7422051,"longitude":-73.9890986},"review_count":5,"rating":3,"zip_code":"10010"},{"id":"9L80a4aMA4M1e50gMf-6YQ","name":"Asia Sushi & Chinese Cuisine","cuisine":"Chinese","address":"926 Washington St","coordinates":{"latitude":40.74815,"longitude":-74.0279599},"review_count":68,"rating":2.5,"zip_code":"07030"},{"id":"8SM-aKKwlK8JNaJTr60c6Q","name":"East Met West","cuisine":"Chinese","address":"752 Metropolitan Ave","coordinates":{"latitude":40.71446,"longitude":-73.94392},"review_count":45,"rating":3,"zip_code":"11211"},{"id":"A_fZL0ir_actclrL-ePTOw","name":"JJ Kitchen","cuisine":"Chinese","address":"475 Myrtle Ave","coordinates":{"latitude":40.69354,"longitude":-73.96627},"review_count":10,"rating":5,"zip_code":"11205"},{"id":"kZQSQWuxSxrtR4r8TQC50w","name":"Chen Wong Restaurant","cuisine":"Chinese","address":"197 Madison St","coordinates":{"latitude":40.71273,"longitude":-73.99039},"review_count":28,"rating":2,"zip_code":"10002"},{"id":"ODX5fHA5Zi27BuUjI0E5rg","name":"Golden Taste Restaurant","cuisine":"Chinese","address":"42 Bowery","coordinates":{"latitude":40.71555,"longitude":-73.99672},"review_count":8,"rating":3.5,"zip_code":"10013"},{"id":"vSkCDRWX6VvP4PJHHFgoDw","name":"New King Wok Restaurant","cuisine":"Chinese","address":"2025 7th Ave","coordinates":{"latitude":40.806563347578,"longitude":-73.9499093592167},"review_count":8,"rating":4,"zip_code":"10027"},{"id":"ApjmgPwYXgrb0JurjQZO4w","name":"Fortune Cookie Chinese Kitchen","cuisine":"Chinese","address":"611 Manhattan Ave","coordinates":{"latitude":40.72338,"longitude":-73.9507},"review_count":34,"rating":3.5,"zip_code":"11222"},{"id":"_hIxEP_Wd13cjNJ1tcf6KQ","name":"Peking Express","cuisine":"Chinese","address":"237 Nassau Ave","coordinates":{"latitude":40.725971,"longitude":-73.942817},"review_count":28,"rating":3.5,"zip_code":"11222"},{"id":"fzIj02-w9-9QpSwmWRz7bg","name":"Lunch Box Buffet","cuisine":"Chinese","address":"15 Division St","coordinates":{"latitude":40.713916,"longitude":-73.996704},"review_count":12,"rating":3,"zip_code":"10002"},{"id":"Fj5RosdsJV24ZT8S6X-nNQ","name":"Om Wok","cuisine":"Chinese","address":"89-17 Northern Blvd","coordinates":{"latitude":40.7565331,"longitude":-73.8782364},"review_count":31,"rating":3.5,"zip_code":"11372"},{"id":"X5HmML-G--nt4lc5VQC2uQ","name":"New Asia","cuisine":"Chinese","address":"666 Amsterdam Ave","coordinates":{"latitude":40.7918192446232,"longitude":-73.972065076232},"review_count":33,"rating":2,"zip_code":"10025"},{"id":"KgosIJNr-XTOsjkiKlS4vQ","name":"Five Loaves And Two Fishes 五餅二魚","cuisine":"Chinese","address":"82-72 Broadway","coordinates":{"latitude":40.7413947,"longitude":-73.8806423},"review_count":39,"rating":3.5,"zip_code":"11373"},{"id":"RHjTWcjCNM3Wvbxs_8Valg","name":"Wah Fung Chinese Restaurant","cuisine":"Chinese","address":"2175 Steinway St","coordinates":{"latitude":40.772946,"longitude":-73.905513},"review_count":26,"rating":3.5,"zip_code":"11105"},{"id":"w0KRT7v9_hsVkcRVMsD2Jg","name":"Fu Wing Chinese Restaurant","cuisine":"Chinese","address":"153 E 106th St","coordinates":{"latitude":40.792308,"longitude":-73.945686},"review_count":12,"rating":3,"zip_code":"10029"},{"id":"lZy5TNhzgG53zEjK1N1w1w","name":"No.1 Chinese Restaurant","cuisine":"Chinese","address":"30-23 30th Ave","coordinates":{"latitude":40.76715,"longitude":-73.92144},"review_count":49,"rating":2.5,"zip_code":"11102"},{"id":"-nPeW0rcWT9I3JBzo1_eWw","name":"Chopsticks Chinese Restaurant","cuisine":"Chinese","address":"4904 Bergenline Ave","coordinates":{"latitude":40.78234,"longitude":-74.02089},"review_count":20,"rating":3.5,"zip_code":"07087"},{"id":"yak_EF5pdVXjjgsXMyZIFA","name":"Mr Rice's Kitchen","cuisine":"Chinese","address":"3501 John F Kennedy Blvd","coordinates":{"latitude":40.7517,"longitude":-74.05378},"review_count":18,"rating":4,"zip_code":"07307"},{"id":"2rSmA4IK51QAQj60YGvjnw","name":"New Asian Cuisine","cuisine":"Chinese","address":"44-20 48th Ave","coordinates":{"latitude":40.7393524,"longitude":-73.9210213},"review_count":12,"rating":4.5,"zip_code":"11377"},{"id":"nALIXRUb7yvg8ZCS68m8iw","name":"No 1 Chinese Restaurant","cuisine":"Chinese","address":"2504 Palisade Ave","coordinates":{"latitude":40.767345,"longitude":-74.029036},"review_count":29,"rating":3.5,"zip_code":"07086"},{"id":"Cq2IVq7VOlEzQ0YfdPqc-w","name":"Amin's Chinese Halal Restaurant","cuisine":"Chinese","address":"215 Tonnele Ave","coordinates":{"latitude":40.73828,"longitude":-74.06586},"review_count":37,"rating":3,"zip_code":"07306"},{"id":"KvZCCFD8RTyeNe7L4_mLog","name":"Feng Shui","cuisine":"Chinese","address":"109 E 42nd St","coordinates":{"latitude":40.7520370483398,"longitude":-73.9763336181641},"review_count":37,"rating":1.5,"zip_code":"10017"},{"id":"ggJ8NWu0augmwCdbJu1n8w","name":"New Broadway Seafood Restaurant","cuisine":"Chinese","address":"83-17 Broadway","coordinates":{"latitude":40.74093,"longitude":-73.87931},"review_count":87,"rating":2.5,"zip_code":"11373"},{"id":"B9JGlCZ6XkKPXXhTaYwAlA","name":"RJR Yummy Kitchen","cuisine":"Chinese","address":"9021 31st Ave","coordinates":{"latitude":40.7601665,"longitude":-73.8783152},"review_count":26,"rating":4,"zip_code":"11369"},{"id":"AL2IGLkQ72b_ykGInqaJPg","name":"Hunan 3 Chinese Restaurant","cuisine":"Chinese","address":"2414 34th Ave","coordinates":{"latitude":40.7613425374672,"longitude":-73.9314051011108},"review_count":21,"rating":3.5,"zip_code":"11106"},{"id":"DiNkdAL8ns1v3S3WfUGVwA","name":"Green Garden","cuisine":"Chinese","address":"1202 Washington St","coordinates":{"latitude":40.7513478,"longitude":-74.0268307},"review_count":34,"rating":3.5,"zip_code":"07030"},{"id":"gcwOJAeYOQsCaC9k_SRo2A","name":"Kay's Spring Garden","cuisine":"Chinese","address":"473 Central Ave","coordinates":{"latitude":40.7508,"longitude":-74.04626},"review_count":21,"rating":3.5,"zip_code":"07307"},{"id":"pmE7JG661llrNWu9IA5Y_Q","name":"Tan Wong Restaurant","cuisine":"Chinese","address":"103 E Broadway","coordinates":{"latitude":40.7136,"longitude":-73.99317},"review_count":7,"rating":3.5,"zip_code":"10002"},{"id":"YDuI3znqQrRd8-xPvyZqPg","name":"Happy Eats","cuisine":"Chinese","address":"42 C Mott St","coordinates":{"latitude":40.71521,"longitude":-73.99861},"review_count":11,"rating":3,"zip_code":"10013"},{"id":"vWEKZVPIYFewfqCOkkvVIQ","name":"Lin's Garden","cuisine":"Chinese","address":"652 Seneca Ave","coordinates":{"latitude":40.7034531,"longitude":-73.9090729},"review_count":35,"rating":3.5,"zip_code":"11385"},{"id":"vSPKmk499CglpfJFuFvbvg","name":"Food Station","cuisine":"Chinese","address":"244 Canal St","coordinates":{"latitude":40.71802,"longitude":-74.00038},"review_count":10,"rating":3.5,"zip_code":"10013"},{"id":"oD0mN9vXuc1gFRyw1CG-Pw","name":"New China Wok Chinese Kitchen","cuisine":"Chinese","address":"57 4th Ave","coordinates":{"latitude":40.68257,"longitude":-73.97927},"review_count":19,"rating":4,"zip_code":"11217"},{"id":"E1fFQqXuO2Ido9hGDmTbDg","name":"Good Luck Chinese Restaurant","cuisine":"Chinese","address":"4516 48th Ave","coordinates":{"latitude":40.7392043166647,"longitude":-73.9197625899353},"review_count":10,"rating":4.5,"zip_code":"11377"},{"id":"kwGaeWUVC_MIxMFw0sM-Ww","name":"Hong Kong Express","cuisine":"Chinese","address":"989 Wyckoff Ave","coordinates":{"latitude":40.69617,"longitude":-73.904721},"review_count":39,"rating":4,"zip_code":"11385"},{"id":"p2g2v5Fo-WX9tcuCs5PjDw","name":"Chef Guo","cuisine":"Chinese","address":"83-29 Broadway","coordinates":{"latitude":40.74075,"longitude":-73.87905},"review_count":15,"rating":4.5,"zip_code":"11373"},{"id":"7wrFd9tnIBMClzDnrWdSNw","name":"Chinatown Kitchen","cuisine":"Chinese","address":"450 60th St","coordinates":{"latitude":40.7885757502878,"longitude":-74.0158536518411},"review_count":8,"rating":4,"zip_code":"07093"},{"id":"LhBZsjkb6aKdLIq9w9_J2w","name":"Hong Kong","cuisine":"Chinese","address":"25-10 Broadway","coordinates":{"latitude":40.76302,"longitude":-73.92822},"review_count":38,"rating":3,"zip_code":"11106"},{"id":"d8wA3iuWvrs1slX1WHSV5g","name":"King Wah","cuisine":"Chinese","address":"6911 Northern Blvd","coordinates":{"latitude":40.7544858,"longitude":-73.8968404},"review_count":32,"rating":3.5,"zip_code":"11377"},{"id":"E7q1Qf6380N_aMqz28EgNw","name":"DUCKEDUP","cuisine":"Chinese","address":"139 Ludlow St","coordinates":{"latitude":40.7205,"longitude":-73.98826},"review_count":3,"rating":4.5,"zip_code":"10002"},{"id":"teLYg2G4VnJb5GcD3u6nVg","name":"Daily Chinese Restaurant","cuisine":"Chinese","address":"4210 Park Ave","coordinates":{"latitude":40.7753954,"longitude":-74.0197846},"review_count":25,"rating":3.5,"zip_code":"07086"},{"id":"xZ19F2iiWiA36LAS5PH_GA","name":"Great Wall Kitchen","cuisine":"Chinese","address":"2238 Adam Clayton Powell","coordinates":{"latitude":40.8132892,"longitude":-73.9454751},"review_count":6,"rating":3.5,"zip_code":"10027"},{"id":"GOLqh9i4qeqcj2Q3DJ3AQw","name":"Matsuya","cuisine":"Chinese","address":"1467 York Ave","coordinates":{"latitude":40.7705892,"longitude":-73.9512062},"review_count":4,"rating":4,"zip_code":"10021"},{"id":"bzr6GEQyjpgbkhHAsYaljQ","name":"Randy's Chinese Food","cuisine":"Chinese","address":"1693 Putnam Ave","coordinates":{"latitude":40.7002945,"longitude":-73.9068985},"review_count":41,"rating":3.5,"zip_code":"11385"},{"id":"3RuiiqUg8C3HZ-RuvlqtBg","name":"Tawa Wok","cuisine":"Chinese","address":"608 Grove St","coordinates":{"latitude":40.7322445520707,"longitude":-74.0408217887441},"review_count":66,"rating":2.5,"zip_code":"07310"},{"id":"C5t0mPGdT_sOlcg-RkGcjA","name":"Empire","cuisine":"Chinese","address":"8 Murray St","coordinates":{"latitude":40.7131452,"longitude":-74.0077389},"review_count":17,"rating":2,"zip_code":"10007"},{"id":"bVEvRibOk3dukWJ8TiU7GQ","name":"Taste of China","cuisine":"Chinese","address":"4501 Broadway","coordinates":{"latitude":40.7571451223932,"longitude":-73.9148019297323},"review_count":24,"rating":3,"zip_code":"11103"},{"id":"pNbrxyrG5d5QwRsKbu0cXg","name":"46","cuisine":"Chinese","address":"46 Mott St","coordinates":{"latitude":40.7152930293439,"longitude":-73.9986442157158},"review_count":9,"rating":3,"zip_code":"10013"},{"id":"WVps4Rw-FHgEUdwtH02t3w","name":"Chung Lan Gardens","cuisine":"Chinese","address":"454 Malcolm X Blvd","coordinates":{"latitude":40.8124525,"longitude":-73.9417837},"review_count":5,"rating":3.5,"zip_code":"10037"},{"id":"-XgAc77sMZqyxW11B0337A","name":"Happy Wok","cuisine":"Chinese","address":"2033 1st Ave","coordinates":{"latitude":40.788955,"longitude":-73.940933},"review_count":9,"rating":3.5,"zip_code":"10029"},{"id":"_eWN3zih_cnY0fiLWva9EA","name":"Li Wan Restaurant","cuisine":"Chinese","address":"6428 Metropolitan Ave","coordinates":{"latitude":40.7122917175293,"longitude":-73.8961334228516},"review_count":20,"rating":4.5,"zip_code":"11379"},{"id":"OQ93Z1tAmdPqK7twEEvISA","name":"Happy Fortune Chinese Restaurant","cuisine":"Chinese","address":"47-57 47th St","coordinates":{"latitude":40.7399544,"longitude":-73.9181973},"review_count":20,"rating":3.5,"zip_code":"11377"},{"id":"VEjkxniAlG35cR3pjHvF-A","name":"Sagar Chinese - Jackson Heights","cuisine":"Chinese","address":"74-19 37th Ave","coordinates":{"latitude":40.7491052,"longitude":-73.8914956},"review_count":53,"rating":3.5,"zip_code":"11372"},{"id":"uP0zrPN8vCMxTe1jnsKsZQ","name":"Lee's Restaurant","cuisine":"Chinese","address":"1546 Myrtle Ave","coordinates":{"latitude":40.69939,"longitude":-73.91177},"review_count":38,"rating":3.5,"zip_code":"11237"},{"id":"EL6Qg5LzrfhDFnF7MUfGLA","name":"Mr Wonton Chinese Restaurant","cuisine":"Chinese","address":"2604 Jackson Ave","coordinates":{"latitude":40.746978,"longitude":-73.941986},"review_count":37,"rating":2.5,"zip_code":"11101"},{"id":"Y3UBu639SToFR0xHHBg1xA","name":"China Town Chinese Restaurant","cuisine":"Chinese","address":"250 E Houston St","coordinates":{"latitude":40.722095489502,"longitude":-73.9849090576172},"review_count":9,"rating":2.5,"zip_code":"10002"},{"id":"hFLwUehr6VL1wM76XysqRQ","name":"China Red Restaurant","cuisine":"Chinese","address":"118 Chambers St","coordinates":{"latitude":40.715023,"longitude":-74.008636},"review_count":18,"rating":2,"zip_code":"10007"},{"id":"g42C_GsiLWzbVY2OZQsoyw","name":"Ho May Kitchen","cuisine":"Chinese","address":"100 Woodpoint Rd","coordinates":{"latitude":40.7186,"longitude":-73.94072},"review_count":11,"rating":4,"zip_code":"11211"},{"id":"OSqcNi7EZLAMtuiQjuoiLg","name":"Grand Great Wall Restaurant","cuisine":"Chinese","address":"1588 Amsterdam Ave","coordinates":{"latitude":40.8212837,"longitude":-73.9506657},"review_count":17,"rating":3.5,"zip_code":"10031"},{"id":"ikx8R8u2lmxhpLGByCjgPw","name":"House Special 甘來飯店","cuisine":"Chinese","address":"171 Hester St","coordinates":{"latitude":40.71785,"longitude":-73.9967999},"review_count":10,"rating":4,"zip_code":"10013"},{"id":"Zs4IZRR5eNH_DaKDNa37wg","name":"Yung Sun Restaurant","cuisine":"Chinese","address":"47 East Broadway","coordinates":{"latitude":40.71338,"longitude":-73.99581},"review_count":12,"rating":3,"zip_code":"10002"},{"id":"2EX6_AH5gUj0fBY2YAnNrw","name":"Young City Fish Balls 榕城鱼丸店","cuisine":"Chinese","address":"21A Eldridge St","coordinates":{"latitude":40.71511,"longitude":-73.993804},"review_count":5,"rating":4,"zip_code":"10002"},{"id":"sYK7jLKyfJJhf9fqC77hLA","name":"Tian Fu Lou","cuisine":"Chinese","address":"7 W 45th St","coordinates":{"latitude":40.755909,"longitude":-73.980064},"review_count":19,"rating":2,"zip_code":"10036"},{"id":"31yEM_YcyAqG6an7attTlg","name":"Empire Express","cuisine":"Chinese","address":"3308 Queens Blvd","coordinates":{"latitude":40.7443362968621,"longitude":-73.9313001176036},"review_count":15,"rating":3,"zip_code":"11101"},{"id":"ikVDSp8YhAYuy0Lua1hpDA","name":"Great Wall","cuisine":"Chinese","address":"2234 1st Ave","coordinates":{"latitude":40.795074,"longitude":-73.935684},"review_count":11,"rating":4.5,"zip_code":"10029"},{"id":"31Pd-W_2Iw3D0PF2F2EStA","name":"Happy Family","cuisine":"Chinese","address":"213 E Broadway","coordinates":{"latitude":40.714043,"longitude":-73.987556},"review_count":14,"rating":3,"zip_code":"10002"},{"id":"Sn2i5Ctj85hcsSgIaiUCzw","name":"New Wong Asian Food","cuisine":"Chinese","address":"1217 1st Ave","coordinates":{"latitude":40.763786524489,"longitude":-73.9588390469633},"review_count":13,"rating":2.5,"zip_code":"10065"},{"id":"XzMVQtnifzlFoq6Uj4795g","name":"A Shen Zhou Restaurant","cuisine":"Chinese","address":"159 Wilson Ave","coordinates":{"latitude":40.700347,"longitude":-73.924598},"review_count":56,"rating":3,"zip_code":"11237"},{"id":"z6HMM_cSraJFkQFvSjWGDA","name":"Lucky Chinese Restaurant","cuisine":"Chinese","address":"5008 69th St","coordinates":{"latitude":40.7367175,"longitude":-73.8960949},"review_count":17,"rating":4,"zip_code":"11377"},{"id":"1oBUB-3_kCYDsggJqWq_GA","name":"First Wok","cuisine":"Chinese","address":"2608 Paterson Plank Rd","coordinates":{"latitude":40.7727099,"longitude":-74.04002},"review_count":30,"rating":3,"zip_code":"07047"},{"id":"I6XC8dNxUzIcIOEbq3LJsQ","name":"Number One Chinese Restaurant","cuisine":"Chinese","address":"6514 Park Ave","coordinates":{"latitude":40.78975,"longitude":-74.00513},"review_count":10,"rating":3.5,"zip_code":"07093"},{"id":"CflDIalFPdd7U3-fcq4Lkg","name":"Lhasa Liang Fen","cuisine":"Chinese","address":"80-07 Broadway","coordinates":{"latitude":40.7439271419,"longitude":-73.8846904412},"review_count":16,"rating":4,"zip_code":"11373"},{"id":"u5dmxko_LFYw0sAvIA8qNA","name":"95 Fusion Tea Room & Kitchen Bar","cuisine":"Chinese","address":"95 Chrystie St","coordinates":{"latitude":40.71776,"longitude":-73.99422},"review_count":7,"rating":4,"zip_code":"10002"},{"id":"a-hVnSTC12MY5L3t9yOSJw","name":"Eastern Chinese Restaurant","cuisine":"Chinese","address":"2105 Broadway","coordinates":{"latitude":40.7656686822612,"longitude":-73.9307687804103},"review_count":19,"rating":3,"zip_code":"11106"},{"id":"urgY8rqEwAr1cpQdoufKAA","name":"Grand Sichuan","cuisine":"Chinese","address":"172 8th Ave","coordinates":{"latitude":40.742496,"longitude":-74.000122},"review_count":10,"rating":2.5,"zip_code":"10011"},{"id":"zPK48x2wvTmJTQ_13bbeRQ","name":"Hong Kong Cafe","cuisine":"Chinese","address":"357 Franklin Ave","coordinates":{"latitude":40.687202,"longitude":-73.956611},"review_count":23,"rating":4,"zip_code":"11238"},{"id":"0bM7u8ifFfXUnaybey3Yrg","name":"Panda Express","cuisine":"Chinese","address":"423 Fulton St","coordinates":{"latitude":40.6919,"longitude":-73.98809},"review_count":42,"rating":3.5,"zip_code":"11201"},{"id":"Xl0JBlbr-D4aICTMcYi5TA","name":"Hana Noodle Station","cuisine":"Chinese","address":"408 Albee Square W","coordinates":{"latitude":40.691301,"longitude":-73.982538},"review_count":26,"rating":3.5,"zip_code":"11201"},{"id":"JDv_pfBjuaU3BR7GC6GxRQ","name":"Yummy Yummy Chinese Restaurant","cuisine":"Chinese","address":"5273 65th Pl","coordinates":{"latitude":40.7318717,"longitude":-73.8999307},"review_count":31,"rating":3.5,"zip_code":"11378"},{"id":"8NRZxnwRcCY9O0V3hs3T4Q","name":"Fulton Chef","cuisine":"Chinese","address":"64 Fulton St","coordinates":{"latitude":40.708732,"longitude":-74.005348},"review_count":10,"rating":2.5,"zip_code":"10038"},{"id":"7CVwzVYgNndEgWrFnVoQBA","name":"Jianbing Company","cuisine":"Chinese","address":"445 Albee Square W","coordinates":{"latitude":40.6912509,"longitude":-73.9832589},"review_count":26,"rating":3.5,"zip_code":"11201"},{"id":"TKfUaqizEuC1Qacr3MgmdA","name":"New Yummy Restaurant","cuisine":"Chinese","address":"133 48th St","coordinates":{"latitude":40.77942,"longitude":-74.0175299},"review_count":14,"rating":3,"zip_code":"07087"},{"id":"laaStiCIKrjgXvAFy3LYHg","name":"Wah Yeung's Kitchen","cuisine":"Chinese","address":"43-24 43rd Ave","coordinates":{"latitude":40.745041,"longitude":-73.9207394},"review_count":20,"rating":3,"zip_code":"11104"},{"id":"J2ks4DGmJ286xUI8WzlYeg","name":"First Choice Chinese Kitchen","cuisine":"Chinese","address":"3893 Broadway","coordinates":{"latitude":40.83778,"longitude":-73.9425},"review_count":40,"rating":3,"zip_code":"10032"},{"id":"_3-d9GcVU7NvQvmUWaRZUQ","name":"Long Spring Garden","cuisine":"Chinese","address":"62-05 Roosevelt Ave","coordinates":{"latitude":40.745848,"longitude":-73.901984},"review_count":23,"rating":3.5,"zip_code":"11377"},{"id":"wkqE-uCft5yU1QMwZyrvsA","name":"Golden Kitchen","cuisine":"Chinese","address":"2921 Astoria Blvd","coordinates":{"latitude":40.7704481038437,"longitude":-73.9190678626333},"review_count":23,"rating":3.5,"zip_code":"11102"},{"id":"ZVE3A-bnjLF8dErNBe0Z0Q","name":"103 EB","cuisine":"Chinese","address":"103 E Broadway","coordinates":{"latitude":40.7136,"longitude":-73.993171},"review_count":3,"rating":4,"zip_code":"10002"},{"id":"khEsiq_isObizKE_RuP3Sw","name":"King's Wok","cuisine":"Chinese","address":"3575 Broadway","coordinates":{"latitude":40.82762,"longitude":-73.9499},"review_count":18,"rating":3.5,"zip_code":"10031"},{"id":"4cP9IJekfdFmx8vpMVoY9Q","name":"Sing Hing Chinese Restaurant","cuisine":"Chinese","address":"576 Grand St","coordinates":{"latitude":40.710937,"longitude":-73.948715},"review_count":20,"rating":3.5,"zip_code":"11211"},{"id":"TsMVempkt3ezkDYns1I0Ew","name":"Happy Wok Restaurant","cuisine":"Chinese","address":"158 Delancey St","coordinates":{"latitude":40.7179995,"longitude":-73.9858236},"review_count":8,"rating":3.5,"zip_code":"10002"},{"id":"Ms6jgxyr0uW_aPbJoz_1Yw","name":"New China 3","cuisine":"Chinese","address":"5814 Roosevelt Ave","coordinates":{"latitude":40.745144,"longitude":-73.906067},"review_count":38,"rating":3,"zip_code":"11377"},{"id":"RQic4NVDNhCwJRCK-Rgp0w","name":"Halal Kitchen","cuisine":"Chinese","address":"7112 Grand Ave","coordinates":{"latitude":40.727802,"longitude":-73.891651},"review_count":34,"rating":3.5,"zip_code":"11378"},{"id":"PVBrjYCe4OCXZMF0KE69jQ","name":"Chinger","cuisine":"Chinese","address":"83-02 Broadway","coordinates":{"latitude":40.7408295,"longitude":-73.8801193},"review_count":45,"rating":3,"zip_code":"11373"},{"id":"vWEdeCMkv93KzVzjKqdvBw","name":"New Sing Sheng Kitchen","cuisine":"Chinese","address":"89-05-07 37th Ave","coordinates":{"latitude":40.74896,"longitude":-73.89175},"review_count":14,"rating":4,"zip_code":"11372"},{"id":"1vhKvwPkhwuiZYFp8q5JCg","name":"Tang S","cuisine":"Chinese","address":"306 St Nicholas Ave","coordinates":{"latitude":40.8110183,"longitude":-73.9523964},"review_count":12,"rating":2,"zip_code":"10027"},{"id":"3_pn5nxp9NuGv7tJ61Mslw","name":"Dhaka Garden","cuisine":"Chinese","address":"7223 37th Ave","coordinates":{"latitude":40.749065,"longitude":-73.892934},"review_count":38,"rating":3,"zip_code":"11372"},{"id":"bGSAHKY7_5EldXrZafXRxw","name":"Fortune Chinese Restaurant","cuisine":"Chinese","address":"352 Palisade Ave","coordinates":{"latitude":40.740608,"longitude":-74.046127},"review_count":25,"rating":3,"zip_code":"07307"},{"id":"S5VN-lFmTdI5VVQ0qFyfCQ","name":"Fortune Place","cuisine":"Chinese","address":"286 Broadway","coordinates":{"latitude":40.70849,"longitude":-73.9585},"review_count":15,"rating":3.5,"zip_code":"11211"},{"id":"k34VgKhpuIRPEr8vKSMwjA","name":"Chung Chun Kitchen","cuisine":"Chinese","address":"338 Myrtle Ave","coordinates":{"latitude":40.69314,"longitude":-73.973},"review_count":18,"rating":4,"zip_code":"11205"},{"id":"ji95gU2PjcRHFsaNQe6X1A","name":"China Chalet","cuisine":"Chinese","address":"90 Broad St","coordinates":{"latitude":40.7065651445594,"longitude":-74.0129064216347},"review_count":14,"rating":2.5,"zip_code":"10004"},{"id":"EM6z-NkZ-q2KPWNY7aKvNw","name":"Woks Chinese Cuisine","cuisine":"Chinese","address":"7921 37th Ave","coordinates":{"latitude":40.7496084,"longitude":-73.8868197},"review_count":14,"rating":4,"zip_code":"11372"},{"id":"hc35JiQkTQkUe5P5wzsDBQ","name":"Hong Kong Stir Fry","cuisine":"Chinese","address":"378 Bergen Blvd","coordinates":{"latitude":40.82214,"longitude":-73.99856},"review_count":14,"rating":3.5,"zip_code":"07022"},{"id":"Pj7vKy-QJBwUokCMji2MZQ","name":"Delight Wong","cuisine":"Chinese","address":"300 Grand St","coordinates":{"latitude":40.71761,"longitude":-73.99168},"review_count":5,"rating":3,"zip_code":"10002"},{"id":"Tc2uYkCroymhrtXnkVcSmg","name":"Francesca Chinese Restaruant","cuisine":"Chinese","address":"2411 Bergenline Ave","coordinates":{"latitude":40.7680999,"longitude":-74.0325},"review_count":8,"rating":3.5,"zip_code":"07087"},{"id":"ApAGKaGPzxcFV3NVHROh-w","name":"China Taste","cuisine":"Chinese","address":"229 1st Ave","coordinates":{"latitude":40.73111,"longitude":-73.98307},"review_count":5,"rating":3.5,"zip_code":"10003"},{"id":"pjbMNd88LRNxvrwaO8kEhQ","name":"New Apollo II","cuisine":"Chinese","address":"1477 Myrtle Ave","coordinates":{"latitude":40.6991691589355,"longitude":-73.9166564941406},"review_count":33,"rating":3.5,"zip_code":"11237"},{"id":"ATqzYWJLxhNlaXGjmHGNZQ","name":"New Szechuan House","cuisine":"Chinese","address":"5008 Skillman Ave","coordinates":{"latitude":40.7459596,"longitude":-73.9140785},"review_count":43,"rating":2.5,"zip_code":"11377"},{"id":"PUz8Zbi1KD6HPiBVkGrbnA","name":"Great Wok Chinese Restaurant","cuisine":"Chinese","address":"1101 Summit Ave","coordinates":{"latitude":40.7606899,"longitude":-74.04245},"review_count":12,"rating":3.5,"zip_code":"07087"},{"id":"VmhJfKhSFj3XOHTsT3Qhjg","name":"Ming Wok","cuisine":"Chinese","address":"8418A Northern Blvd","coordinates":{"latitude":40.7555390072011,"longitude":-73.883957862854},"review_count":16,"rating":3.5,"zip_code":"11372"},{"id":"-48FPDLFS26aSx4IYk05JA","name":"Hibachi Grill & Supreme Buffet","cuisine":"Chinese","address":"8101 Tonnelle Ave","coordinates":{"latitude":40.8082974761147,"longitude":-74.0182073260072},"review_count":24,"rating":3.5,"zip_code":"07047"},{"id":"LqL-SEhj2m19dWBz0q-vqA","name":"General Deb's","cuisine":"Chinese","address":"24 Irving Ave","coordinates":{"latitude":40.7051,"longitude":-73.9252999},"review_count":22,"rating":3.5,"zip_code":"11237"},{"id":"5YbnCuCq3peyUXwlMIC-SQ","name":"Yang's Happy Wok","cuisine":"Chinese","address":"175 Avenue C","coordinates":{"latitude":40.726409,"longitude":-73.977447},"review_count":8,"rating":3.5,"zip_code":"10009"},{"id":"FK5RnNOUxxIImPVcAHGM4w","name":"Great Wall Chinese Restaurant","cuisine":"Chinese","address":"4100 Park Ave","coordinates":{"latitude":40.7737819079407,"longitude":-74.0202113841939},"review_count":16,"rating":3,"zip_code":"07086"},{"id":"h29589lPZcG4XPVJWlQN8Q","name":"Sen Hai Chinese Restaurant","cuisine":"Chinese","address":"303 Newark Ave","coordinates":{"latitude":40.72408,"longitude":-74.05056},"review_count":60,"rating":2.5,"zip_code":"07302"},{"id":"EV2grf7NhNHQTmBXfu1-NA","name":"Dragon Gate Chinese Cuisine","cuisine":"Chinese","address":"1944 37th St","coordinates":{"latitude":40.7784616409036,"longitude":-73.9019072055817},"review_count":11,"rating":4,"zip_code":"11105"},{"id":"7yi9uA-LmrGpG6OOuK2byg","name":"Hong Kong Chinese Restaurant","cuisine":"Chinese","address":"6297 Forest Ave","coordinates":{"latitude":40.710983,"longitude":-73.904869},"review_count":19,"rating":4,"zip_code":"11385"},{"id":"PXm4BNjTgWHYClemDAkDjw","name":"Asian Kitchen","cuisine":"Chinese","address":"8543 Grand Ave","coordinates":{"latitude":40.7358398,"longitude":-73.8809509},"review_count":12,"rating":4.5,"zip_code":"11373"},{"id":"wtmPjQuCKeFuMdcR5SKEAQ","name":"Ocean Restaurant","cuisine":"Chinese","address":"393 Malcolm X Blvd","coordinates":{"latitude":40.81086,"longitude":-73.94356},"review_count":16,"rating":3,"zip_code":"10027"},{"id":"LpfsAZ7mBmK1om17S477zA","name":"Zhen Good Taste","cuisine":"Chinese","address":"5961 69th St","coordinates":{"latitude":40.72182,"longitude":-73.89278},"review_count":23,"rating":4,"zip_code":"11378"},{"id":"JAwcUcaAEeb-xuWIJHgPeA","name":"New Sunny Wok Chinese Restaurant","cuisine":"Chinese","address":"810 Summit Ave","coordinates":{"latitude":40.75914,"longitude":-74.04298},"review_count":5,"rating":4.5,"zip_code":"07087"},{"id":"JlpVZdT1V-Pd5y3LH0xBPg","name":"Dragon Palace","cuisine":"Chinese","address":"202 Centre St","coordinates":{"latitude":40.718769,"longitude":-73.99897},"review_count":3,"rating":3.5,"zip_code":"10013"},{"id":"toqDpg0qMq-TOxJ2n7FbPQ","name":"Bang Ga Nae","cuisine":"Chinese","address":"518 Broad Ave","coordinates":{"latitude":40.8339181186311,"longitude":-74.0092921257019},"review_count":8,"rating":4.5,"zip_code":"07657"},{"id":"a52GUjv7jYD3Baa0Ltbytw","name":"Golden Dragon Kitchen","cuisine":"Chinese","address":"394 Metropolitan Ave","coordinates":{"latitude":40.713829,"longitude":-73.955184},"review_count":16,"rating":3.5,"zip_code":"11211"},{"id":"9BKRqcbYtVfQlSZjQGO5HQ","name":"Rainbow Fang's Kitchen","cuisine":"Chinese","address":"51-21 43rd Ave","coordinates":{"latitude":40.7444599,"longitude":-73.9128099},"review_count":21,"rating":3,"zip_code":"11377"},{"id":"siWkEWRj6ipcMMY5EGWPrQ","name":"Number 1 Chinese Restaurant","cuisine":"Chinese","address":"83 W 115th St","coordinates":{"latitude":40.80127,"longitude":-73.94974},"review_count":6,"rating":3.5,"zip_code":"10026"},{"id":"aPThNhqjq5rfN9c8ykcarA","name":"Mian Kitchen","cuisine":"Chinese","address":"1065 Ave Of The Americas","coordinates":{"latitude":40.7533652220521,"longitude":-73.9840016206238},"review_count":5,"rating":3.5,"zip_code":"10018"},{"id":"R3ew2CyI2DHfsn1g5p7bTA","name":"Jin Wang House","cuisine":"Chinese","address":"23-07 Steinway St","coordinates":{"latitude":40.77063,"longitude":-73.9082899},"review_count":27,"rating":3,"zip_code":"11105"},{"id":"xCOPr88QjeVD7oRjnMfo4g","name":"Hok Zhou Restaurant","cuisine":"Chinese","address":"93 E Broadway","coordinates":{"latitude":40.713623,"longitude":-73.99366},"review_count":4,"rating":3.5,"zip_code":"10002"},{"id":"LaBJkwwC1lrYtooJQkvh-A","name":"Al Nour","cuisine":"Chinese","address":"39-04 64th St","coordinates":{"latitude":40.7461139,"longitude":-73.9001368},"review_count":15,"rating":4,"zip_code":"11377"},{"id":"dBpttLTwkOT3HtFZ-u9vgQ","name":"Panda Garden Restaurant","cuisine":"Chinese","address":"5917 Roosevelt Ave","coordinates":{"latitude":40.7455887091084,"longitude":-73.9046854516638},"review_count":19,"rating":3.5,"zip_code":"11377"},{"id":"J09y1DfNu827r0roHY7HcQ","name":"Oriental Palace Restaurant","cuisine":"Chinese","address":"1728 Madison Ave","coordinates":{"latitude":40.7987123,"longitude":-73.94595},"review_count":5,"rating":3,"zip_code":"10029"},{"id":"Ckz_1t4nUoFf2Yw-uuK4jQ","name":"Mr Chen","cuisine":"Chinese","address":"5905 Myrtle Ave","coordinates":{"latitude":40.70068,"longitude":-73.8999599},"review_count":55,"rating":3,"zip_code":"11385"},{"id":"Qj8hwiw7xe10m-_wtKjQUg","name":"Fuzhou Anping Fish Ball","cuisine":"Chinese","address":"20 Henry St","coordinates":{"latitude":40.7126905,"longitude":-73.9967719},"review_count":5,"rating":3,"zip_code":"10002"},{"id":"5in1sFUx8blmzxsQWSJeMg","name":"Rico Rico Restaurant","cuisine":"Chinese","address":"7708 Bergenline Ave","coordinates":{"latitude":40.800434499979,"longitude":-74.0075460076332},"review_count":13,"rating":3,"zip_code":"07047"}]}
