{"businesses":[{"id":"FMDglMusiejQeRC08mWljQ","name":"Demo One","cuisine":"Chinese","address":"44-1 30th Ave","coordinates":{"latitude":40.762481,"longitude":-73.9115418},"review_count":13,"rating":3.5,"zip_code":"11103"},{"id":"cHgg1xqEpabBYF8D9DMZxQ","name":"Jade Asian Express","cuisine":"Chinese","address":"1641 Woodbine St","coordinates":{"latitude":40.7001686096191,"longitude":-73.9092025756836},"review_count":30,"rating":3.5,"zip_code":"11385"},{"id":"vtbHjOCA-vdCUwq2oj5l7Q","name":"King's Wok","cuisine":"Chinese","address":"418 Baldwin Ave","coordinates":{"latitude":40.7350003986677,"longitude":-74.0529730751096},"review_count":19,"rating":3.5,"zip_code":"07306"},{"id":"ENfB82aVceC3VcTfq54rxQ","name":"Lee's Chinese Restaurant","cuisine":"Chinese","address":"1151 Summit Ave","coordinates":{"latitude":40.7543291,"longitude":-74.0468573},"review_count":15,"rating":4,"zip_code":"07307"},{"id":"M1VHR29gMNs3EavDXdE_PA","name":"Momos & Buns","cuisine":"Chinese","address":"120 Lexington Ave","coordinates":{"latitude":40.742844,"longitude":-73.982628},"review_count":3,"rating":3.5,"zip_code":"10016"},{"id":"-OTM1Pfqk0HMql7PdfESzg","name":"Delicious Inc. Chinese Restaurant","cuisine":"Chinese","address":"1974-A 2nd Ave","coordinates":{"latitude":40.7876572,"longitude":-73.9444213},"review_count":6,"rating":3,"zip_code":"10029"},{"id":"dPvfdcF9gE7JeEI_pboK5g","name":"Potsticker Cart","cuisine":"Chinese","address":"","coordinates":{"latitude":40.7834014892578,"longitude":-73.9663009643555},"review_count":2,"rating":4,"zip_code":"10023"},{"id":"gNFgZSfndMAjK0ClvQ5Q2A","name":"Moon Palace Kitchen","cuisine":"Chinese","address":"63-12 Flushing Ave","coordinates":{"latitude":40.72222,"longitude":-73.90177},"review_count":15,"rating":3.5,"zip_code":"11378"},{"id":"GDqIF-JMOO-8EM3yKn25_w","name":"New Sze's Garden","cuisine":"Chinese","address":"201 Cypress Ave","coordinates":{"latitude":40.7082630466795,"longitude":-73.9197599887848},"review_count":14,"rating":4,"zip_code":"11385"},{"id":"e6c0R0ME8QGw_ZY0RzuGxQ","name":"Hey Hey Canteen","cuisine":"Chinese","address":"590 Fulton St","coordinates":{"latitude":40.68777,"longitude":-73.97887},"review_count":22,"rating":4,"zip_code":"11201"},{"id":"naXE13hiCj-7LMMgcueLMg","name":"Wah Lung Kitchen","cuisine":"Chinese","address":"2111 21st Ave","coordinates":{"latitude":40.781677,"longitude":-73.914604},"review_count":16,"rating":3.5,"zip_code":"11105"},{"id":"5FbVGhTO8U4wh0AATsN9tA","name":"Wan's Garden","cuisine":"Chinese","address":"6826 Forest Ave","coordinates":{"latitude":40.702864,"longitude":-73.901421},"review_count":18,"rating":4,"zip_code":"11385"},{"id":"PV85eo4wSSPZ7cJiUb9vag","name":"Panda House","cuisine":"Chinese","address":"422 Paterson Plank Rd","coordinates":{"latitude":40.7560381,"longitude":-74.0433311},"review_count":16,"rating":3,"zip_code":"07087"},{"id":"iQKKS_QwYcgrjFISuDClqQ","name":"Good Joy","cuisine":"Chinese","address":"216 Dekalb Ave","coordinates":{"latitude":40.68942,"longitude":-73.97067},"review_count":26,"rating":3,"zip_code":"11205"},{"id":"A_e9adJ7v_U7trur2JMrgA","name":"Grill On Lee","cuisine":"Chinese","address":"108 Lee Ave","coordinates":{"latitude":40.7044641162683,"longitude":-73.9587070047855},"review_count":11,"rating":4.5,"zip_code":"11211"},{"id":"qgi4PnMGekq7C5wcc6dPDg","name":"Panda Express","cuisine":"Chinese","address":"30-303 Mall Dr W","coordinates":{"latitude":40.7261437133917,"longitude":-74.0388339912082},"review_count":34,"rating":2.5,"zip_code":"07310"},{"id":"4qR-Q4EQb2vXC62OZC6jdw","name":"China Town Food Market","cuisine":"Chinese","address":"223 Grand St","coordinates":{"latitude":40.718555,"longitude":-73.995567},"review_count":3,"rating":4.5,"zip_code":"10013"},{"id":"VrUqSxFaaFcN7T01pCCMwQ","name":"Wing Gong I Kitchen","cuisine":"Chinese","address":"2109 1st Ave","coordinates":{"latitude":40.791313,"longitude":-73.939239},"review_count":4,"rating":4,"zip_code":"10029"},{"id":"IQ5i53Mt-xFE73eJZZMt-A","name":"Mr. Deng's","cuisine":"Chinese","address":"365 W 34th St","coordinates":{"latitude":40.7533912658691,"longitude":-73.9957733154297},"review_count":1,"rating":5,"zip_code":"10001"},{"id":"YE2FPm9o32ojTG2_1pJBYw","name":"China House","cuisine":"Chinese","address":"55-01 Metropolitan Ave","coordinates":{"latitude":40.7131484469408,"longitude":-73.9087347686291},"review_count":4,"rating":5,"zip_code":"11385"},{"id":"TUpKY3rsYnrYHkbuD46bxg","name":"Hua Rong Chinese Restaurant","cuisine":"Chinese","address":"8323 Broadway","coordinates":{"latitude":40.74084,"longitude":-73.87921},"review_count":24,"rating":3,"zip_code":"11373"},{"id":"TF9yULreOr0vezsI0uWOnw","name":"Hong Kong","cuisine":"Chinese","address":"59 Baldwin Ave","coordinates":{"latitude":40.7240474,"longitude":-74.0641281},"review_count":20,"rating":3.5,"zip_code":"07306"},{"id":"er5IdZdfNkYsSigugyYvsw","name":"Wing Wah Restaurant","cuisine":"Chinese","address":"2308 1st Ave","coordinates":{"latitude":40.797466,"longitude":-73.933944},"review_count":12,"rating":3,"zip_code":"10035"},{"id":"9F3MR4JeKs7XukUzKQGc_w","name":"Strange Taste Cuisine","cuisine":"Chinese","address":"20 Henry St","coordinates":{"latitude":40.7128335739664,"longitude":-73.9967823028564},"review_count":1,"rating":5,"zip_code":"10002"},{"id":"U5XXDZEC7cRPBwapCaPyKA","name":"New Pearl River Restaurant","cuisine":"Chinese","address":"22 Elizabeth St","coordinates":{"latitude":40.7160546,"longitude":-73.9970753},"review_count":2,"rating":4,"zip_code":"10013"},{"id":"EhrSNWi4iOhvNqhtsfDyiQ","name":"Unicorn Restaurant","cuisine":"Chinese","address":"2170 3rd Ave","coordinates":{"latitude":40.799615,"longitude":-73.9389766},"review_count":2,"rating":4,"zip_code":"10035"},{"id":"mL43TXtc0WlFCfhlN0ziHQ","name":"Shun Cheong Chinese Kitchen","cuisine":"Chinese","address":"2 W 111th St","coordinates":{"latitude":40.79753,"longitude":-73.94915},"review_count":3,"rating":2.5,"zip_code":"10026"},{"id":"oEtZCrpEeQDYou3edW9hkw","name":"Chen's Kitchen","cuisine":"Chinese","address":"301 Jackson St","coordinates":{"latitude":40.74183,"longitude":-74.03993},"review_count":9,"rating":3.5,"zip_code":"07030"},{"id":"hyd08lsVkYzCfbbCuzla5Q","name":"Golden House","cuisine":"Chinese","address":"6305 Park Ave","coordinates":{"latitude":40.78862,"longitude":-74.00681},"review_count":5,"rating":4,"zip_code":"07093"},{"id":"k_y6o8zqI3cODdKABwWZ9g","name":"China Garden","cuisine":"Chinese","address":"133 Irving Ave","coordinates":{"latitude":40.70327,"longitude":-73.9216299},"review_count":5,"rating":5,"zip_code":"11237"},{"id":"FOmtg0myxeFxKfxylzqSBw","name":"Chinese Food Cart","cuisine":"Chinese","address":"Broome & Broadway","coordinates":{"latitude":40.7217900752834,"longitude":-73.9998465345092},"review_count":1,"rating":5,"zip_code":"10292"},{"id":"1CTv-Hk7Pg9wvKUfksigfA","name":"Red Square Caf√©","cuisine":"Chinese","address":"150 Centre St","coordinates":{"latitude":40.7174690812826,"longitude":-74.0003221482038},"review_count":3,"rating":3.5,"zip_code":"10013"},{"id":"5ebKBHXMWDgYFPZTzVoH4Q","name":"Sum Hing","cuisine":"Chinese","address":"1520 Amsterdam Ave","coordinates":{"latitude":40.8192,"longitude":-73.95243},"review_count":12,"rating":3.5,"zip_code":"10031"},{"id":"aeFTs1CHzGiJzMOMGwN7RQ","name":"Sam Lee Kitchen","cuisine":"Chinese","address":"2108 36th Ave","coordinates":{"latitude":40.7596809,"longitude":-73.9367017},"review_count":26,"rating":2,"zip_code":"11106"},{"id":"Kge7lu5TkuBi5tzb6u-MWA","name":"Mei-Ju Vege Gourmet","cuisine":"Chinese","address":"139 Mott St","coordinates":{"latitude":40.718654,"longitude":-73.9969454},"review_count":1,"rating":5,"zip_code":"10013"},{"id":"GkA6N9au7PGE-TisR_H4jg","name":"Jade Garden Chinese Tex Mex Restaurant","cuisine":"Chinese","address":"6805 Park Ave","coordinates":{"latitude":40.79158,"longitude":-74.00436},"review_count":16,"rating":3,"zip_code":"07093"},{"id":"_BL1-CT06HGkiA3jcucu2Q","name":"Panda Express","cuisine":"Chinese","address":"2852 Broadway","coordinates":{"latitude":40.80459,"longitude":-73.96607},"review_count":13,"rating":2.5,"zip_code":"10025"},{"id":"OjeikFkL0TC_f3iDF8CV-Q","name":"Jin Feng Restaurant","cuisine":"Chinese","address":"6 Eldridge St","coordinates":{"latitude":40.7145354151726,"longitude":-73.9937587827444},"review_count":1,"rating":5,"zip_code":"10002"},{"id":"X-c0knvz2aZRWaBFf8ClQg","name":"Tse's Lay On","cuisine":"Chinese","address":"19 E Broadway","coordinates":{"latitude":40.7134254203019,"longitude":-73.9971922407497},"review_count":1,"rating":5,"zip_code":"10002"},{"id":"J4x8WRUAoG7HKiGMjFGPvQ","name":"Dumpling Town","cuisine":"Chinese","address":"86-55 Broadway","coordinates":{"latitude":40.7373229,"longitude":-73.8771249},"review_count":13,"rating":4,"zip_code":"11373"},{"id":"Gvg0ZLMsyZkLWHhT6uJs7w","name":"Green Leaf","cuisine":"Chinese","address":"72-60 Metropolitan Ave","coordinates":{"latitude":40.71244,"longitude":-73.87957},"review_count":38,"rating":3.5,"zip_code":"11379"},{"id":"E_V_pCjtbvdniE8ECOMg3Q","name":"Great Wall Chinese Restaurant","cuisine":"Chinese","address":"87-12 Astoria Blvd","coordinates":{"latitude":40.7638765,"longitude":-73.8816184},"review_count":15,"rating":4,"zip_code":"11369"},{"id":"Wi367ViFEqzj_b308MqdOA","name":"Taste Chinese Restaurant","cuisine":"Chinese","address":"178 Church St","coordinates":{"latitude":40.7157208,"longitude":-74.0075003},"review_count":12,"rating":2,"zip_code":"10013"},{"id":"E2jDC5NyovSIWzF5yT_gdg","name":"Young Chow Garden","cuisine":"Chinese","address":"666 Amsterdam Ave","coordinates":{"latitude":40.7918192446232,"longitude":-73.972065076232},"review_count":13,"rating":2,"zip_code":"10025"},{"id":"pV0PFvPXv9qgnqOaC6tJzA","name":"Asian Express","cuisine":"Chinese","address":"234 E 23rd St","coordinates":{"latitude":40.7381,"longitude":-73.9818},"review_count":13,"rating":2,"zip_code":"10010"},{"id":"X8QkqD1YOp23waoFOGUjDA","name":"Kwok's Great Wall","cuisine":"Chinese","address":"239 Central Ave","coordinates":{"latitude":40.74327,"longitude":-74.05159},"review_count":33,"rating":2.5,"zip_code":"07307"},{"id":"SDRyYM2PemmPOmR-CTwxkw","name":"Wok Chi Stir Fry Kitchen","cuisine":"Chinese","address":"89 E 42nd St","coordinates":{"latitude":40.7524183,"longitude":-73.977933},"review_count":13,"rating":2,"zip_code":"10017"},{"id":"z9Ha8FUrN4jnJhnEFNrYUg","name":"Madina Halal Chinese Restaurant","cuisine":"Chinese","address":"64-02 35th Ave","coordinates":{"latitude":40.75011,"longitude":-73.89848},"review_count":12,"rating":3.5,"zip_code":"11377"},{"id":"A-lyq8aHJW71KiExULLC2A","name":"Weiside China Station","cuisine":"Chinese","address":"60-21 39th Ave","coordinates":{"latitude":40.7473472,"longitude":-73.9027911},"review_count":21,"rating":2.5,"zip_code":"11377"},{"id":"ZF-pkWLcWEK3K3DXssFj8g","name":"Beijing Chinese & Japanese Food","cuisine":"Chinese","address":"551 Woodward Ave","coordinates":{"latitude":40.7071113586426,"longitude":-73.9090576171875},"review_count":19,"rating":3,"zip_code":"11385"},{"id":"6KQ-jlXjOgb_uVeZxgimqQ","name":"Hua Long Chinese Restaurant","cuisine":"Chinese","address":"706 Fulton St","coordinates":{"latitude":40.6857872009277,"longitude":-73.9737319946289},"review_count":16,"rating":3.5,"zip_code":"11217"},{"id":"1QXTYR312XXgUExNmTEWuA","name":"Chu's Gourmet","cuisine":"Chinese","address":"82 Livingston St","coordinates":{"latitude":40.69132,"longitude":-73.99094},"review_count":37,"rating":3,"zip_code":"11201"},{"id":"NJGtDl4jqIaRz0qEnfUOOQ","name":"Beijing House","cuisine":"Chinese","address":"553 Wilson Ave","coordinates":{"latitude":40.69152,"longitude":-73.90935},"review_count":36,"rating":3,"zip_code":"11207"},{"id":"FZq-6qLB1RLG59V8dTnFhw","name":"Hua Xia","cuisine":"Chinese","address":"49 Division St","coordinates":{"latitude":40.7142606365804,"longitude":-73.9951291801726},"review_count":3,"rating":3,"zip_code":"10002"},{"id":"pfzQGY4bgpxBWR26a6rzxQ","name":"China Taste","cuisine":"Chinese","address":"7808 Bergenline Ave","coordinates":{"latitude":40.80103,"longitude":-74.00686},"review_count":17,"rating":3,"zip_code":"07047"},{"id":"D5PuTv7Z-CI62sjJbM2WRw","name":"85 Chinese Restaurant","cuisine":"Chinese","address":"85 Chrystie St","coordinates":{"latitude":40.7175407,"longitude":-73.9944992},"review_count":5,"rating":2.5,"zip_code":"10002"},{"id":"kgkjgqFn1kRw5qEY0FMiBQ","name":"No.1 Chinese Restaurant","cuisine":"Chinese","address":"705 Fulton St","coordinates":{"latitude":40.6875799,"longitude":-73.97724},"review_count":36,"rating":3,"zip_code":"11217"},{"id":"2DlAPX4KBG8e7veOWYR6DQ","name":"New Hardee Chinese Restaurant","cuisine":"Chinese","address":"835 Dekalb Ave","coordinates":{"latitude":40.69244,"longitude":-73.94299},"review_count":18,"rating":3.5,"zip_code":"11221"},{"id":"2UAvRLaWMc8lYE4FZSPhrA","name":"New Hardee","cuisine":"Chinese","address":"130 Wilson Ave","coordinates":{"latitude":40.7006568908691,"longitude":-73.9261474609375},"review_count":6,"rating":4.5,"zip_code":"11237"},{"id":"eNZ4VK4G9z5LPdG756pixw","name":"Moly's Asian Restaurant","cuisine":"Chinese","address":"1126 Broadway","coordinates":{"latitude":40.69353,"longitude":-73.9296},"review_count":17,"rating":3,"zip_code":"11221"},{"id":"RuOFTFVTEuYSswAlzjxvwQ","name":"Happy Garden Chinese Restaurant","cuisine":"Chinese","address":"188 Wilson Ave","coordinates":{"latitude":40.69921,"longitude":-73.923601},"review_count":14,"rating":3.5,"zip_code":"11221"},{"id":"zP0-toOSIjp7RvxQF2bxTg","name":"BK Express","cuisine":"Chinese","address":"52 Willoughby St","coordinates":{"latitude":40.69213,"longitude":-73.98681},"review_count":22,"rating":3,"zip_code":"11201"},{"id":"KkPanVlxtpsuG0V0IlEchg","name":"Szechuan","cuisine":"Chinese","address":"1347 2nd Ave","coordinates":{"latitude":40.768131,"longitude":-73.959197},"review_count":2,"rating":3.5,"zip_code":"10021"},{"id":"loLFoBWWXfpFu9fOdWebHQ","name":"Yong Sheng","cuisine":"Chinese","address":"2825 8th Ave","coordinates":{"latitude":40.8263956010342,"longitude":-73.9393877238035},"review_count":10,"rating":3.5,"zip_code":"10039"},{"id":"OyUqDYNctt81gsNLvfHp5A","name":"Homei Restaurant","cuisine":"Chinese","address":"222 Malcolm X Blvd","coordinates":{"latitude":40.6854858398438,"longitude":-73.9298324584961},"review_count":12,"rating":3.5,"zip_code":"11221"},{"id":"Ctl89LOC7HgewvuqSPwQxA","name":"Maxim Chinese Restaurant","cuisine":"Chinese","address":"6812 Roosevelt Ave","coordinates":{"latitude":40.7461429,"longitude":-73.8969407},"review_count":21,"rating":3,"zip_code":"11377"},{"id":"qWA4eHJdFGankbk3IPQF7Q","name":"Panda House Chinese Restaurant","cuisine":"Chinese","address":"735 Montgomery St","coordinates":{"latitude":40.7249481,"longitude":-74.0677502},"review_count":28,"rating":2.5,"zip_code":"07306"},{"id":"XNZXyahRs1-GOx-71LET1w","name":"Sun Hing Chinese Restaurant","cuisine":"Chinese","address":"8914 Northern Blvd","coordinates":{"latitude":40.756033,"longitude":-73.878237},"review_count":10,"rating":4,"zip_code":"11372"},{"id":"zsIfJPwYV2WwXyXEKPd9Jw","name":"China King Restaurant","cuisine":"Chinese","address":"1026 River Rd","coordinates":{"latitude":40.8297878,"longitude":-73.9720964},"review_count":18,"rating":3,"zip_code":"07020"},{"id":"g2ymxufzvleJnTj3WGMmnw","name":"Sum Fung","cuisine":"Chinese","address":"5401 Northern Blvd","coordinates":{"latitude":40.75361,"longitude":-73.90649},"review_count":11,"rating":3,"zip_code":"11377"},{"id":"V3_JuZUvgrS74Mdk2nEvkg","name":"M XX Cafe","cuisine":"Chinese","address":"106 Bowery","coordinates":{"latitude":40.7178732,"longitude":-73.9952312},"review_count":2,"rating":3.5,"zip_code":"10013"},{"id":"YZBXBB0M6JHtk_LNsraLpg","name":"Five Loaves and Two Fish Bakery","cuisine":"Chinese","address":"70B Canal St","coordinates":{"latitude":40.71501,"longitude":-73.99288},"review_count":2,"rating":3.5,"zip_code":"10002"},{"id":"ZwSGKO5hy4tbW6528qEgkQ","name":"Great Wall","cuisine":"Chinese","address":"426 Grand St","coordinates":{"latitude":40.7171163,"longitude":-74.0539207},"review_count":8,"rating":4,"zip_code":"07302"},{"id":"fEiqFzk4Z-kbdzHIeu_tjA","name":"K&K Super Buffet","cuisine":"Chinese","address":"341 St Nicholas Ave","coordinates":{"latitude":40.70092,"longitude":-73.9091399},"review_count":61,"rating":2.5,"zip_code":"11385"},{"id":"Yrsdl3AaTwMXHZnv4eKQBQ","name":"Central Wok Chinese Restaurant","cuisine":"Chinese","address":"499 Central Ave","coordinates":{"latitude":40.75171,"longitude":-74.04572},"review_count":12,"rating":3,"zip_code":"07307"},{"id":"5z1CFWRQYu38S6UMIckT9Q","name":"Grace Kitchen","cuisine":"Chinese","address":"484 Myrtle Ave","coordinates":{"latitude":40.6933,"longitude":-73.96569},"review_count":24,"rating":3,"zip_code":"11205"},{"id":"iktFUkKDa7B7e10Lk80amw","name":"New Fun Sing","cuisine":"Chinese","address":"689 Broadway","coordinates":{"latitude":40.70191,"longitude":-73.94349},"review_count":9,"rating":3.5,"zip_code":"11206"},{"id":"2PY9Fty_6QRpnZGIxo34eQ","name":"Chung Hing","cuisine":"Chinese","address":"157 Court St","coordinates":{"latitude":40.688841,"longitude":-73.992521},"review_count":27,"rating":3,"zip_code":"11201"},{"id":"K4PwN0B4Rdl6Ft9Ggn4BCg","name":"Fong Kwan Kitchen","cuisine":"Chinese","address":"65-48 Metropolitan Ave","coordinates":{"latitude":40.712311,"longitude":-73.894266},"review_count":20,"rating":3,"zip_code":"11379"},{"id":"4bqNfClSVoJWNJE4CmV2YQ","name":"Goody Spanish and Chinese Restaurant","cuisine":"Chinese","address":"7011 Bergenline Ave","coordinates":{"latitude":40.7964901,"longitude":-74.0107717},"review_count":7,"rating":3.5,"zip_code":"07047"},{"id":"39YhdV_gyvxemOjvM3JAZQ","name":"China Local Cuisine","cuisine":"Chinese","address":"88 E Broadway","coordinates":{"latitude":40.7138356,"longitude":-73.9941404},"review_count":6,"rating":3,"zip_code":"10002"},{"id":"zlGiTzPQPLNQvZBCJYreog","name":"Jing Hui","cuisine":"Chinese","address":"255 W 148th St","coordinates":{"latitude":40.8246154785156,"longitude":-73.9396286010742},"review_count":13,"rating":3.5,"zip_code":"10039"},{"id":"tX_fGX09HCMvXTzHDZQoYw","name":"New Ho Wah","cuisine":"Chinese","address":"4201 Broadway","coordinates":{"latitude":40.758332,"longitude":-73.9171535856445},"review_count":20,"rating":2.5,"zip_code":"11103"},{"id":"yVUTb3dFJk2PXe9lsr3d-Q","name":"Jim's China King","cuisine":"Chinese","address":"563 Seneca Ave","coordinates":{"latitude":40.7048454284668,"longitude":-73.9106750488281},"review_count":29,"rating":3,"zip_code":"11385"},{"id":"MnjB_RIJG0sDTk7dGggA4w","name":"New China","cuisine":"Chinese","address":"1135 Myrtle Ave","coordinates":{"latitude":40.69701,"longitude":-73.93612},"review_count":10,"rating":4,"zip_code":"11206"},{"id":"_0MvItPbaQ3A-pP3GWHI1Q","name":"Great China Restaurant","cuisine":"Chinese","address":"1461 Amsterdam Ave","coordinates":{"latitude":40.81696,"longitude":-73.95344},"review_count":2,"rating":3.5,"zip_code":"10027"},{"id":"CFUaimcfs4q8Y7vCkxraHg","name":"Gordon Chen Kitchen","cuisine":"Chinese","address":"231 E 53rd St","coordinates":{"latitude":40.75726,"longitude":-73.96808},"review_count":3,"rating":2.5,"zip_code":"10022"},{"id":"Og0obs4GOlVlfJalWY2hbA","name":"Chen China Garden","cuisine":"Chinese","address":"344 Knickerbocker Ave","coordinates":{"latitude":40.70079,"longitude":-73.922271},"review_count":13,"rating":3,"zip_code":"11237"},{"id":"fVPF1SCGg37D8gRw1UQIuQ","name":"King Dragon","cuisine":"Chinese","address":"1548 Madison Ave","coordinates":{"latitude":40.792865,"longitude":-73.950347},"review_count":6,"rating":2.5,"zip_code":"10029"},{"id":"_O3q6PSXNoPapUar-RVXPw","name":"Grace Chinese Food II","cuisine":"Chinese","address":"136 Graham Ave","coordinates":{"latitude":40.70615,"longitude":-73.94286},"review_count":11,"rating":3.5,"zip_code":"11206"},{"id":"8Ef9eUwj4fO3uyY1dgEHsg","name":"Splendid China","cuisine":"Chinese","address":"2038 Amsterdam Ave","coordinates":{"latitude":40.835598,"longitude":-73.940437},"review_count":18,"rating":3.5,"zip_code":"10032"},{"id":"j6nn4UtRCYbaeQ267dTCug","name":"Kim Tong","cuisine":"Chinese","address":"1722 Amsterdam Ave","coordinates":{"latitude":40.82557,"longitude":-73.94777},"review_count":15,"rating":3,"zip_code":"10031"},{"id":"0Kddr4YmZKS0qcQv_wOwWQ","name":"A Plus Chinese","cuisine":"Chinese","address":"84 Eldridge","coordinates":{"latitude":40.71713,"longitude":-73.99238},"review_count":6,"rating":3,"zip_code":"10002"},{"id":"l5C_XHvTZihVzPKgclRZqg","name":"Lee's Villa","cuisine":"Chinese","address":"152 Lawrence St","coordinates":{"latitude":40.6918338686228,"longitude":-73.9863190054893},"review_count":27,"rating":2.5,"zip_code":"11201"},{"id":"TAm8Eauo0NQNHpjOAWXo2A","name":"Teng Dragon","cuisine":"Chinese","address":"2260 1st Ave","coordinates":{"latitude":40.7961006164551,"longitude":-73.9349899291992},"review_count":12,"rating":3,"zip_code":"10035"},{"id":"ubgtTdmGn9E-sfoaYCX5UQ","name":"Ling Ling Kitchen","cuisine":"Chinese","address":"508 Henry St","coordinates":{"latitude":40.68387,"longitude":-73.99969},"review_count":18,"rating":3,"zip_code":"11231"},{"id":"23UKsvFdt2OIU87m6SLzGg","name":"In N Out","cuisine":"Chinese","address":"360 E 116th St","coordinates":{"latitude":40.7959699,"longitude":-73.93578},"review_count":10,"rating":3.5,"zip_code":"10029"},{"id":"uzqDuM_7lVDnbkr0dAoM1A","name":"Green Shell Chinese & Italian Restaurant","cuisine":"Chinese","address":"6320 Bergenline Ave","coordinates":{"latitude":40.7921362,"longitude":-74.0136587},"review_count":11,"rating":2.5,"zip_code":"07093"},{"id":"2TfjzqaYhGx6QYIoZGIY0w","name":"King Food Restaurant","cuisine":"Chinese","address":"422 Amsterdam Ave","coordinates":{"latitude":40.78407,"longitude":-73.97787},"review_count":4,"rating":2.5,"zip_code":"10024"},{"id":"fahnqhxhFqyMAHKVC01sSA","name":"Moishe's Place","cuisine":"Chinese","address":"868 Bedford Ave","coordinates":{"latitude":40.6952229685817,"longitude":-73.9563989639282},"review_count":15,"rating":3.5,"zip_code":"11205"},{"id":"nx4sK_yXLpHL1d3iKT7z3Q","name":"Super Bowl","cuisine":"Chinese","address":"5560 60th St","coordinates":{"latitude":40.725644,"longitude":-73.906413},"review_count":12,"rating":3.5,"zip_code":"11378"},{"id":"zdX9mwhoknXXYL1GCstnow","name":"Lucky Garden","cuisine":"Chinese","address":"305L Wyckoff Ave","coordinates":{"latitude":40.7003,"longitude":-73.91221},"review_count":9,"rating":4,"zip_code":"11237"},{"id":"MADBD7Xy5t1Zax2wje9Q1g","name":"Green Shell","cuisine":"Chinese","address":"453 Palisade Ave","coordinates":{"latitude":40.8200216,"longitude":-73.9889035},"review_count":17,"rating":3,"zip_code":"07010"},{"id":"XDboe1zVxSRRMgHObYULSA","name":"Hong Kong Street Cart At Broadway Bites","cuisine":"Chinese","address":"968 Avenue Of The Americas","coordinates":{"latitude":40.750717,"longitude":-73.9869138},"review_count":1,"rating":4,"zip_code":"10001"},{"id":"ZavZHhbaPQS8ed7gdeElYQ","name":"Panda Express","cuisine":"Chinese","address":"2100 88th St","coordinates":{"latitude":40.81342,"longitude":-74.01422},"review_count":29,"rating":2.5,"zip_code":"07047"},{"id":"jeFZi99yBGWUT_2bdKyXRA","name":"The Bamboo House","cuisine":"Chinese","address":"104 2nd Ave","coordinates":{"latitude":40.7274094,"longitude":-73.9881592},"review_count":6,"rating":2,"zip_code":"10003"},{"id":"j3SmAeDDPFTFGYYygNikDQ","name":"Good Good Taste","cuisine":"Chinese","address":"13 Market St","coordinates":{"latitude":40.71339,"longitude":-73.99478},"review_count":5,"rating":3,"zip_code":"10002"},{"id":"uaC_4pjwtdJ_SngBsJABHw","name":"Lee Garden Chinese Restaurant","cuisine":"Chinese","address":"121 Wyckoff Ave","coordinates":{"latitude":40.70433,"longitude":-73.91904},"review_count":15,"rating":3.5,"zip_code":"11237"},{"id":"cPbR1NvEQaxtoeFtTF5eOA","name":"Dragon Town","cuisine":"Chinese","address":"2030 Third Ave","coordinates":{"latitude":40.7952288,"longitude":-73.9421936},"review_count":8,"rating":2.5,"zip_code":"10029"},{"id":"9_R4c2O4EXqxaTaEHv8FoA","name":"New Hong Cheung Chinese Restaurant","cuisine":"Chinese","address":"143 Greene Ave","coordinates":{"latitude":40.6867643495368,"longitude":-73.9662748575211},"review_count":16,"rating":3,"zip_code":"11238"},{"id":"lbZqfX4vvCr1aMLuEey3Ag","name":"Chang Heng","cuisine":"Chinese","address":"54 Willoughby St","coordinates":{"latitude":40.692008,"longitude":-73.986701},"review_count":14,"rating":3.5,"zip_code":"11201"},{"id":"mHoZXd8iKtNsKpJVtYjLHg","name":"Bamboo Restaurant","cuisine":"Chinese","address":"30 Market St","coordinates":{"latitude":40.712746,"longitude":-73.994156},"review_count":7,"rating":2.5,"zip_code":"10002"},{"id":"QCmTFa7i_1A4nFByga62xA","name":"Great Wall No III","cuisine":"Chinese","address":"841 Bergen Ave","coordinates":{"latitude":40.7282416,"longitude":-74.0671607},"review_count":9,"rating":4,"zip_code":"07306"},{"id":"SX6WD9yIj3jG6HlyzdYzRQ","name":"Feng Shun Chang Kitchen","cuisine":"Chinese","address":"2 W 111th St","coordinates":{"latitude":40.7974815,"longitude":-73.9492035},"review_count":1,"rating":4,"zip_code":"10026"},{"id":"C3cKsJ1SoYYCkM0D0K2DpA","name":"New Dragon","cuisine":"Chinese","address":"2413 2nd Ave","coordinates":{"latitude":40.8020401,"longitude":-73.9344788},"review_count":11,"rating":2.5,"zip_code":"10035"},{"id":"zSeISbNAkJwTEqvUGNT-OA","name":"La Nueva Win Hing Restaurant","cuisine":"Chinese","address":"40 E 167th St","coordinates":{"latitude":40.83543,"longitude":-73.92115},"review_count":17,"rating":3.5,"zip_code":"10452"},{"id":"xcId3IpNbfB-UKrl5EOqdQ","name":"Jin Hua Restaurant","cuisine":"Chinese","address":"35 E Broadway","coordinates":{"latitude":40.71331,"longitude":-73.996307},"review_count":3,"rating":2.5,"zip_code":"10002"},{"id":"bmEBRQyX9aEOnlDwxWYaFg","name":"spades","cuisine":"Chinese","address":"W31st Street 11","coordinates":{"latitude":40.7469902,"longitude":-73.9866333},"review_count":1,"rating":4,"zip_code":"10001"},{"id":"CMPJF2i7jo6Qt9kD3K7ASQ","name":"Mee Noodle Shop and Grill","cuisine":"Chinese","address":"174 Lexington Ave","coordinates":{"latitude":40.744396,"longitude":-73.981475},"review_count":1,"rating":4,"zip_code":"10016"},{"id":"31YUV8m6omrJAYP1zVFDuQ","name":"Ming's Garden","cuisine":"Chinese","address":"1205 1st Ave","coordinates":{"latitude":40.76355,"longitude":-73.95934},"review_count":2,"rating":3,"zip_code":"10021"},{"id":"OpOwJYqJRgRnoBKKPYwdTQ","name":"Double Dragon","cuisine":"Chinese","address":"2037 1st Ave","coordinates":{"latitude":40.78919,"longitude":-73.94061},"review_count":4,"rating":3,"zip_code":"10029"},{"id":"ugiMtHxazDwzPq96zgoqmw","name":"No 1 Chinese Restaurant","cuisine":"Chinese","address":"6308 Broadway","coordinates":{"latitude":40.74965,"longitude":-73.89898},"review_count":12,"rating":3,"zip_code":"11377"},{"id":"evHWhvANb4cvraeAzow0vg","name":"Hong Garden","cuisine":"Chinese","address":"2515 Adam Clayton Powell","coordinates":{"latitude":40.8219299316406,"longitude":-73.9383544921875},"review_count":8,"rating":3.5,"zip_code":"10039"},{"id":"6vJA2yqa7cpxGcrWzLoQVA","name":"Yi Hao Chinese Restaurant","cuisine":"Chinese","address":"1 E Broadway","coordinates":{"latitude":40.71323,"longitude":-73.99787},"review_count":4,"rating":2.5,"zip_code":"10038"},{"id":"XGn1UkkUAGkwRHnegq6Xig","name":"China Spice","cuisine":"Chinese","address":"117 Tonnelle Ave","coordinates":{"latitude":40.7350791713541,"longitude":-74.0670965988642},"review_count":24,"rating":3,"zip_code":"07306"},{"id":"cMjkE7P6187dJXUPpKl1ow","name":"Chun Wai Restaurant","cuisine":"Chinese","address":"1319 New York Ave","coordinates":{"latitude":40.7605286187255,"longitude":-74.0356116927299},"review_count":6,"rating":4,"zip_code":"07087"},{"id":"76xYLhmeK4PZEB4V-NUHOQ","name":"Hong Kong Chinese Kitchen","cuisine":"Chinese","address":"1507 Summit Ave","coordinates":{"latitude":40.76368,"longitude":-74.04038},"review_count":5,"rating":3.5,"zip_code":"07087"},{"id":"bxKK5doRz3SZceEws8Ya8g","name":"Lian Jiang Restaurant","cuisine":"Chinese","address":"88 Division St","coordinates":{"latitude":40.7143117126122,"longitude":-73.9938462769547},"review_count":2,"rating":2.5,"zip_code":"10002"},{"id":"bGzptsMjHN5PMjzk1LfAAw","name":"East Seafood restaurant","cuisine":"Chinese","address":"17 Division St","coordinates":{"latitude":40.713924407959,"longitude":-73.9966125488281},"review_count":2,"rating":4,"zip_code":"10002"},{"id":"y-c0jyeEoCotVLPrT8iI7A","name":"Chen Yuan Chinese Food","cuisine":"Chinese","address":"714 Knickerbocker Ave","coordinates":{"latitude":40.6942395539858,"longitude":-73.9105729000734},"review_count":9,"rating":4,"zip_code":"11221"},{"id":"if59rbMD_wvjtGLSx6Butw","name":"Sweet House Inc","cuisine":"Chinese","address":"239 Grand St","coordinates":{"latitude":40.7182758,"longitude":-73.9946401},"review_count":1,"rating":4,"zip_code":"10002"},{"id":"hO0MALpkuawOsCVXvh9yOQ","name":"Gong Ho","cuisine":"Chinese","address":"96 Elizabeth St","coordinates":{"latitude":40.7185185,"longitude":-73.995628},"review_count":1,"rating":4,"zip_code":"10013"},{"id":"18OQ0pB94oC2NE4Qbf3MvQ","name":"New Golden City","cuisine":"Chinese","address":"698 Anderson Ave","coordinates":{"latitude":40.82833,"longitude":-73.98616},"review_count":13,"rating":3.5,"zip_code":"07010"},{"id":"WEa266y5CsANNqvyfG7elA","name":"King's Kitchen","cuisine":"Chinese","address":"158 Lewis Ave","coordinates":{"latitude":40.6913483887911,"longitude":-73.9367651939392},"review_count":4,"rating":5,"zip_code":"11221"},{"id":"zhvKXi26JdVGzovZaR6zQQ","name":"Ying Qian Fuzhou Restaurant","cuisine":"Chinese","address":"68 Forsyth St","coordinates":{"latitude":40.71695,"longitude":-73.99327},"review_count":1,"rating":4,"zip_code":"10002"},{"id":"HKjazh_40Gei5rP5ir-F2w","name":"Zheng's River Restaurant","cuisine":"Chinese","address":"2076 Frederick Douglass B","coordinates":{"latitude":40.802,"longitude":-73.95672},"review_count":1,"rating":4,"zip_code":"10026"},{"id":"D9VF9WYfGAGZwo62yeFB9Q","name":"Ming Star Chinese Restaurant","cuisine":"Chinese","address":"8914 Northern Blvd","coordinates":{"latitude":40.756034,"longitude":-73.878234},"review_count":9,"rating":3.5,"zip_code":"11372"},{"id":"I1FoaHcmLe8CaDjGtKz2CQ","name":"King's Taste","cuisine":"Chinese","address":"8406 Astoria Blvd","coordinates":{"latitude":40.7643537,"longitude":-73.8845476},"review_count":14,"rating":3,"zip_code":"11370"},{"id":"K5OWsf2u4GulpkW2-QLHrg","name":"Lucky Seven bakery","cuisine":"Chinese","address":"47 Bayard St","coordinates":{"latitude":40.71507,"longitude":-73.99746},"review_count":1,"rating":4,"zip_code":"10013"},{"id":"MpQfgom8BltdTLZi7FHP-Q","name":"Aji Asian Cuisine","cuisine":"Chinese","address":"141 Front St","coordinates":{"latitude":40.7906506,"longitude":-74.0586091},"review_count":29,"rating":2.5,"zip_code":"07094"},{"id":"QDzHD0CQerW_awH_dC4IEA","name":"Taste of China","cuisine":"Chinese","address":"8026 Baxter Ave","coordinates":{"latitude":40.7446556091309,"longitude":-73.8842849731445},"review_count":7,"rating":4,"zip_code":"11373"},{"id":"PQSrlPW8BGZr8AsgCxVcWQ","name":"Weng Garden","cuisine":"Chinese","address":"872 Hancock St","coordinates":{"latitude":40.6858,"longitude":-73.92074},"review_count":9,"rating":4,"zip_code":"11233"},{"id":"HrbmGVNx8hmgH_GraPi_8Q","name":"Faith Chinese Food","cuisine":"Chinese","address":"170 Graham Ave","coordinates":{"latitude":40.707572,"longitude":-73.942924},"review_count":18,"rating":2.5,"zip_code":"11206"},{"id":"TDagfcvV-UNR1gEGX-iFJA","name":"Wong's Gourmet","cuisine":"Chinese","address":"715 Newark Ave","coordinates":{"latitude":40.73491,"longitude":-74.06143},"review_count":26,"rating":2,"zip_code":"07306"},{"id":"ygXivebDgnAW3l7z9jQ6KQ","name":"Hong Cheong Kitchen","cuisine":"Chinese","address":"2393 Frederick Douglass B","coordinates":{"latitude":40.812366,"longitude":-73.949928},"review_count":3,"rating":3.5,"zip_code":"10027"},{"id":"SFleMiroXTeWnXfonRic-w","name":"Fast Wok","cuisine":"Chinese","address":"260 Brook Ave","coordinates":{"latitude":40.808,"longitude":-73.9187199},"review_count":8,"rating":4,"zip_code":"10454"},{"id":"7Ap1bmY3u_uM9L63fy0g7A","name":"Ho Wah Chinese Restaurant","cuisine":"Chinese","address":"551 Gates Ave","coordinates":{"latitude":40.6870242760585,"longitude":-73.944796100731},"review_count":5,"rating":4,"zip_code":"11216"},{"id":"BzDeQSF3M29tgzdVK5KrQg","name":"Asia Grill Express","cuisine":"Chinese","address":"888B Grand Concourse","coordinates":{"latitude":40.8265218804061,"longitude":-73.9225669205189},"review_count":44,"rating":2.5,"zip_code":"10451"},{"id":"xkYzEUPO6sR8bq5vWZSlpQ","name":"No 1 Chinese Restaurant","cuisine":"Chinese","address":"1011 Bedford Ave","coordinates":{"latitude":40.6893426,"longitude":-73.9549409},"review_count":25,"rating":3,"zip_code":"11205"},{"id":"RatKXMQ1bFpXeJUppLxb_g","name":"Happy Garden Chinese Kitchen","cuisine":"Chinese","address":"527 Newark Ave","coordinates":{"latitude":40.73077,"longitude":-74.05617},"review_count":11,"rating":3.5,"zip_code":"07306"},{"id":"Mb-4UoR7TNBQ4Ksla4v1fg","name":"Merry Land Chinese Buffet","cuisine":"Chinese","address":"511 E 163rd St","coordinates":{"latitude":40.8268926161968,"longitude":-73.9094186599609},"review_count":22,"rating":3,"zip_code":"10451"},{"id":"7pvyyBvRuw7Vu5KT8avMFw","name":"China Favourite","cuisine":"Chinese","address":"96 E Broadway","coordinates":{"latitude":40.7139,"longitude":-73.99348},"review_count":3,"rating":2.5,"zip_code":"10002"},{"id":"F5T1HMAb5iRBFrIOcz7e3w","name":"Liu Garden","cuisine":"Chinese","address":"560 Wilson Ave","coordinates":{"latitude":40.690765,"longitude":-73.908683},"review_count":21,"rating":2.5,"zip_code":"11207"},{"id":"yb_o__uWnKI2k_i9h3oESw","name":"Asia Restaurant","cuisine":"Chinese","address":"8802 Roosevelt Ave","coordinates":{"latitude":40.748088,"longitude":-73.8784215},"review_count":6,"rating":4,"zip_code":"11372"},{"id":"bfCYjIXL50CzXpvqiMcg5w","name":"Great Wok","cuisine":"Chinese","address":"125B Plaza Ctr","coordinates":{"latitude":40.7910092175007,"longitude":-74.0567833185196},"review_count":28,"rating":2.5,"zip_code":"07094"},{"id":"F5BV2nadBU9_3V7fK2791g","name":"Jade Wok","cuisine":"Chinese","address":"422 Central Ave","coordinates":{"latitude":40.7490385225131,"longitude":-74.0472359955311},"review_count":9,"rating":3,"zip_code":"07307"},{"id":"q-dg3PrPHPZQXn3TeO9PDQ","name":"Eagle City Chinese & Tex-Mex","cuisine":"Chinese","address":"914B Fulton St","coordinates":{"latitude":40.6828907132149,"longitude":-73.9643463492393},"review_count":17,"rating":3,"zip_code":"11238"},{"id":"unoOcGmDHsd9LWNLYnBc3A","name":"Dragon Gate Chinese Cuisine","cuisine":"Chinese","address":"1944 37th St","coordinates":{"latitude":40.7785454,"longitude":-73.9019852},"review_count":4,"rating":4,"zip_code":"11105"},{"id":"2TRwm0NtvgvsivY-1tM9_g","name":"Rising Dragon Chinese Restaurant","cuisine":"Chinese","address":"316 West 36th St","coordinates":{"latitude":40.7536354064941,"longitude":-73.9934997558594},"review_count":5,"rating":1.5,"zip_code":"10018"},{"id":"0lHo2QMs1iBydgtYAB5yWQ","name":"Jun Lung Chinese Restaurant","cuisine":"Chinese","address":"6109 Kennedy Blvd","coordinates":{"latitude":40.7927581271286,"longitude":-74.0211481601},"review_count":5,"rating":3,"zip_code":"07047"},{"id":"oXA0m-CkL48o1mujlwW1Kg","name":"China Palace","cuisine":"Chinese","address":"21 E 33rd St","coordinates":{"latitude":40.74741,"longitude":-73.98363},"review_count":2,"rating":2.5,"zip_code":"10016"},{"id":"4NCvsUR3cKLaPgIZJK622w","name":"Chang Hong Chinese Restaurant","cuisine":"Chinese","address":"409 Irving Ave","coordinates":{"latitude":40.696949,"longitude":-73.910232},"review_count":9,"rating":4,"zip_code":"11237"},{"id":"woylrqH13UJgLHtZx49eIA","name":"Peking Kitchen","cuisine":"Chinese","address":"344 Classon Ave","coordinates":{"latitude":40.68874,"longitude":-73.96012},"review_count":7,"rating":3.5,"zip_code":"11238"},{"id":"Gy2mDqjL9Nn1xEFyB4kN2A","name":"He Lin Restaurant","cuisine":"Chinese","address":"83-11 Broadway","coordinates":{"latitude":40.7409018866865,"longitude":-73.879824258456},"review_count":19,"rating":2.5,"zip_code":"11373"},{"id":"-WHFEUqFUr7xhEKTq5DIww","name":"Asian Yummy House","cuisine":"Chinese","address":"824 Broadway","coordinates":{"latitude":40.6991501,"longitude":-73.9395905},"review_count":15,"rating":2.5,"zip_code":"11206"},{"id":"z3iPPc-RMrH7OBojFtx_MQ","name":"Benny's Lung Sheng","cuisine":"Chinese","address":"906 Columbus Ave","coordinates":{"latitude":40.79829,"longitude":-73.96378},"review_count":5,"rating":2,"zip_code":"10025"},{"id":"I3_4xi2YNywn8-SKefQDjg","name":"Yang's Chinese Food","cuisine":"Chinese","address":"304 W 14th St","coordinates":{"latitude":40.73994,"longitude":-74.00334},"review_count":2,"rating":2.5,"zip_code":"10014"},{"id":"vB8PCMD_CK7A02e7e_WANg","name":"Rickshaw Dumpling Truck","cuisine":"Chinese","address":"Court And Atlantic Streets","coordinates":{"latitude":40.6897,"longitude":-73.99239},"review_count":11,"rating":3,"zip_code":"11201"},{"id":"-ayJl5BQbChsHqAMBSfE0Q","name":"Fu Zhow Restaurant","cuisine":"Chinese","address":"84 Eldridge St","coordinates":{"latitude":40.71708,"longitude":-73.99226},"review_count":2,"rating":2.5,"zip_code":"10002"},{"id":"-EAAJsPWEIAm-ygFFY-Rrg","name":"Min Jiang Restaurant","cuisine":"Chinese","address":"95 E Broadway","coordinates":{"latitude":40.713554,"longitude":-73.993515},"review_count":3,"rating":2,"zip_code":"10002"},{"id":"pB_eYQKqczE--IOyGq_PVg","name":"New China","cuisine":"Chinese","address":"74-19 Metropolitan Ave","coordinates":{"latitude":40.7130356,"longitude":-73.8775253},"review_count":21,"rating":2.5,"zip_code":"11379"},{"id":"VBb86ambhnebBuFjVYU0Zw","name":"New City","cuisine":"Chinese","address":"236 Knickerbocker Ave","coordinates":{"latitude":40.7029774649578,"longitude":-73.9258919279945},"review_count":11,"rating":2.5,"zip_code":"11237"},{"id":"qR6vC-y7o_ts-s-dqg4h1w","name":"Chinacity Restaurant","cuisine":"Chinese","address":"914 Broadway","coordinates":{"latitude":40.6974,"longitude":-73.93626},"review_count":6,"rating":3.5,"zip_code":"11206"},{"id":"SbDFRevMMi_6o-6-mzWMxg","name":"Happy Garden","cuisine":"Chinese","address":"402 Henry St","coordinates":{"latitude":40.6875151,"longitude":-73.9979148},"review_count":9,"rating":3,"zip_code":"11201"},{"id":"fYWGLm1ZMbHg3noMJuhnRw","name":"Woodside Kitchen","cuisine":"Chinese","address":"7610 Woodside Ave","coordinates":{"latitude":40.74322,"longitude":-73.88839},"review_count":15,"rating":2.5,"zip_code":"11373"},{"id":"BG0F1eTMikmXnL2C03Oq3A","name":"Foo-Hing Chinese Kitchen","cuisine":"Chinese","address":"2706 3rd Ave","coordinates":{"latitude":40.8136126183527,"longitude":-73.922254731379},"review_count":4,"rating":4.5,"zip_code":"10454"},{"id":"w07rM6RwGm13ki5ktbPjlw","name":"King River Chinese Restaurant","cuisine":"Chinese","address":"8018 31st Ave","coordinates":{"latitude":40.75895,"longitude":-73.88722},"review_count":8,"rating":3.5,"zip_code":"11370"},{"id":"xH-aBKtlhY9yaJQpsSJg0w","name":"Chun Bo","cuisine":"Chinese","address":"530 Montgomery St","coordinates":{"latitude":40.72251,"longitude":-74.0597},"review_count":18,"rating":2.5,"zip_code":"07302"},{"id":"JnbON6Z3M5ahO6t8IEChxQ","name":"No 1 Restaurant","cuisine":"Chinese","address":"186 Knickerbocker Ave","coordinates":{"latitude":40.703636,"longitude":-73.927337},"review_count":16,"rating":3.5,"zip_code":"11237"},{"id":"NFa2F3vQaZ0WPpcA1aI7AQ","name":"The Foliage Chinese Restaurant","cuisine":"Chinese","address":"203 60th St","coordinates":{"latitude":40.78624,"longitude":-74.01138},"review_count":1,"rating":5,"zip_code":"07093"},{"id":"8Vn_BShtn8R3o-Sex34mrQ","name":"King Garden","cuisine":"Chinese","address":"1 W 137th St","coordinates":{"latitude":40.814108,"longitude":-73.936707},"review_count":7,"rating":3,"zip_code":"10037"},{"id":"vDkAtrkji4YatAoKbqF_Yg","name":"Great Wall","cuisine":"Chinese","address":"527 Lenox Ave","coordinates":{"latitude":40.8149099511421,"longitude":-73.9397296879857},"review_count":2,"rating":2.5,"zip_code":"10037"},{"id":"fBOhaN4rabcM9aJg5qWM-w","name":"Chung Ching Restaurant","cuisine":"Chinese","address":"262 Alexander Ave","coordinates":{"latitude":40.81019,"longitude":-73.92476},"review_count":6,"rating":3.5,"zip_code":"10454"},{"id":"uamIIAKNHqBCR50IpEi-TQ","name":"China Cafe","cuisine":"Chinese","address":"252 St Anns Ave","coordinates":{"latitude":40.8069077,"longitude":-73.9172121},"review_count":3,"rating":5,"zip_code":"10454"},{"id":"_oBzmIJyf4WmrYu7Njj5Xg","name":"Merry Land Chinese Restaurant","cuisine":"Chinese","address":"325 E 149th St","coordinates":{"latitude":40.8170776367188,"longitude":-73.9204940795898},"review_count":14,"rating":2.5,"zip_code":"10451"},{"id":"xbhJYCy1-HOzHBea_RD-iw","name":"Fu Fan Chinese Restaurant","cuisine":"Chinese","address":"8505 Whitney Ave","coordinates":{"latitude":40.7414698,"longitude":-73.8801139},"review_count":11,"rating":3,"zip_code":"11373"},{"id":"KfSVmCd4uvqqMuZTlruQCQ","name":"Everyday Chinese","cuisine":"Chinese","address":"890 Wyckoff Ave","coordinates":{"latitude":40.6970319896936,"longitude":-73.9067211002111},"review_count":6,"rating":3.5,"zip_code":"11237"},{"id":"EPssbCqoPTIFzZf860lRFQ","name":"China City","cuisine":"Chinese","address":"903 Myrtle Ave","coordinates":{"latitude":40.69579,"longitude":-73.94664},"review_count":16,"rating":2.5,"zip_code":"11206"},{"id":"DMD9T2qmLopzy0JjQYtCag","name":"Sunrise Chinese Restaurant","cuisine":"Chinese","address":"50 Eldridge St","coordinates":{"latitude":40.7159409,"longitude":-73.9927712},"review_count":6,"rating":3,"zip_code":"10002"},{"id":"0dQ0z5qAqg9CmMmbEDs7rg","name":"Desi Wok","cuisine":"Chinese","address":"769 Newark Ave","coordinates":{"latitude":40.73521,"longitude":-74.06371},"review_count":15,"rating":2.5,"zip_code":"07306"},{"id":"tLk55gBN_UV59tVrvBABUg","name":"Good Chinese Cuisine","cuisine":"Chinese","address":"157 East 33rd St","coordinates":{"latitude":40.745586,"longitude":-73.979278},"review_count":2,"rating":2,"zip_code":"10016"},{"id":"vey8FuuI6BdDEy2QrzK6Zw","name":"China Lee Kitchen","cuisine":"Chinese","address":"2718 John F Kennedy Blvd","coordinates":{"latitude":40.7289333,"longitude":-74.0695149},"review_count":14,"rating":3,"zip_code":"07306"},{"id":"ZqBD5rwnfCfMxF_-qmhMrw","name":"Wei Xiao Chun","cuisine":"Chinese","address":"81 Allen St","coordinates":{"latitude":40.718,"longitude":-73.99128},"review_count":1,"rating":3,"zip_code":"10002"},{"id":"QlVBFWxQ-HY-O2AmqHiJxA","name":"New China Restaurant","cuisine":"Chinese","address":"3035 3rd Ave","coordinates":{"latitude":40.8199502681327,"longitude":-73.9133950213959},"review_count":8,"rating":4,"zip_code":"10455"},{"id":"6kJxh1RCQykTHxWor538dA","name":"Panda Delight","cuisine":"Chinese","address":"121 Smith St","coordinates":{"latitude":40.687602,"longitude":-73.989601},"review_count":21,"rating":2,"zip_code":"11201"},{"id":"Hq2FG_zs4J7BTFwUF0VYrw","name":"Linda Asian Kitchen","cuisine":"Chinese","address":"882 Dekalb Ave","coordinates":{"latitude":40.692363,"longitude":-73.940589},"review_count":15,"rating":2.5,"zip_code":"11221"},{"id":"gGHyERdaBuiKaa0IZId3Lw","name":"New Foliage Chinese Restaurant","cuisine":"Chinese","address":"7411 Broadway","coordinates":{"latitude":40.79634,"longitude":-74.00361},"review_count":7,"rating":2,"zip_code":"07047"},{"id":"JKcIhJ97qUV7xR71KNNKCQ","name":"Great World Chinese Restaurant","cuisine":"Chinese","address":"239 9th Ave","coordinates":{"latitude":40.747684,"longitude":-74.000862},"review_count":2,"rating":2,"zip_code":"10001"},{"id":"cMr6hMg3HJmHe_B2Lylxtw","name":"Sun Dou Dumpling Restaurant","cuisine":"Chinese","address":"214-216 Grand St","coordinates":{"latitude":40.719047,"longitude":-73.995971},"review_count":1,"rating":3,"zip_code":"10013"},{"id":"G6wcoOhRTdla2ymG8g7mcg","name":"88 Reach House","cuisine":"Chinese","address":"88 Division St","coordinates":{"latitude":40.71447,"longitude":-73.99375},"review_count":2,"rating":2,"zip_code":"10002"},{"id":"9dIG069qB85tBBkG0o1FLw","name":"Rui Kai Restaurant","cuisine":"Chinese","address":"137 E Broadway","coordinates":{"latitude":40.713737,"longitude":-73.991531},"review_count":1,"rating":3,"zip_code":"10002"},{"id":"2iaf46aNyLA0yKn5vmOPJg","name":"B45 China Express Inc","cuisine":"Chinese","address":"88 E Broadway","coordinates":{"latitude":40.713765,"longitude":-73.9940661},"review_count":1,"rating":3,"zip_code":"10002"},{"id":"YesdffImlKUmU3mecJ7oFA","name":"So Go","cuisine":"Chinese","address":"67 East Broadway","coordinates":{"latitude":40.71354,"longitude":-73.9948},"review_count":1,"rating":3,"zip_code":"10002"},{"id":"N-RguaHquckygcw59-hJ2A","name":"Good Good Taste Chinese Kitchen","cuisine":"Chinese","address":"13 Market St","coordinates":{"latitude":40.71339,"longitude":-73.99478},"review_count":1,"rating":3,"zip_code":"10002"},{"id":"tLg1gQ1tqYCT-5gGsOwHfA","name":"Hannah Fun Chinese Restaurant","cuisine":"Chinese","address":"6619 Bergenline Ave","coordinates":{"latitude":40.794013,"longitude":-74.012825},"review_count":4,"rating":4.5,"zip_code":"07093"},{"id":"C8uqkZ2ArRAqcD_uXkMpHw","name":"Jin Guang House","cuisine":"Chinese","address":"1086 Dekalb Ave","coordinates":{"latitude":40.6936073303223,"longitude":-73.9309158325195},"review_count":7,"rating":3.5,"zip_code":"11221"},{"id":"T8UC3NEU3UyCKLcXnWS0jw","name":"Chinese Max","cuisine":"Chinese","address":"89 South St","coordinates":{"latitude":40.706359,"longitude":-74.003814},"review_count":3,"rating":2.5,"zip_code":"10038"},{"id":"1SVf6bO7gWm6HWlupMF15Q","name":"Great Wall Chinese Restaurant","cuisine":"Chinese","address":"594 Grand Concourse","coordinates":{"latitude":40.8196182250977,"longitude":-73.926383972168},"review_count":13,"rating":2.5,"zip_code":"10451"},{"id":"zNq5Aw4c7ZQVhs3ZR2nDCw","name":"Fortune Garden","cuisine":"Chinese","address":"6949 Grand Ave","coordinates":{"latitude":40.72701,"longitude":-73.89401},"review_count":12,"rating":2.5,"zip_code":"11378"},{"id":"51aARsa3-6P-ur6mAcBDYw","name":"Andy Shish Kabob","cuisine":"Chinese","address":"8400-8594 Whitney Ave","coordinates":{"latitude":40.7412816492402,"longitude":-73.8801150134641},"review_count":3,"rating":4.5,"zip_code":"11373"},{"id":"ndyZ-kElszC2oxiGHAorCQ","name":"Sundarban Restaurant & Sweets","cuisine":"Chinese","address":"33-10 36th Ave","coordinates":{"latitude":40.7555962,"longitude":-73.9280014},"review_count":5,"rating":2.5,"zip_code":"11106"},{"id":"ksn6zSL6jv7nZmUS0eF-nA","name":"Panda House","cuisine":"Chinese","address":"1703 Bergenline Ave","coordinates":{"latitude":40.76323,"longitude":-74.03563},"review_count":4,"rating":3.5,"zip_code":"07087"},{"id":"Xcx72D-DzpQ6o_ATEkpH5A","name":"Ye Garden","cuisine":"Chinese","address":"71-02 Fresh Pond Rd","coordinates":{"latitude":40.70169,"longitude":-73.8952},"review_count":13,"rating":3,"zip_code":"11385"},{"id":"r7hXqS-KFnco8AaAs54p3A","name":"Mei Wei Kitchen","cuisine":"Chinese","address":"82-53 Broadway","coordinates":{"latitude":40.7420892455046,"longitude":-73.8812600066023},"review_count":10,"rating":3.5,"zip_code":"11373"},{"id":"Gd3a7BwPeIEjP2rqnvhEvw","name":"Jade Terrace","cuisine":"Chinese","address":"268 W 47th St","coordinates":{"latitude":40.7601222,"longitude":-73.9871659},"review_count":2,"rating":1.5,"zip_code":"10036"},{"id":"S0XBg7EEzm34HFPnUinn3Q","name":"Mei Wei","cuisine":"Chinese","address":"297 Broadway / Williamsburg","coordinates":{"latitude":40.7087591511161,"longitude":-73.9603310823441},"review_count":8,"rating":3,"zip_code":"11211"},{"id":"u7aZOA_WNEIdVAQzmOygkQ","name":"Lucky Star Restaurant","cuisine":"Chinese","address":"644 Newark Ave","coordinates":{"latitude":40.7341399,"longitude":-74.05831},"review_count":12,"rating":3,"zip_code":"07306"},{"id":"S7vbop89Qs2v5WqELlp0JA","name":"Hong Kong Kitchen","cuisine":"Chinese","address":"4300 Bergen Turnpike","coordinates":{"latitude":40.78288,"longitude":-74.03303},"review_count":9,"rating":3,"zip_code":"07047"},{"id":"LflkBDk2-VlaUQ00MZbOQQ","name":"China Restaurant","cuisine":"Chinese","address":"199 Irving Ave","coordinates":{"latitude":40.701698,"longitude":-73.918586},"review_count":5,"rating":3.5,"zip_code":"11237"},{"id":"y8ne7iE_HO1nnIU7HbdaiQ","name":"Hunan K Restaurant","cuisine":"Chinese","address":"6014 Queens Blvd","coordinates":{"latitude":40.7411607,"longitude":-73.9043876},"review_count":9,"rating":2.5,"zip_code":"11377"},{"id":"RFry7DiVghaVGwi6GgBYwA","name":"Wang Wang Chinese Restaurant","cuisine":"Chinese","address":"682 Bergen Ave","coordinates":{"latitude":40.7234939932823,"longitude":-74.0703371912241},"review_count":9,"rating":3,"zip_code":"07304"},{"id":"lFw3pv2MQ588kSfWodSIAQ","name":"A+ Express","cuisine":"Chinese","address":"794 Broadway","coordinates":{"latitude":40.6996699,"longitude":-73.9405366},"review_count":15,"rating":2.5,"zip_code":"11206"},{"id":"c7X862-pLuokbNuPB5azsQ","name":"Chen's Express Kitchen","cuisine":"Chinese","address":"223 East 14th St","coordinates":{"latitude":40.733135,"longitude":-73.986068},"review_count":5,"rating":1,"zip_code":"10003"},{"id":"SduYUnNnuA93MVg4FrIguA","name":"Happy Garden Chinese Restaurant","cuisine":"Chinese","address":"103 Graham Ave","coordinates":{"latitude":40.705268,"longitude":-73.943122},"review_count":7,"rating":2.5,"zip_code":"11206"},{"id":"VwRf5JAGAMJIfAfvp0zTNg","name":"Hing Lung Kitchen","cuisine":"Chinese","address":"7600 Tonnelle Ave","coordinates":{"latitude":40.8045999705791,"longitude":-74.0184907615185},"review_count":2,"rating":4,"zip_code":"07047"},{"id":"PVWKFfw6T-nYXNtREc0brQ","name":"Good Friend","cuisine":"Chinese","address":"1423 Myrtle Ave","coordinates":{"latitude":40.69882,"longitude":-73.91934},"review_count":10,"rating":3,"zip_code":"11237"},{"id":"SeafYQ7Y6iNC4jX31qrAxQ","name":"Jade Seneca","cuisine":"Chinese","address":"688 Seneca Ave","coordinates":{"latitude":40.7028933,"longitude":-73.9081073},"review_count":20,"rating":2.5,"zip_code":"11385"},{"id":"oJhROMcy07DFWv_mueKPSg","name":"East Star","cuisine":"Chinese","address":"80-24 Northern Blvd","coordinates":{"latitude":40.7553354,"longitude":-73.8869659},"review_count":10,"rating":2.5,"zip_code":"11372"},{"id":"B2wbiYQfLkCqRx4YpSF_8Q","name":"Gourmet Garden 8","cuisine":"Chinese","address":"108 Dekalb Ave","coordinates":{"latitude":40.689594,"longitude":-73.978333},"review_count":20,"rating":2,"zip_code":"11201"},{"id":"MSFk2WoGpMFSJhgHjpQCJA","name":"Kim Wah Chinese Restaurant","cuisine":"Chinese","address":"301 E 116th St","coordinates":{"latitude":40.7970314,"longitude":-73.9375151},"review_count":1,"rating":5,"zip_code":"10029"},{"id":"dfm69NWJMqvLbQBKlaFd7w","name":"Hung Chow Restaurant","cuisine":"Chinese","address":"2266 3rd Ave","coordinates":{"latitude":40.8027,"longitude":-73.93688},"review_count":2,"rating":4,"zip_code":"10035"},{"id":"r6ZrAEbUgacU6i5mvySBMQ","name":"New 888 Kitchen","cuisine":"Chinese","address":"6092 Flushing Ave","coordinates":{"latitude":40.72064,"longitude":-73.9043},"review_count":13,"rating":2.5,"zip_code":"11378"},{"id":"pVAmaibwWIMe7UxC50AMGQ","name":"118 Bagus Malaysia Restaurant","cuisine":"Chinese","address":"1 Doyer St","coordinates":{"latitude":40.71414,"longitude":-73.99781},"review_count":2,"rating":1.5,"zip_code":"10013"},{"id":"aOnpZazKuokzBQuJ4QofxA","name":"Empire Restaurant","cuisine":"Chinese","address":"617 Wilson Ave","coordinates":{"latitude":40.690147,"longitude":-73.90673},"review_count":21,"rating":2.5,"zip_code":"11207"},{"id":"J6ZCPE3Fu1Ikgy9qO7Cl3Q","name":"Eastern Style Chinese","cuisine":"Chinese","address":"1233 Grant Ave","coordinates":{"latitude":40.83389,"longitude":-73.91509},"review_count":6,"rating":4,"zip_code":"10456"},{"id":"CqvbXj6siqnBKaTjqNWwuw","name":"Good Taste Chinese Restaurant","cuisine":"Chinese","address":"281 E 161st St","coordinates":{"latitude":40.825765,"longitude":-73.917702},"review_count":5,"rating":3.5,"zip_code":"10451"},{"id":"TGa19wemPHqIwQCu08C0GQ","name":"East Lake Express","cuisine":"Chinese","address":"135 John St","coordinates":{"latitude":40.70713,"longitude":-74.00494},"review_count":2,"rating":1.5,"zip_code":"10038"},{"id":"ctfDC3-bK-Up3IC5wFnBVQ","name":"Double Chinese Restaurant","cuisine":"Chinese","address":"61-10 Myrtle Ave","coordinates":{"latitude":40.700626,"longitude":-73.893798},"review_count":7,"rating":4,"zip_code":"11385"},{"id":"GZyzXO-TaBdSUDJqKT1emA","name":"A San FuZhou Restaurant","cuisine":"Chinese","address":"7 Eldridge St","coordinates":{"latitude":40.7145636149403,"longitude":-73.993893008504},"review_count":1,"rating":2,"zip_code":"10002"},{"id":"vMMksKkSBPf8gsRsFW86rg","name":"Xing Wang","cuisine":"Chinese","address":"956 Broadway","coordinates":{"latitude":40.69668,"longitude":-73.93497},"review_count":7,"rating":3,"zip_code":"11206"},{"id":"6kBsvrur1XNVK9sTj7XoYQ","name":"New Home Sing","cuisine":"Chinese","address":"3355 Broadway","coordinates":{"latitude":40.8207062,"longitude":-73.9549296},"review_count":9,"rating":3,"zip_code":"10031"},{"id":"oNhAkJItms2BDYTfDeVOUg","name":"Red Star","cuisine":"Chinese","address":"2529 Adam Clayton Powell","coordinates":{"latitude":40.8224602,"longitude":-73.9381714},"review_count":12,"rating":2.5,"zip_code":"10039"},{"id":"upEljMinfeX9q5jtZPSA0A","name":"Meiya Kitchen","cuisine":"Chinese","address":"858 Gerard Ave","coordinates":{"latitude":40.82712,"longitude":-73.92503},"review_count":7,"rating":3.5,"zip_code":"10451"},{"id":"-wgk4_aG8U94UOvllJSsPA","name":"Ai Zhen Foo Chow Restaurant","cuisine":"Chinese","address":"68 E Broadway","coordinates":{"latitude":40.713863,"longitude":-73.994873},"review_count":2,"rating":3.5,"zip_code":"10002"},{"id":"fyCteRCHqQb4rzJf4piKTg","name":"Colum Chinese Restaurant","cuisine":"Chinese","address":"794 Amsterdam Ave","coordinates":{"latitude":40.795993,"longitude":-73.969322},"review_count":1,"rating":2,"zip_code":"10025"},{"id":"aOvdqfuHvzYy0yKfn20uTA","name":"Gourmet Wok","cuisine":"Chinese","address":"597 10th Ave Frnt","coordinates":{"latitude":40.7606,"longitude":-73.995},"review_count":2,"rating":1,"zip_code":"10036"},{"id":"ESkz7arp6q2PCls2XkYu1w","name":"Happy Family","cuisine":"Chinese","address":"3105 21st Ave","coordinates":{"latitude":40.7778468,"longitude":-73.9080597},"review_count":10,"rating":2,"zip_code":"11105"},{"id":"RuvBqo2gYJXySBVjlpMIfA","name":"Perfect Taste","cuisine":"Chinese","address":"1884 Park Ave","coordinates":{"latitude":40.8073952391241,"longitude":-73.9377715952421},"review_count":2,"rating":4,"zip_code":"10036"},{"id":"r8AGzqQszraYuu--FQ7nHA","name":"King House","cuisine":"Chinese","address":"1053 Saint Nicholas Ave","coordinates":{"latitude":40.83672,"longitude":-73.9403},"review_count":10,"rating":3.5,"zip_code":"10032"},{"id":"vh3CEd22PTGsU11E3C2pSw","name":"Food World Restaurant","cuisine":"Chinese","address":"19 Eldridge St","coordinates":{"latitude":40.7150497436523,"longitude":-73.9938430786133},"review_count":2,"rating":2,"zip_code":"10002"}]}
