{"businesses":[{"id":"jjJc_CrkB2HodEinB6cWww","name":"LoveMama","cuisine":"Thai","address":"174 2nd Ave","coordinates":{"latitude":40.7303859,"longitude":-73.9860613},"review_count":3209,"rating":4,"zip_code":"10003"},{"id":"-OixbLnFLCzQclxCSbUQ8w","name":"Up Thai","cuisine":"Thai","address":"1411 2nd Ave","coordinates":{"latitude":40.7698275926665,"longitude":-73.9576330868512},"review_count":1625,"rating":4.5,"zip_code":"10021"},{"id":"MhceeLrM2_3mcKw5EGLY6A","name":"Pure Thai Cookhouse","cuisine":"Thai","address":"766 9th Ave","coordinates":{"latitude":40.764291,"longitude":-73.988159},"review_count":2152,"rating":4,"zip_code":"10019"},{"id":"B3_K2kUVbYOU0VaLcj_LTw","name":"Thai Villa","cuisine":"Thai","address":"5 E 19th St","coordinates":{"latitude":40.73902,"longitude":-73.99065},"review_count":1468,"rating":4.5,"zip_code":"10003"},{"id":"NN3mOWF5e_pnR1ArqM2bHQ","name":"OBAO","cuisine":"Thai","address":"647 9th Ave","coordinates":{"latitude":40.7606166,"longitude":-73.991225},"review_count":1642,"rating":4,"zip_code":"10036"},{"id":"wGFSTTB6b4MHJJUzBnVJeg","name":"Top Thai Greenwich","cuisine":"Thai","address":"235 Sullivan St","coordinates":{"latitude":40.72977,"longitude":-73.99939},"review_count":561,"rating":4.5,"zip_code":"10012"},{"id":"dtnmxLqBnNAfdCN8fYVeLw","name":"Room Service","cuisine":"Thai","address":"690 9th Ave","coordinates":{"latitude":40.76176,"longitude":-73.989799},"review_count":1702,"rating":3.5,"zip_code":"10036"},{"id":"nxTEuWKzkK1tCF4LrhFSUQ","name":"Pig and Khao","cuisine":"Thai","address":"68 Clinton St","coordinates":{"latitude":40.719253,"longitude":-73.984748},"review_count":1211,"rating":4,"zip_code":"10002"},{"id":"rKeLuHDI3PQZsPSVCEMHtw","name":"Wondee Siam","cuisine":"Thai","address":"792 9th Ave","coordinates":{"latitude":40.76495,"longitude":-73.98747},"review_count":872,"rating":4,"zip_code":"10019"},{"id":"ZfuZ2byArGq-5j8zX8Afeg","name":"Zest Sushi","cuisine":"Thai","address":"249 Broome St","coordinates":{"latitude":40.7178344726563,"longitude":-73.9899597167969},"review_count":703,"rating":4,"zip_code":"10002"},{"id":"Hd97N_WkZ_RJ6nsekbNrKQ","name":"Thaimee Table - formerly Ngam","cuisine":"Thai","address":"99 3rd Ave","coordinates":{"latitude":40.7323372,"longitude":-73.9880668},"review_count":1179,"rating":3.5,"zip_code":"10003"},{"id":"83BXSwE0166sObnXLUE4bQ","name":"Land","cuisine":"Thai","address":"450 Amsterdam Ave","coordinates":{"latitude":40.78497,"longitude":-73.9772182},"review_count":962,"rating":4,"zip_code":"10024"},{"id":"m6bu1AGIIIM9GNn9_cjsmg","name":"Uncle Boons","cuisine":"Thai","address":"7 Spring St","coordinates":{"latitude":40.7211328622237,"longitude":-73.9943286309159},"review_count":647,"rating":4,"zip_code":"10012"},{"id":"KHdYPT0jUnUGdHGaY73mxg","name":"Sukhumvit 51","cuisine":"Thai","address":"224 E 51st St","coordinates":{"latitude":40.7559139831703,"longitude":-73.9693867939228},"review_count":596,"rating":4,"zip_code":"10022"},{"id":"JzD9nfJWHwnG-2Wk87muHg","name":"Qi","cuisine":"Thai","address":"698 9th Ave","coordinates":{"latitude":40.762,"longitude":-73.98961},"review_count":1059,"rating":3.5,"zip_code":"10036"},{"id":"qrydcGQpeDP_1oFvx3qOeg","name":"Somtum Der","cuisine":"Thai","address":"85 Ave A","coordinates":{"latitude":40.7252151982238,"longitude":-73.9842741682317},"review_count":573,"rating":4,"zip_code":"10009"},{"id":"fePu8xy0ir_ikZcS_vVSBA","name":"Asuka Sushi","cuisine":"Thai","address":"300 W 23rd St","coordinates":{"latitude":40.74529,"longitude":-73.99888},"review_count":743,"rating":4,"zip_code":"10011"},{"id":"nFszVPUX4tj-oarjfBO0nw","name":"Klong","cuisine":"Thai","address":"7 St Marks Pl","coordinates":{"latitude":40.729507,"longitude":-73.989181},"review_count":960,"rating":3.5,"zip_code":"10003"},{"id":"p2zm0HnXZkI2yCAuYLb45g","name":"Thai Market","cuisine":"Thai","address":"960 Amsterdam Ave","coordinates":{"latitude":40.80132,"longitude":-73.96529},"review_count":840,"rating":4,"zip_code":"10025"},{"id":"43r4ynjeIZeQI1w7SWARuQ","name":"Topaz Noodle Bar","cuisine":"Thai","address":"129 W 56th St","coordinates":{"latitude":40.7644424438477,"longitude":-73.9789733886719},"review_count":367,"rating":4,"zip_code":"10019"},{"id":"cOhTtMx8dZmTJldRkVEavA","name":"Larb Ubol","cuisine":"Thai","address":"480 9th Ave","coordinates":{"latitude":40.7550583,"longitude":-73.9947586},"review_count":639,"rating":4,"zip_code":"10018"},{"id":"BKMCAYb9EAivUm3p-vrC9w","name":"Khe-Yo","cuisine":"Thai","address":"157 Duane St","coordinates":{"latitude":40.716906,"longitude":-74.008587},"review_count":574,"rating":4,"zip_code":"10013"},{"id":"-x81DhQ4eHrknZUcFg5g7w","name":"Puff Cha Ramen","cuisine":"Thai","address":"457 W 50th St","coordinates":{"latitude":40.7647,"longitude":-73.991215},"review_count":461,"rating":4,"zip_code":"10019"},{"id":"BNHvVLzl4SQ8Da9mjIPH1A","name":"Pye Boat Noodle","cuisine":"Thai","address":"1711 Second Ave","coordinates":{"latitude":40.779697,"longitude":-73.950767},"review_count":334,"rating":4,"zip_code":"10128"},{"id":"z1OgXX3L9Ipl2mu-Hf4ADw","name":"VIV","cuisine":"Thai","address":"717 9th Ave","coordinates":{"latitude":40.76283,"longitude":-73.98983},"review_count":564,"rating":4,"zip_code":"10019"},{"id":"T8WfkzuVi96qCpj1tWjlxw","name":"Spice","cuisine":"Thai","address":"39 E 13th St","coordinates":{"latitude":40.734539,"longitude":-73.9918594},"review_count":1385,"rating":3.5,"zip_code":"10003"},{"id":"0GftSP2dRwEzujkv2VKIgA","name":"Wok Wok","cuisine":"Thai","address":"11 Mott St","coordinates":{"latitude":40.71403,"longitude":-73.99899},"review_count":516,"rating":4,"zip_code":"10013"},{"id":"sinDhwX8Egru_3FCI7bhkw","name":"Laut","cuisine":"Thai","address":"15 E 17th St","coordinates":{"latitude":40.73763,"longitude":-73.99105},"review_count":981,"rating":3.5,"zip_code":"10003"},{"id":"1xMyXjj0TYwsZQrrzdIAdw","name":"The Nuaa","cuisine":"Thai","address":"1122 1st Ave","coordinates":{"latitude":40.76108,"longitude":-73.96053},"review_count":362,"rating":4,"zip_code":"10065"},{"id":"oWBDdSamOzxMJzsD_-seXg","name":"Noodies","cuisine":"Thai","address":"830 9th Ave","coordinates":{"latitude":40.7662850538302,"longitude":-73.9866788007826},"review_count":408,"rating":4,"zip_code":"10019"},{"id":"dVR5KHPMZoU9rQvxhY5Otw","name":"Thai Terminal","cuisine":"Thai","address":"349 E 12th St","coordinates":{"latitude":40.730384,"longitude":-73.98381},"review_count":530,"rating":3.5,"zip_code":"10003"},{"id":"AILf_L7I9vJ2pyHmSo9v8Q","name":"OBAO","cuisine":"Thai","address":"222 E 53rd St","coordinates":{"latitude":40.757122,"longitude":-73.968566},"review_count":667,"rating":3.5,"zip_code":"10022"},{"id":"BF6pY829iPBERt15CG1g3w","name":"At Nine Restaurant & Bar","cuisine":"Thai","address":"592 9th Ave","coordinates":{"latitude":40.758697,"longitude":-73.992064},"review_count":364,"rating":4,"zip_code":"10036"},{"id":"Wn-onuhUajQG6Iwngav74g","name":"Pam Real Thai Food","cuisine":"Thai","address":"404 W 49th St","coordinates":{"latitude":40.762978,"longitude":-73.98993},"review_count":587,"rating":3.5,"zip_code":"10019"},{"id":"DguAGioaK6ZIAt_6kk93tA","name":"Thai Select","cuisine":"Thai","address":"472 9th Ave","coordinates":{"latitude":40.754764,"longitude":-73.994903},"review_count":462,"rating":3.5,"zip_code":"10018"},{"id":"QCpJlezYJnkZYNat-XYXYw","name":"Topaz Thai Authentic","cuisine":"Thai","address":"127 W 56th St","coordinates":{"latitude":40.7644157409668,"longitude":-73.9789047241211},"review_count":696,"rating":3.5,"zip_code":"10019"},{"id":"A_GbgtUSyGWpihHZOqMdwQ","name":"Little Basil","cuisine":"Thai","address":"153 E 26th St","coordinates":{"latitude":40.741014,"longitude":-73.982259},"review_count":405,"rating":4,"zip_code":"10010"},{"id":"UkA3V8itzKuBGZ9c7y989w","name":"Jaiya","cuisine":"Thai","address":"396 3rd Ave","coordinates":{"latitude":40.742179,"longitude":-73.980915},"review_count":720,"rating":3.5,"zip_code":"10016"},{"id":"ucWrNKS65jUVK6ICUoHC8Q","name":"Bangkok Cuisine Upper East Side","cuisine":"Thai","address":"1586 2nd Ave","coordinates":{"latitude":40.77537,"longitude":-73.95335},"review_count":224,"rating":4,"zip_code":"10028"},{"id":"WJS06XxRdc6DD1s4LWE9HA","name":"Fish Cheeks","cuisine":"Thai","address":"55 Bond St","coordinates":{"latitude":40.7258,"longitude":-73.9927},"review_count":197,"rating":4,"zip_code":"10012"},{"id":"HnTcWZbZJzNAYO8YseQlSQ","name":"PuTawn Local Thai Kitchen","cuisine":"Thai","address":"1st Avenue ( 82 & 83 St)","coordinates":{"latitude":40.7745139735932,"longitude":-73.9509684012945},"review_count":140,"rating":4.5,"zip_code":"10028"},{"id":"I4FWrwXDC91lsfQLXYSeXA","name":"Malii","cuisine":"Thai","address":"2028 2nd Ave","coordinates":{"latitude":40.789432,"longitude":-73.942962},"review_count":161,"rating":4.5,"zip_code":"10029"},{"id":"rtSIYbcYqskDtFQJlq4ZnQ","name":"VIV Regional Thai Cuisine","cuisine":"Thai","address":"138 E 34th St","coordinates":{"latitude":40.74601,"longitude":-73.9795},"review_count":350,"rating":3.5,"zip_code":"10016"},{"id":"vyfqTbABAB9WolRAT9OdYA","name":"Tum & Yum","cuisine":"Thai","address":"917 Columbus Ave","coordinates":{"latitude":40.7984,"longitude":-73.96326},"review_count":308,"rating":4,"zip_code":"10025"},{"id":"er4E7VCjDo0xE_IPu5o6Ig","name":"Pongsri Thai Restaurant","cuisine":"Thai","address":"244 W 48th St","coordinates":{"latitude":40.76071,"longitude":-73.98652},"review_count":435,"rating":3.5,"zip_code":"10036"},{"id":"gLkrR9ZDPKfUGv-fYsEr3g","name":"Lui's Thai Food","cuisine":"Thai","address":"128 E 4th St","coordinates":{"latitude":40.7252464294434,"longitude":-73.9875869750977},"review_count":205,"rating":4,"zip_code":"10003"},{"id":"8R9b20VeZvs85WxqtF9mRQ","name":"East Village Thai","cuisine":"Thai","address":"32 E 7th St","coordinates":{"latitude":40.7282104492188,"longitude":-73.9892120361328},"review_count":183,"rating":4,"zip_code":"10003"},{"id":"yQiII2hHgV5aEMtIA2VG0Q","name":"Chai Thai Kitchen","cuisine":"Thai","address":"930 8th Ave","coordinates":{"latitude":40.76541,"longitude":-73.98352},"review_count":469,"rating":3.5,"zip_code":"10019"},{"id":"O1fUmxt3kbV-rnyjBtzAfw","name":"THEP","cuisine":"Thai","address":"1439 2nd Ave","coordinates":{"latitude":40.77078,"longitude":-73.95727},"review_count":151,"rating":4.5,"zip_code":"10021"},{"id":"wMU7gPgp2M9JjJhkivZkgQ","name":"Esanation","cuisine":"Thai","address":"750 9th Ave","coordinates":{"latitude":40.7637,"longitude":-73.98839},"review_count":240,"rating":4,"zip_code":"10019"},{"id":"f7jZvRH-h76F4emzvKytaQ","name":"Tuk Tuk","cuisine":"Thai","address":"4906 Vernon Blvd","coordinates":{"latitude":40.74322,"longitude":-73.95423},"review_count":572,"rating":4,"zip_code":"11101"},{"id":"QVWmn5jmy_TPmg0G71Dk5g","name":"Sea","cuisine":"Thai","address":"114 N 6th St","coordinates":{"latitude":40.71807,"longitude":-73.960044},"review_count":2552,"rating":3.5,"zip_code":"11211"},{"id":"eGIY_25KFspf8KefDQMj-Q","name":"Lan Larb","cuisine":"Thai","address":"637 2nd Ave","coordinates":{"latitude":40.745373,"longitude":-73.975807},"review_count":205,"rating":4,"zip_code":"10016"},{"id":"0L03onqNwxWLrbb_FCK79A","name":"SriPraPhai Thai Restaurant","cuisine":"Thai","address":"64-13 39th Ave","coordinates":{"latitude":40.7464987,"longitude":-73.8992328},"review_count":2115,"rating":4,"zip_code":"11377"},{"id":"M2xu0_w-UrHK3-tGjW3TWw","name":"Thailand Cafe","cuisine":"Thai","address":"95 2nd Ave","coordinates":{"latitude":40.72726,"longitude":-73.989059},"review_count":291,"rating":3.5,"zip_code":"10003"},{"id":"fcCF0Kh_RCbv6KSVlb-Seg","name":"Sticky Rice","cuisine":"Thai","address":"85 Orchard St","coordinates":{"latitude":40.71798,"longitude":-73.99042},"review_count":321,"rating":3.5,"zip_code":"10002"},{"id":"a-Bq_yXFVk2PptoWpmry3w","name":"Pye Boat Noodle","cuisine":"Thai","address":"35-13 Broadway","coordinates":{"latitude":40.76043,"longitude":-73.92152},"review_count":580,"rating":4.5,"zip_code":"11106"},{"id":"OrhRTDA0dj81XVhOibXsUQ","name":"Rin Thai","cuisine":"Thai","address":"265 W 23rd St","coordinates":{"latitude":40.74524,"longitude":-73.99764},"review_count":304,"rating":3.5,"zip_code":"10011"},{"id":"41gVUqFxmbjqSQYjGV23Rw","name":"Kiin Thai Eatery","cuisine":"Thai","address":"36 E 8th St","coordinates":{"latitude":40.7312881636412,"longitude":-73.9943569108961},"review_count":236,"rating":3.5,"zip_code":"10003"},{"id":"Wf0CVXZQfyXgt_PXlzqMXA","name":"Thai Sliders & Co.","cuisine":"Thai","address":"108 John St","coordinates":{"latitude":40.70785,"longitude":-74.00609},"review_count":257,"rating":4,"zip_code":"10038"},{"id":"414qtc1lNAI-HaJ-Gw9puA","name":"Galanga","cuisine":"Thai","address":"149 W 4th St","coordinates":{"latitude":40.7316,"longitude":-74.00049},"review_count":427,"rating":3.5,"zip_code":"10012"},{"id":"s0yEzCRIjMtXuphJ7cL4wA","name":"Lantern Thai","cuisine":"Thai","address":"311 2nd Ave","coordinates":{"latitude":40.7350845336914,"longitude":-73.9833526611328},"review_count":350,"rating":3.5,"zip_code":"10003"},{"id":"ZUsSH8xPciM8EnQxqlKXCg","name":"Thai Jasmine Resturant","cuisine":"Thai","address":"106 Bayard St","coordinates":{"latitude":40.7162099,"longitude":-73.9999},"review_count":332,"rating":3.5,"zip_code":"10013"},{"id":"CDa0GJZDMPcjvhbx7RbG5Q","name":"Senn Thai Comfort Food","cuisine":"Thai","address":"452 Amsterdam Ave","coordinates":{"latitude":40.7849945637664,"longitude":-73.9770103128512},"review_count":213,"rating":4,"zip_code":"10024"},{"id":"McU7XI3HoWFELTDaGc1SEw","name":"Ginger and Lemongrass","cuisine":"Thai","address":"153 Rivington St","coordinates":{"latitude":40.71912,"longitude":-73.98567},"review_count":122,"rating":4,"zip_code":"10002"},{"id":"tVB11pOiDhPWlt_o6ylMNg","name":"Enthaice Thai Kitchen","cuisine":"Thai","address":"33-20 31st Ave","coordinates":{"latitude":40.7630889337809,"longitude":-73.9213237166405},"review_count":584,"rating":4,"zip_code":"11106"},{"id":"9FjGW7u1iTyFUDpJt-Ql9Q","name":"Tue Thai Restaurant","cuisine":"Thai","address":"3 Greenwich Ave","coordinates":{"latitude":40.73387,"longitude":-73.9997999},"review_count":286,"rating":3.5,"zip_code":"10014"},{"id":"c7z96m0UdMkJRhlz0Ht5XQ","name":"Siri Thai","cuisine":"Thai","address":"641 10th Ave","coordinates":{"latitude":40.7618590612994,"longitude":-73.9940920472145},"review_count":172,"rating":4,"zip_code":"10036"},{"id":"1Fe4lCiMPNVhoEyjg92frA","name":"Kati Thai Cuisine","cuisine":"Thai","address":"347 E 14th St","coordinates":{"latitude":40.7318077087402,"longitude":-73.98291015625},"review_count":218,"rating":4,"zip_code":"10003"},{"id":"sljnE3uoRUmM7aW5f1I3Ug","name":"One More Thai","cuisine":"Thai","address":"6 Clinton St","coordinates":{"latitude":40.72103,"longitude":-73.98381},"review_count":197,"rating":3.5,"zip_code":"10002"},{"id":"R7mKCkD9ZZfeec92GW7esQ","name":"Bangkok 2 Thai","cuisine":"Thai","address":"349 1st Ave","coordinates":{"latitude":40.7352413982153,"longitude":-73.9798079431057},"review_count":167,"rating":4,"zip_code":"10010"},{"id":"5-cv4xv4IBao7N1LSH6tHA","name":"Der Krung Thai Cuisine","cuisine":"Thai","address":"860 9th Ave","coordinates":{"latitude":40.7670715,"longitude":-73.986164},"review_count":169,"rating":4,"zip_code":"10019"},{"id":"_Ge2eC89Z-jlaDDWglfT8g","name":"Pa Pa Thai Cuisine","cuisine":"Thai","address":"1069 1st Ave","coordinates":{"latitude":40.7593778206059,"longitude":-73.9624154842934},"review_count":92,"rating":4.5,"zip_code":"10022"},{"id":"w5RnZpul9wYcPCBDneCuYA","name":"Potjanee Thai Restaurant","cuisine":"Thai","address":"48 Carmine St","coordinates":{"latitude":40.73005,"longitude":-74.003417},"review_count":279,"rating":3.5,"zip_code":"10014"},{"id":"Kyx9QFPJUzlC7dmM8SE1bw","name":"Jaiya","cuisine":"Thai","address":"1553 2nd Ave","coordinates":{"latitude":40.774553,"longitude":-73.954563},"review_count":269,"rating":3.5,"zip_code":"10075"},{"id":"cSzt3JMXamfaUBWkEEklOw","name":"Thai Peppercorn","cuisine":"Thai","address":"1750 1st Ave","coordinates":{"latitude":40.7797089,"longitude":-73.946907},"review_count":174,"rating":3.5,"zip_code":"10128"},{"id":"hh0W5CPtx2MoyQGb1kAEEA","name":"Chop Shop II","cuisine":"Thai","address":"41 W 24th St","coordinates":{"latitude":40.7433280944824,"longitude":-73.9911651611328},"review_count":172,"rating":4,"zip_code":"10010"},{"id":"7hyQqnnAisSL-nfIWCPziQ","name":"Chop Shop","cuisine":"Thai","address":"254 10th Ave","coordinates":{"latitude":40.7486687,"longitude":-74.0031128},"review_count":206,"rating":3.5,"zip_code":"10001"},{"id":"6ZZUTGtH25tLN1SiM029ig","name":"Yum Yum Too","cuisine":"Thai","address":"662 9th Ave","coordinates":{"latitude":40.76098,"longitude":-73.99047},"review_count":359,"rating":3.5,"zip_code":"10036"},{"id":"3CBUpk6HLSlNEfCRICIbPA","name":"Songkran","cuisine":"Thai","address":"330 8th Ave","coordinates":{"latitude":40.7474966,"longitude":-73.9967069},"review_count":215,"rating":3.5,"zip_code":"10001"},{"id":"23NSOmpzzrJTfWmYk8Lp4A","name":"Lovely Day","cuisine":"Thai","address":"196 Elizabeth St","coordinates":{"latitude":40.7218,"longitude":-73.99441},"review_count":298,"rating":3.5,"zip_code":"10012"},{"id":"I_YPy_YRtZFyWOSWs-gv4A","name":"Luckyim Thai","cuisine":"Thai","address":"10 Hanover Sq","coordinates":{"latitude":40.7045699,"longitude":-74.00886},"review_count":134,"rating":4,"zip_code":"10005"},{"id":"kpR9je2H9MjKz6zpesyV6g","name":"Thailicious","cuisine":"Thai","address":"75 Baxter St","coordinates":{"latitude":40.7162609,"longitude":-73.9999063},"review_count":178,"rating":4,"zip_code":"10013"},{"id":"rCtsqHtOAOjZ7EUQDFRSbA","name":"Pinto Garden","cuisine":"Thai","address":"117 W 10th St","coordinates":{"latitude":40.734882,"longitude":-73.9994844},"review_count":100,"rating":4,"zip_code":"10011"},{"id":"qnD3XDvYIrFh_FppNH90cA","name":"Thais New York","cuisine":"Thai","address":"1750 2nd Ave","coordinates":{"latitude":40.7812989957846,"longitude":-73.9494738355279},"review_count":105,"rating":4,"zip_code":"10128"},{"id":"33ry5dmopDOElU7zf1Sn2w","name":"Lan Larb Soho","cuisine":"Thai","address":"227 Centre St","coordinates":{"latitude":40.7199936,"longitude":-73.9985428},"review_count":178,"rating":3.5,"zip_code":"10013"},{"id":"y_Ei1zBq6pDW6sMyP8ZSyg","name":"Thai-ish","cuisine":"Thai","address":"168 Lexington Ave","coordinates":{"latitude":40.74426,"longitude":-73.9815799},"review_count":158,"rating":4,"zip_code":"10016"},{"id":"f4ZveYR7fuBp_9klL8OgYQ","name":"Little Thai Kitchen","cuisine":"Thai","address":"231 E 53rd St","coordinates":{"latitude":40.75725,"longitude":-73.96808},"review_count":285,"rating":3.5,"zip_code":"10022"},{"id":"V-rY0hlPjAghV14jOlVUiQ","name":"Nikko","cuisine":"Thai","address":"1280 Amsterdam Ave","coordinates":{"latitude":40.81156,"longitude":-73.95781},"review_count":303,"rating":3.5,"zip_code":"10027"},{"id":"ZlUU_DPlJTBLyUpBL2niKw","name":"Luscious Thai","cuisine":"Thai","address":"1099 1st Ave","coordinates":{"latitude":40.76047,"longitude":-73.96157},"review_count":198,"rating":3.5,"zip_code":"10065"},{"id":"04P_pTbsyb7rJspyDh3ocA","name":"Talent Thai Kitchen","cuisine":"Thai","address":"210 E 34th St","coordinates":{"latitude":40.74525,"longitude":-73.97768},"review_count":220,"rating":3.5,"zip_code":"10016"},{"id":"UT5Vvn6l8kjLYReD-sU1DQ","name":"ChaamLex","cuisine":"Thai","address":"34 Lexington Ave","coordinates":{"latitude":40.74004,"longitude":-73.98453},"review_count":149,"rating":4,"zip_code":"10010"},{"id":"fRO4Fwe5uRAajMcTwLbVkA","name":"Ayada Thai","cuisine":"Thai","address":"7708 Woodside Ave","coordinates":{"latitude":40.7433662414551,"longitude":-73.8876037597656},"review_count":924,"rating":4,"zip_code":"11373"},{"id":"T4xmuPYBmMhF48bfi9rkfA","name":"Pro Thai","cuisine":"Thai","address":"1575 Lexington Ave","coordinates":{"latitude":40.78888,"longitude":-73.94857},"review_count":137,"rating":4,"zip_code":"10029"},{"id":"fZ6BgBNpIeFbkbPnZ_E_ew","name":"Maison Thai","cuisine":"Thai","address":"625 2nd Ave","coordinates":{"latitude":40.74509,"longitude":-73.97601},"review_count":101,"rating":4,"zip_code":"10016"},{"id":"cADZEB7qFr-8I3fVxHbM1A","name":"Andaman Thai Bistro","cuisine":"Thai","address":"1843 1st Ave","coordinates":{"latitude":40.78281,"longitude":-73.94526},"review_count":130,"rating":4,"zip_code":"10128"},{"id":"RirimwHZ3D9uTmvtywrp6Q","name":"Vien","cuisine":"Thai","address":"220 Varick St","coordinates":{"latitude":40.729019,"longitude":-74.004997},"review_count":163,"rating":4,"zip_code":"10014"},{"id":"yA29ur97O7B6kYr1g5IoAw","name":"Aroy Dee Thai Kitchen","cuisine":"Thai","address":"20 John St","coordinates":{"latitude":40.709682,"longitude":-74.008972},"review_count":307,"rating":3.5,"zip_code":"10038"},{"id":"1ctLdRJjP9m5QdL7ruYAzA","name":"Herbs Thai Bistro","cuisine":"Thai","address":"251 E 45th St","coordinates":{"latitude":40.75193,"longitude":-73.97099},"review_count":153,"rating":3.5,"zip_code":"10017"},{"id":"F7jZYUzw7NB74OyVQc-CGw","name":"Bennie's Thai Cafe","cuisine":"Thai","address":"88 Fulton St","coordinates":{"latitude":40.70912,"longitude":-74.00578},"review_count":294,"rating":3.5,"zip_code":"10038"},{"id":"jUO8GH4YfjW2wd9qyuAIzw","name":"Tai Thai","cuisine":"Thai","address":"78 E 1st St","coordinates":{"latitude":40.72324,"longitude":-73.98793},"review_count":192,"rating":3.5,"zip_code":"10009"},{"id":"7lhmzhkct9-blnuBAp_HVQ","name":"Five Stars Thai Cuisine","cuisine":"Thai","address":"324 29th St","coordinates":{"latitude":40.7702123810457,"longitude":-74.0288150168948},"review_count":327,"rating":4,"zip_code":"07087"},{"id":"56BXqZZ09-p1Lfw3ZDjV4A","name":"Opai Thai","cuisine":"Thai","address":"722 Amsterdam Ave","coordinates":{"latitude":40.793666,"longitude":-73.971031},"review_count":289,"rating":3,"zip_code":"10025"},{"id":"B9UfgHgm5-hOErK8-54EsA","name":"Very Thai","cuisine":"Thai","address":"186 Avenue B","coordinates":{"latitude":40.72784,"longitude":-73.97933},"review_count":65,"rating":4.5,"zip_code":"10009"},{"id":"xENj0fSnpDVrDHmj-G2QqQ","name":"Rhong Tiam","cuisine":"Thai","address":"31 E 21st St","coordinates":{"latitude":40.73964,"longitude":-73.98847},"review_count":194,"rating":3.5,"zip_code":"10010"},{"id":"_7Maf5WG682E7R-EHSz18w","name":"Bangklyn East Harlem","cuisine":"Thai","address":"2051 2nd Ave","coordinates":{"latitude":40.7903,"longitude":-73.94307},"review_count":43,"rating":4.5,"zip_code":"10029"},{"id":"n61FbfvTddHBXF5WKWjF4g","name":"Pad Thai Noodle Lounge","cuisine":"Thai","address":"114 8th Ave","coordinates":{"latitude":40.7408371121571,"longitude":-74.0014776911789},"review_count":259,"rating":3,"zip_code":"10011"},{"id":"klNCF8YE03ScMJqbvgT5Gw","name":"Nana Sushi","cuisine":"Thai","address":"511 3rd Ave","coordinates":{"latitude":40.745989,"longitude":-73.977688},"review_count":184,"rating":3.5,"zip_code":"10016"},{"id":"wk6-dz_k9CqlXaJ0m8AE6w","name":"Royal Siam Thai Cuisine","cuisine":"Thai","address":"240 8th Ave","coordinates":{"latitude":40.74471,"longitude":-73.99857},"review_count":178,"rating":3.5,"zip_code":"10011"},{"id":"oyxk3hv9F7dGZGARmNDSYg","name":"Zoob Zib","cuisine":"Thai","address":"460 9th Ave","coordinates":{"latitude":40.75438,"longitude":-73.99536},"review_count":189,"rating":3.5,"zip_code":"10018"},{"id":"L2ZW-MdvRJ3gM2RIq8STbA","name":"Thai72","cuisine":"Thai","address":"128 W 72nd St","coordinates":{"latitude":40.77763,"longitude":-73.98003},"review_count":97,"rating":4,"zip_code":"10023"},{"id":"n7LORZ0fGxPhOfdlHYREKQ","name":"Peak Thai Restaurant","cuisine":"Thai","address":"301 E 49th St","coordinates":{"latitude":40.7542526,"longitude":-73.9685278},"review_count":155,"rating":3.5,"zip_code":"10017"},{"id":"DU4nwyIPdlrqW5iJmlJGmw","name":"Wild Ginger","cuisine":"Thai","address":"226 E 51st St","coordinates":{"latitude":40.75581,"longitude":-73.96931},"review_count":167,"rating":3.5,"zip_code":"10022"},{"id":"3GMHPnrkFAcqffw3T7JSdQ","name":"Kitchen 79","cuisine":"Thai","address":"37-70 79th St","coordinates":{"latitude":40.747551,"longitude":-73.8868866},"review_count":447,"rating":4.5,"zip_code":"11372"},{"id":"LzyDj8z2CA03Jrs34L9Pgw","name":"Spice","cuisine":"Thai","address":"435 Amsterdam Ave","coordinates":{"latitude":40.7842315634917,"longitude":-73.9774589378552},"review_count":258,"rating":3,"zip_code":"10024"},{"id":"jc_XQPbSCwMHsXLfinXA6A","name":"Pr&ince","cuisine":"Thai","address":"80 Wayne St","coordinates":{"latitude":40.719694415555,"longitude":-74.0458929317689},"review_count":260,"rating":4.5,"zip_code":"07302"},{"id":"bpeeh-kkay0ZE7mGXsCVKQ","name":"Ahana","cuisine":"Thai","address":"1154 1st Ave","coordinates":{"latitude":40.7622458,"longitude":-73.9598571},"review_count":113,"rating":4,"zip_code":"10065"},{"id":"bRCNOrmz5S7q064UmIiZqw","name":"Wok To Walk","cuisine":"Thai","address":"684 3rd Ave","coordinates":{"latitude":40.7516428,"longitude":-73.9740775},"review_count":186,"rating":3,"zip_code":"10017"},{"id":"CpY77cDN1KS5EdiXMmWovw","name":"House of Thai","cuisine":"Thai","address":"2501 40th Ave","coordinates":{"latitude":40.7535257695712,"longitude":-73.9377629319284},"review_count":212,"rating":4,"zip_code":"11101"},{"id":"IdZ5DnGnAEXcmz2jZXGFiQ","name":"Hiroshi Japanese Fusion","cuisine":"Thai","address":"585 3rd Ave","coordinates":{"latitude":40.748355,"longitude":-73.975852},"review_count":170,"rating":3,"zip_code":"10016"},{"id":"9VyMJICKGbC7Y5Ssq-Xk7w","name":"The Sabieng Thai","cuisine":"Thai","address":"71 1st Ave","coordinates":{"latitude":40.72554,"longitude":-73.98722},"review_count":61,"rating":4.5,"zip_code":"10003"},{"id":"oO_X1H5Lxo8sNykx6azLVQ","name":"Thai Soup","cuisine":"Thai","address":"166 E 118th St","coordinates":{"latitude":40.799678867234,"longitude":-73.9397361020726},"review_count":126,"rating":3.5,"zip_code":"10035"},{"id":"e1jwvzY8hU642HSBZZATcw","name":"Hub Thai","cuisine":"Thai","address":"105 Avenue A","coordinates":{"latitude":40.72587,"longitude":-73.98385},"review_count":47,"rating":4.5,"zip_code":"10009"},{"id":"GQRNgvRLY6OhPs8BYTTYUw","name":"A+ Thai Place","cuisine":"Thai","address":"1007 2nd Ave","coordinates":{"latitude":40.757059,"longitude":-73.967248},"review_count":158,"rating":3.5,"zip_code":"10022"},{"id":"pqkmU5TtRAss1n0v9nJ2SA","name":"Asiam Thai Cuisine","cuisine":"Thai","address":"259 1st Ave","coordinates":{"latitude":40.7322388,"longitude":-73.9822769},"review_count":184,"rating":3.5,"zip_code":"10003"},{"id":"pSSajdYNKTyAGV8-fk7fWQ","name":"Joya","cuisine":"Thai","address":"215 Ct St","coordinates":{"latitude":40.68666,"longitude":-73.9935},"review_count":1183,"rating":3.5,"zip_code":"11201"},{"id":"s-UAKra4P0sFE9ylXlwwfA","name":"Le Viet Cafe","cuisine":"Thai","address":"1750 2nd Ave","coordinates":{"latitude":40.78111,"longitude":-73.94902},"review_count":96,"rating":3.5,"zip_code":"10128"},{"id":"QYr9EO-2FmdpOVUjOyNjgg","name":"Raenu Continental Thai Restaurant","cuisine":"Thai","address":"844 Amsterdam Ave","coordinates":{"latitude":40.7974550862067,"longitude":-73.9679066464305},"review_count":61,"rating":4,"zip_code":"10025"},{"id":"OPSCHpuBSthP7UwnMm0GSA","name":"Spice","cuisine":"Thai","address":"975 Amsterdam Ave","coordinates":{"latitude":40.8016123540962,"longitude":-73.964790176728},"review_count":107,"rating":3.5,"zip_code":"10025"},{"id":"34vaEo6IX8c4jr7WkY8ddw","name":"Leng Thai","cuisine":"Thai","address":"3309 Broadway","coordinates":{"latitude":40.76124,"longitude":-73.92323},"review_count":408,"rating":3.5,"zip_code":"11106"},{"id":"seYTDWuManVKwNtX9KXTUw","name":"Thaimee Box","cuisine":"Thai","address":"244 E 13th","coordinates":{"latitude":40.7317289,"longitude":-73.9861436},"review_count":29,"rating":4.5,"zip_code":"10003"},{"id":"coQAQmIKG9dBPA6-RHqJag","name":"CHARM'S","cuisine":"Thai","address":"200 8th Ave","coordinates":{"latitude":40.74346,"longitude":-73.99947},"review_count":40,"rating":4.5,"zip_code":"10011"},{"id":"9WgsvzaiXNAmmQGD0uQxFQ","name":"Thai Holic","cuisine":"Thai","address":"372 Myrtle Ave","coordinates":{"latitude":40.69299,"longitude":-73.9712799},"review_count":301,"rating":4.5,"zip_code":"11205"},{"id":"lDNiL1R3c0WMUI9jocJOzA","name":"Arbor Bistro","cuisine":"Thai","address":"226 W Houston St","coordinates":{"latitude":40.7287,"longitude":-74.00485},"review_count":119,"rating":3.5,"zip_code":"10014"},{"id":"-wnwpVjmtkHzvn7jPcLM-g","name":"One Thai Chef","cuisine":"Thai","address":"339 W 44th St","coordinates":{"latitude":40.75948,"longitude":-73.990471},"review_count":163,"rating":3,"zip_code":"10036"},{"id":"Bh0Rxd4Yi21luny0S95GaQ","name":"Ceetay","cuisine":"Thai","address":"129 Alexander Ave","coordinates":{"latitude":40.807149,"longitude":-73.927612},"review_count":257,"rating":4,"zip_code":"10454"},{"id":"m2_ZNFos5ugAwe8ft8eaEw","name":"Eim Khao Mun Kai Elmhurst","cuisine":"Thai","address":"81-32 Broadway","coordinates":{"latitude":40.7429414097644,"longitude":-73.8832733356575},"review_count":290,"rating":4.5,"zip_code":"11373"},{"id":"Bi5UAv1JFeBbbU5p3RljlA","name":"Wok Wok Express","cuisine":"Thai","address":"133 E 31st St","coordinates":{"latitude":40.74466,"longitude":-73.98123},"review_count":47,"rating":4,"zip_code":"10016"},{"id":"3Qpi419I29t3sCHMzC_h-g","name":"Harvest Chinese & Thai Cuisine","cuisine":"Thai","address":"1502 1st Ave","coordinates":{"latitude":40.771812,"longitude":-73.952659},"review_count":71,"rating":3.5,"zip_code":"10075"},{"id":"RnQjRZ9MJrBN9SKiIv3i-A","name":"Amarin Cafe","cuisine":"Thai","address":"617 Manhattan Ave","coordinates":{"latitude":40.72348,"longitude":-73.95076},"review_count":229,"rating":4,"zip_code":"11222"},{"id":"mpD_kUFo8POQDLoLgRSfCg","name":"Sage","cuisine":"Thai","address":"299-301 Graham Ave","coordinates":{"latitude":40.712852,"longitude":-73.944412},"review_count":453,"rating":3.5,"zip_code":"11211"},{"id":"Tmc90kL5jelJ2c9CiGzSFA","name":"Hi-So Thai","cuisine":"Thai","address":"1903 Willow Ave","coordinates":{"latitude":40.7601658254862,"longitude":-74.027631059289},"review_count":191,"rating":4,"zip_code":"07086"},{"id":"lt3Leywt1pzy23OzDqYRVA","name":"XO Taste","cuisine":"Thai","address":"41 Elizabeth St","coordinates":{"latitude":40.717025,"longitude":-73.996971},"review_count":157,"rating":3,"zip_code":"10013"},{"id":"BFe80peJUjkBYMliFoPu9Q","name":"Kare Thai","cuisine":"Thai","address":"752 10th Ave","coordinates":{"latitude":40.7655031253324,"longitude":-73.9911570940646},"review_count":103,"rating":3.5,"zip_code":"10019"},{"id":"u4nEt-zMNnDNoZib_XuSlw","name":"OBAO","cuisine":"Thai","address":"38 Water St","coordinates":{"latitude":40.70332,"longitude":-74.01065},"review_count":174,"rating":3,"zip_code":"10004"},{"id":"jg5nc64wLYKwKAvz_lfMuA","name":"Thai @ Lex","cuisine":"Thai","address":"1244 Lexington Ave","coordinates":{"latitude":40.7780380273848,"longitude":-73.9568219586772},"review_count":127,"rating":3.5,"zip_code":"10028"},{"id":"_ArDQIKj5qHgmwNnnIaIIg","name":"I Am Thai Restaurant","cuisine":"Thai","address":"49-08 43rd Ave","coordinates":{"latitude":40.7445421133747,"longitude":-73.9154577255249},"review_count":240,"rating":4,"zip_code":"11377"},{"id":"l3aVYfTWVINXaNGxlMz0bQ","name":"Soho Thai","cuisine":"Thai","address":"141 Grand St","coordinates":{"latitude":40.720078,"longitude":-73.999641},"review_count":103,"rating":3.5,"zip_code":"10013"},{"id":"EAkIy8TKrW4yPPDCZyP-Cw","name":"Luckyim Thai truck","cuisine":"Thai","address":"46th St & 6th Ave","coordinates":{"latitude":40.7573891,"longitude":-73.9822617},"review_count":39,"rating":4,"zip_code":"10017"},{"id":"Z7gHAR1j_hjdxoWO7kYgeQ","name":"Okinawa Sushi & Grill","cuisine":"Thai","address":"400 Newark St","coordinates":{"latitude":40.737606,"longitude":-74.037209},"review_count":242,"rating":4,"zip_code":"07030"},{"id":"-OECwYAVlcl3Cs7LrRmIRw","name":"Arharn Thai Restaurant","cuisine":"Thai","address":"3205 36th Ave","coordinates":{"latitude":40.75629,"longitude":-73.928547},"review_count":158,"rating":4,"zip_code":"11106"},{"id":"liGIz8CzhyS1udx1aefjng","name":"Williamsburg Thai Cuisine","cuisine":"Thai","address":"212 Bedford Ave","coordinates":{"latitude":40.71699,"longitude":-73.9588799},"review_count":135,"rating":4,"zip_code":"11249"},{"id":"IiYRxMJLfLCsgifzRNvrtA","name":"Thai Sliders & Co","cuisine":"Thai","address":"150 8th Ave","coordinates":{"latitude":40.7419442,"longitude":-74.0007071},"review_count":53,"rating":4,"zip_code":"10011"},{"id":"a5H9p1B6m6WPVjakPylvdA","name":"Spicy Shallot","cuisine":"Thai","address":"77-01 Woodside Ave","coordinates":{"latitude":40.7437053273707,"longitude":-73.8878916857991},"review_count":491,"rating":3.5,"zip_code":"11373"},{"id":"4nwVzRCfWFGe6_Taqee4Cg","name":"MRS. AN Thai","cuisine":"Thai","address":"173 E 99th St","coordinates":{"latitude":40.7874046,"longitude":-73.9482732},"review_count":43,"rating":4,"zip_code":"10029"},{"id":"6wJOojpF2c4lLeBNbTBB0A","name":"Baoburg","cuisine":"Thai","address":"614 Manhattan Ave","coordinates":{"latitude":40.7234929271998,"longitude":-73.9503321851175},"review_count":142,"rating":4,"zip_code":"11222"},{"id":"W03i9B7wZn2B5p9E_Yn5nw","name":"T Thai","cuisine":"Thai","address":"102 Hudson St","coordinates":{"latitude":40.737459,"longitude":-74.029991},"review_count":215,"rating":3.5,"zip_code":"07030"},{"id":"YQyzlr3GLDjl6fokymAhqA","name":"Pad Thai","cuisine":"Thai","address":"409 8th Ave","coordinates":{"latitude":40.75008,"longitude":-73.99542},"review_count":152,"rating":3,"zip_code":"10001"},{"id":"dnCRiUZWgu5ZI4Q-Z-az6Q","name":"Thai Diva Cuisine","cuisine":"Thai","address":"45-53 46th St","coordinates":{"latitude":40.7414512,"longitude":-73.9190131},"review_count":96,"rating":4.5,"zip_code":"11377"},{"id":"lI91u68v2xTdE70lyioKAg","name":"Lotus Thai Cuisine","cuisine":"Thai","address":"7007 Park Ave","coordinates":{"latitude":40.7929206,"longitude":-74.0031012},"review_count":216,"rating":3.5,"zip_code":"07093"},{"id":"nHJkY0_wT0k_-MMi1eHwdg","name":"Thailand Restaurant","cuisine":"Thai","address":"856 10th Ave","coordinates":{"latitude":40.768531,"longitude":-73.988662},"review_count":89,"rating":3,"zip_code":"10019"},{"id":"HLDKZXsi7TQ0P3rS2wd-UQ","name":"SEAK","cuisine":"Thai","address":"725 River Rd","coordinates":{"latitude":40.81881,"longitude":-73.97747},"review_count":163,"rating":4,"zip_code":"07020"},{"id":"sSkLiIMnOBaN-XKwV5r3Cg","name":"Spice","cuisine":"Thai","address":"4745 Vernon Blvd","coordinates":{"latitude":40.7444954,"longitude":-73.9533234},"review_count":210,"rating":3,"zip_code":"11101"},{"id":"VEN17aiuU6izPtC2rfJAGw","name":"Spice","cuisine":"Thai","address":"1479 1st Ave","coordinates":{"latitude":40.7712430088955,"longitude":-73.9536680562057},"review_count":171,"rating":2.5,"zip_code":"10075"},{"id":"7CdpBlw4NLaOLzfFL9IEUg","name":"Uncle Boons Sister","cuisine":"Thai","address":"203 Mott St","coordinates":{"latitude":40.72147,"longitude":-73.99565},"review_count":56,"rating":3.5,"zip_code":"10012"},{"id":"GADtLd_5HHDrB1Ys8syETw","name":"Chai Thai Kitchen - Williamsburg","cuisine":"Thai","address":"124 N 6th St","coordinates":{"latitude":40.718143,"longitude":-73.959646},"review_count":298,"rating":3.5,"zip_code":"11249"},{"id":"9IT7UsL-SGEz6ncR4oeJ9g","name":"Rhong Tiam","cuisine":"Thai","address":"331 Lexington Ave","coordinates":{"latitude":40.74939,"longitude":-73.97738},"review_count":61,"rating":3.5,"zip_code":"10016"},{"id":"kXuubLd6s3GidpqU3psPdw","name":"Chao Thai Restaurant","cuisine":"Thai","address":"8503 Whitney Ave","coordinates":{"latitude":40.7414656,"longitude":-73.8801273},"review_count":332,"rating":4,"zip_code":"11373"},{"id":"x8tq82G1Op-0cUNzUMNd1A","name":"Auttharos BBQ","cuisine":"Thai","address":"7128 Roosevelt Ave","coordinates":{"latitude":40.746382,"longitude":-73.893844},"review_count":272,"rating":3.5,"zip_code":"11372"},{"id":"fkwvdS0DTCVyeY3mXwae_Q","name":"Khao Man Gai NY","cuisine":"Thai","address":"31-00 47th Ave","coordinates":{"latitude":40.7428557,"longitude":-73.9350567},"review_count":55,"rating":4.5,"zip_code":"11101"},{"id":"W1L0UB1MvlhvkKTF43emSA","name":"Jaew Hon New York","cuisine":"Thai","address":"71-30 Roosevelt Ave","coordinates":{"latitude":40.7464487,"longitude":-73.8938216},"review_count":91,"rating":4.5,"zip_code":"11372"},{"id":"cWodGgBljJUVp9QQiPt3yQ","name":"Gaw Gai","cuisine":"Thai","address":"23-06 Jackson Ave","coordinates":{"latitude":40.745704,"longitude":-73.94532},"review_count":155,"rating":3.5,"zip_code":"11101"},{"id":"f2MA23sMC3WpJA2LgBlGuQ","name":"Khao Sarn","cuisine":"Thai","address":"338 Bedford Ave","coordinates":{"latitude":40.7129,"longitude":-73.96261},"review_count":239,"rating":3.5,"zip_code":"11249"},{"id":"hA5QUlrSjpxMZ90Kof0bgA","name":"Khao Kang","cuisine":"Thai","address":"7620 Woodside Ave","coordinates":{"latitude":40.743269,"longitude":-73.888039},"review_count":178,"rating":4,"zip_code":"11373"},{"id":"SBy46BviyBKowPjbTjDsHQ","name":"Lantern","cuisine":"Thai","address":"101 Montague St","coordinates":{"latitude":40.69533,"longitude":-73.99544},"review_count":398,"rating":3.5,"zip_code":"11201"},{"id":"h22AQ68hX2o_YJH5bsACZw","name":"Thai Food On Wheels","cuisine":"Thai","address":"E 48 Street & Park Ave","coordinates":{"latitude":40.7560446,"longitude":-73.9751805},"review_count":31,"rating":4,"zip_code":"10017"},{"id":"-Bv49ZZ1YB1l78AelnlTDg","name":"Zaabver","cuisine":"Thai","address":"75 2nd Ave","coordinates":{"latitude":40.7265892028809,"longitude":-73.9895324707031},"review_count":55,"rating":3.5,"zip_code":"10003"},{"id":"KISxxrvjxx5qrayhcASl5w","name":"Noodlefan","cuisine":"Thai","address":"514 Central Ave","coordinates":{"latitude":40.7520188580028,"longitude":-74.0450168028474},"review_count":155,"rating":4,"zip_code":"07307"},{"id":"2ZBEE_MJeRdLD1NLiNTnCQ","name":"Thailand's Center Point","cuisine":"Thai","address":"63-19 39th Ave","coordinates":{"latitude":40.7466526847065,"longitude":-73.9001171663404},"review_count":158,"rating":4,"zip_code":"11377"},{"id":"fgGRIM0b9JGIoNOAnHzROQ","name":"Yuqi's Cuisine","cuisine":"Thai","address":"813 9th Ave","coordinates":{"latitude":40.7659,"longitude":-73.98741},"review_count":23,"rating":4.5,"zip_code":"10019"},{"id":"Xst2vGND8hy44VOmbLG3kQ","name":"Pa De Thai Restaurant","cuisine":"Thai","address":"264 Old River Rd","coordinates":{"latitude":40.80957,"longitude":-73.990735},"review_count":219,"rating":3.5,"zip_code":"07020"},{"id":"vA2VEhW6S1ioX6tXtQdO9A","name":"Lemongrass Grill","cuisine":"Thai","address":"156 Court St","coordinates":{"latitude":40.688684,"longitude":-73.993137},"review_count":364,"rating":3.5,"zip_code":"11201"},{"id":"Nvhx093-K2xwHIZVnFstJw","name":"Copper Throat","cuisine":"Thai","address":"123 Ludlow St","coordinates":{"latitude":40.71978,"longitude":-73.98877},"review_count":25,"rating":4.5,"zip_code":"10002"},{"id":"RrPIJvmje1qb9iaYd6jH0g","name":"Pinto Restaurant","cuisine":"Thai","address":"128 Montague St","coordinates":{"latitude":40.6947735368336,"longitude":-73.9943484261754},"review_count":173,"rating":4,"zip_code":"11201"},{"id":"3Woad-SYBXbQXgtFgv-UKA","name":"Mamu Thai","cuisine":"Thai","address":"3602 36th Ave","coordinates":{"latitude":40.754463,"longitude":-73.925773},"review_count":95,"rating":4,"zip_code":"11106"},{"id":"ipxeCjihDqXTMkuPe-CQ4A","name":"Arunee Thai","cuisine":"Thai","address":"78-23 37th Ave","coordinates":{"latitude":40.7494503,"longitude":-73.8873621},"review_count":267,"rating":4,"zip_code":"11372"},{"id":"mm6DDvU8GZD__3bTY9rA5Q","name":"Pok Pok NY","cuisine":"Thai","address":"117 Columbia St","coordinates":{"latitude":40.6875482,"longitude":-74.0012315},"review_count":495,"rating":3.5,"zip_code":"11231"},{"id":"CvSOAN2WWzLRGND4vN1xtA","name":"A1 Asian Fusion","cuisine":"Thai","address":"2071 7th Ave","coordinates":{"latitude":40.807857,"longitude":-73.948677},"review_count":80,"rating":3.5,"zip_code":"10027"},{"id":"SZQqAil4kuXhNCLR7_6khg","name":"Playground Bar & Bistro And Taitoon Thai Karaoke","cuisine":"Thai","address":"7130 Roosevelt Ave","coordinates":{"latitude":40.746388,"longitude":-73.89379},"review_count":136,"rating":4,"zip_code":"11372"},{"id":"idMMDxRuuhYBbfjRS-7nFQ","name":"Red Basil Thai Kitchen","cuisine":"Thai","address":"32-47 Steinway St","coordinates":{"latitude":40.7577901795093,"longitude":-73.919802904129},"review_count":192,"rating":3.5,"zip_code":"11103"},{"id":"WAQZnCXPL7XcKebpSoyjww","name":"OTT Authentic Thai Cuisine","cuisine":"Thai","address":"970 Manhattan Ave","coordinates":{"latitude":40.732228,"longitude":-73.954262},"review_count":123,"rating":3.5,"zip_code":"11222"},{"id":"inftQdKaEEiqQ323AlomXg","name":"Dek Sen","cuisine":"Thai","address":"8608 Whitney Ave","coordinates":{"latitude":40.741714,"longitude":-73.878689},"review_count":151,"rating":4,"zip_code":"11373"},{"id":"toykv8K0yg8qtvZSXRQ5bg","name":"Pochana Thai Kitchen","cuisine":"Thai","address":"33-16 30th Ave","coordinates":{"latitude":40.765992924571,"longitude":-73.9195863157511},"review_count":85,"rating":4,"zip_code":"11103"},{"id":"zENn0_yDJEdLoHyivXb2xw","name":"Black Thai","cuisine":"Thai","address":"81-16 Northern Blvd","coordinates":{"latitude":40.7553269,"longitude":-73.8860092},"review_count":200,"rating":4,"zip_code":"11372"},{"id":"oNN202L_XcNM-tuDHlgkfg","name":"Boon Chu Thai Place","cuisine":"Thai","address":"83-18 Broadway","coordinates":{"latitude":40.740638,"longitude":-73.879645},"review_count":232,"rating":4,"zip_code":"11373"},{"id":"sXA1aTe4MVUgBpQUiISAyg","name":"Sawadee","cuisine":"Thai","address":"137 Newark Ave","coordinates":{"latitude":40.72014,"longitude":-74.04386},"review_count":448,"rating":3,"zip_code":"07302"},{"id":"TwxP5xU_xyzlf7SVzCnpuA","name":"Proong Noodle Bar","cuisine":"Thai","address":"347 1st Ave","coordinates":{"latitude":40.7352611937803,"longitude":-73.9799426652613},"review_count":28,"rating":4,"zip_code":"10010"},{"id":"4mzogOLOVDPBDVTO4cz9fA","name":"Roi Siam","cuisine":"Thai","address":"1814 Bergenline Ave","coordinates":{"latitude":40.76397,"longitude":-74.03454},"review_count":51,"rating":4.5,"zip_code":"07087"},{"id":"najYre0PPSx7-Tbg6bjObg","name":"SAMUI","cuisine":"Thai","address":"15 Vanderbilt Ave","coordinates":{"latitude":40.697399,"longitude":-73.97039},"review_count":92,"rating":4,"zip_code":"11205"},{"id":"D-gd1Gb_Nmc2MN6G0KANMg","name":"San Aroy Thai Kitchen","cuisine":"Thai","address":"2906 23rd Ave","coordinates":{"latitude":40.7748233734315,"longitude":-73.9137511700392},"review_count":53,"rating":4.5,"zip_code":"11105"},{"id":"EEf5KB5wx340TY7QwDKIqQ","name":"More Express","cuisine":"Thai","address":"281 Grove St","coordinates":{"latitude":40.717964,"longitude":-74.044227},"review_count":270,"rating":3.5,"zip_code":"07302"},{"id":"329D7GjMkRf5h1f7OwkVQw","name":"Mr Thai Restaurant","cuisine":"Thai","address":"378 Metropolitan Ave","coordinates":{"latitude":40.7141553848442,"longitude":-73.9554581978908},"review_count":43,"rating":4,"zip_code":"11211"},{"id":"5ZjNZd3Yg0jOkJ9WRx1r6g","name":"Kor Tor Mor","cuisine":"Thai","address":"204 Smith St","coordinates":{"latitude":40.6846634,"longitude":-73.9918633},"review_count":165,"rating":4,"zip_code":"11201"},{"id":"DEoUnmEnguWiwlDh3CFm1A","name":"Thai Wok","cuisine":"Thai","address":"1406 Madison Ave","coordinates":{"latitude":40.78821,"longitude":-73.95363},"review_count":42,"rating":3,"zip_code":"10029"},{"id":"eQzQo6XWLHstH5A2IpwXPQ","name":"National","cuisine":"Thai","address":"723 Fulton St","coordinates":{"latitude":40.6871800754375,"longitude":-73.9763717601786},"review_count":365,"rating":3.5,"zip_code":"11217"},{"id":"qtRPV9YANKcXU3OzcUUokw","name":"River Thai Food","cuisine":"Thai","address":"24 Hilliard Ave","coordinates":{"latitude":40.8263942,"longitude":-73.9749805},"review_count":140,"rating":4,"zip_code":"07020"},{"id":"ColGPMmJOa6YD44fjS6wfg","name":"Sri Thai Thai Restaurant","cuisine":"Thai","address":"234 Bloomfield St","coordinates":{"latitude":40.74007,"longitude":-74.03116},"review_count":169,"rating":3.5,"zip_code":"07030"},{"id":"Xh-pnPzmUOnjyDE2bTGv5w","name":"NY Thai Grill & Sushi Bar","cuisine":"Thai","address":"137 E 45th St","coordinates":{"latitude":40.75324,"longitude":-73.97405},"review_count":122,"rating":2.5,"zip_code":"10017"},{"id":"dJYc9Hi0KJRMqCkCJOxC-w","name":"Sakura Sushi & Thai Cuisine","cuisine":"Thai","address":"273 Mott St","coordinates":{"latitude":40.72386,"longitude":-73.9946499},"review_count":61,"rating":3,"zip_code":"10012"},{"id":"YvhVIOCXT8X71nkAy388Lg","name":"Lily Thai","cuisine":"Thai","address":"615 Grand St","coordinates":{"latitude":40.7114199,"longitude":-73.9476},"review_count":184,"rating":3.5,"zip_code":"11211"},{"id":"_Ki5XZTB8mL9RDYGj7KP0w","name":"22 Thai Cuisine","cuisine":"Thai","address":"59 Nassau St","coordinates":{"latitude":40.70925,"longitude":-74.0088},"review_count":126,"rating":2.5,"zip_code":"10038"},{"id":"ETOvdlOCpYeoDOgBbxe1nw","name":"Big D's Khao Cart","cuisine":"Thai","address":"50th & 6th Ave","coordinates":{"latitude":40.7598896,"longitude":-73.9804421},"review_count":15,"rating":4,"zip_code":"10020"},{"id":"LvmDVd1OlRGFdtY4RH2iSQ","name":"Abaya Thai","cuisine":"Thai","address":"318 W 36th St","coordinates":{"latitude":40.7536583,"longitude":-73.9935608},"review_count":43,"rating":3,"zip_code":"10018"},{"id":"RmQOUUkwHDhuuh9Y6XzLsQ","name":"Hungry?","cuisine":"Thai","address":"77 Norman Ave","coordinates":{"latitude":40.7253533,"longitude":-73.952406},"review_count":61,"rating":4,"zip_code":"11222"},{"id":"4M-nT45SdA119-lcJg9c9A","name":"Sabay Thai Restaurant","cuisine":"Thai","address":"75-19 Broadway","coordinates":{"latitude":40.746098,"longitude":-73.890055},"review_count":106,"rating":4,"zip_code":"11373"},{"id":"0fjab0vzFgIQ-FKzjFR7JQ","name":"Dannee","cuisine":"Thai","address":"433 Dekalb Ave","coordinates":{"latitude":40.690601348877,"longitude":-73.9600830078125},"review_count":101,"rating":4,"zip_code":"11205"},{"id":"WFx1VcopQGjW7jbERZUUbA","name":"Tommy Thai","cuisine":"Thai","address":"85-32 Grand Ave","coordinates":{"latitude":40.7353096,"longitude":-73.8810272},"review_count":122,"rating":4,"zip_code":"11373"},{"id":"xSrEOf3Ht7eK5sUpReAGkQ","name":"Miss Thailand","cuisine":"Thai","address":"346 Graham Ave","coordinates":{"latitude":40.71471,"longitude":-73.94414},"review_count":33,"rating":4.5,"zip_code":"11211"},{"id":"zKokTcCI-L1xZwcvE9AxAg","name":"Thai Elephant","cuisine":"Thai","address":"21-09 31st St","coordinates":{"latitude":40.7776947319508,"longitude":-73.9087039232254},"review_count":189,"rating":3,"zip_code":"11105"},{"id":"CFIOL_GmkAuJyz3fKc7WYg","name":"Sky Thai","cuisine":"Thai","address":"62 Morris St","coordinates":{"latitude":40.7138037749034,"longitude":-74.0364373547132},"review_count":308,"rating":3,"zip_code":"07302"},{"id":"qZhf1wIyfnMKequoqqs1oQ","name":"Royal II Thai Cuisine","cuisine":"Thai","address":"318 W 36th St","coordinates":{"latitude":40.753669,"longitude":-73.993576},"review_count":93,"rating":2.5,"zip_code":"10018"},{"id":"fZuIszXbPoyzYMDSYd3oOA","name":"Ghang Thai Kitchen","cuisine":"Thai","address":"229 Court St","coordinates":{"latitude":40.6861,"longitude":-73.99381},"review_count":171,"rating":3.5,"zip_code":"11201"},{"id":"XF9MChLaOvtaFV-bReLBqQ","name":"China Moon","cuisine":"Thai","address":"7 E 47th St","coordinates":{"latitude":40.75653,"longitude":-73.97768},"review_count":92,"rating":2,"zip_code":"10017"},{"id":"rL2wuxtLAQWPDZ0IbOHjxA","name":"Boon Chu 2 Thai Place","cuisine":"Thai","address":"35-13 Ditmars Blvd","coordinates":{"latitude":40.775196,"longitude":-73.908981},"review_count":137,"rating":3.5,"zip_code":"11105"},{"id":"8Jz2IfS-BGCm1GniqJVe2A","name":"Saketumi Asian Bistro","cuisine":"Thai","address":"118 Montague St","coordinates":{"latitude":40.694698,"longitude":-73.994769},"review_count":93,"rating":4,"zip_code":"11201"},{"id":"gNS0joGKALsNXFqKmZuurg","name":"Ocean Dragon","cuisine":"Thai","address":"877 10th Ave","coordinates":{"latitude":40.7694396972656,"longitude":-73.9886703491211},"review_count":62,"rating":3,"zip_code":"10019"},{"id":"n1EbqNtQQUg51rUd5A9_cA","name":"Hi Noodle Etc","cuisine":"Thai","address":"333 Graham Ave","coordinates":{"latitude":40.714275,"longitude":-73.944649},"review_count":95,"rating":3.5,"zip_code":"11211"},{"id":"utg1E8cea7vY5VuDyoOthA","name":"Sompong Thai","cuisine":"Thai","address":"3709 83rd St","coordinates":{"latitude":40.7495483,"longitude":-73.8831438},"review_count":91,"rating":4,"zip_code":"11372"},{"id":"bjf8vmAIrdPo1aHoaYPkBw","name":"Sweet Basil","cuisine":"Thai","address":"39-28 61st St","coordinates":{"latitude":40.746457,"longitude":-73.9032297},"review_count":101,"rating":4,"zip_code":"11377"},{"id":"3KlWyCJ2BikxwcEb0-O4Ww","name":"Thai Cafe","cuisine":"Thai","address":"925 Manhattan Ave","coordinates":{"latitude":40.73104,"longitude":-73.95456},"review_count":110,"rating":3,"zip_code":"11222"},{"id":"BeQgG_eup8mfs8qBDsRv6A","name":"Anago Sushi","cuisine":"Thai","address":"240 8th Ave","coordinates":{"latitude":40.744712,"longitude":-73.998573},"review_count":19,"rating":3.5,"zip_code":"10011"},{"id":"RVVXyZaUDWtPLxJRuP7wEw","name":"Bangkok BAR NYC","cuisine":"Thai","address":"230 Park Ave","coordinates":{"latitude":40.754394,"longitude":-73.976104},"review_count":57,"rating":2.5,"zip_code":"10169"},{"id":"67ooBJ3bSfM0Kbnl2xEx7g","name":"Chin Chin Thai Kitchen","cuisine":"Thai","address":"5717 Roosevelt Ave","coordinates":{"latitude":40.745575,"longitude":-73.906898},"review_count":58,"rating":3.5,"zip_code":"11377"},{"id":"sDxRkhk9A2nDT2aKENsAww","name":"Cheers Thai","cuisine":"Thai","address":"568 Metropolitan Ave","coordinates":{"latitude":40.71382,"longitude":-73.949971},"review_count":104,"rating":3.5,"zip_code":"11211"},{"id":"yDR9eVFATpyzrz3x1DtJGg","name":"Aroy-D, The Thai Elephant Truck","cuisine":"Thai","address":"1 14th St Hoboken Nj","coordinates":{"latitude":40.753141,"longitude":-74.025085},"review_count":41,"rating":3.5,"zip_code":"07030"},{"id":"0VGn3bLaUG7lhM5WwkMTCA","name":"Bangkok City Thai Restaurant","cuisine":"Thai","address":"335 Washington St","coordinates":{"latitude":40.74106,"longitude":-74.02956},"review_count":137,"rating":3,"zip_code":"07030"},{"id":"iTke4ZsI0WyAHD6fmAtRLA","name":"Coco South East Asian Cuisine","cuisine":"Thai","address":"8269 Broadway","coordinates":{"latitude":40.741662,"longitude":-73.8804985},"review_count":213,"rating":3,"zip_code":"11373"},{"id":"EzyjRrhRpt_NR7wIwqm_Rg","name":"Prik Thai Kitchen","cuisine":"Thai","address":"4716 30th Ave","coordinates":{"latitude":40.76099,"longitude":-73.9088395},"review_count":83,"rating":3.5,"zip_code":"11103"},{"id":"mYGtK2CuR5u_hUACnnhqTA","name":"Esan Thai Food","cuisine":"Thai","address":"51-20 Skillman Ave","coordinates":{"latitude":40.7456818,"longitude":-73.9126129},"review_count":70,"rating":3.5,"zip_code":"11377"},{"id":"veeT_UTyJl_szVVZ5vq4zA","name":"Pad Thai","cuisine":"Thai","address":"2115 Frederick Douglas Blvd","coordinates":{"latitude":40.80346,"longitude":-73.95647},"review_count":27,"rating":3.5,"zip_code":"10026"},{"id":"QMjwVS8CAJ72T5PLiSx3GA","name":"Sweet Chili","cuisine":"Thai","address":null,"coordinates":{"latitude":40.69347,"longitude":-73.99052},"review_count":59,"rating":4,"zip_code":"11201"},{"id":"NLX5qLkupQAQaXmrikjw9A","name":"Joe Asian & Sushi","cuisine":"Thai","address":"33-19 36th Ave","coordinates":{"latitude":40.75567,"longitude":-73.92734},"review_count":41,"rating":4,"zip_code":"11106"},{"id":"RwEs6AvU5Cxp_ENodsgxHw","name":"Nana","cuisine":"Thai","address":"406 Central Ave","coordinates":{"latitude":40.7486037794125,"longitude":-74.0474019238639},"review_count":61,"rating":4,"zip_code":"07307"},{"id":"yCJHIM-PWl54K53ACOpoNg","name":"Hug Esan","cuisine":"Thai","address":"77-16 Woodside Ave","coordinates":{"latitude":40.7436465,"longitude":-73.8873753},"review_count":45,"rating":4.5,"zip_code":"11373"},{"id":"C6NvtFvXo86_kEWi3qBYWQ","name":"Golden Dragon","cuisine":"Thai","address":"3406 31st Ave","coordinates":{"latitude":40.76287,"longitude":-73.92097},"review_count":67,"rating":3.5,"zip_code":"11106"},{"id":"NIiJThBRxA3dfLzflrqvdg","name":"Pansiam","cuisine":"Thai","address":"42-06 30th Ave","coordinates":{"latitude":40.7627128,"longitude":-73.9128091},"review_count":35,"rating":4,"zip_code":"11103"},{"id":"ZGKdgFAGOL6NOPXPrBkhzA","name":"Myrtle Thai","cuisine":"Thai","address":"438 Myrtle Ave","coordinates":{"latitude":40.69308,"longitude":-73.96814},"review_count":140,"rating":3.5,"zip_code":"11205"},{"id":"yp-qSp0TpQAL7_EwIzFczg","name":"Wild Fusion","cuisine":"Thai","address":"313 Grove St","coordinates":{"latitude":40.71929,"longitude":-74.0435},"review_count":242,"rating":3,"zip_code":"07302"},{"id":"YaC0zQKELcFAwhWX0oSUCQ","name":"BANY - Best Asian of New York","cuisine":"Thai","address":"10-57 Jackson Ave","coordinates":{"latitude":40.74279,"longitude":-73.952743},"review_count":102,"rating":2.5,"zip_code":"11101"},{"id":"DUnRsZh-pSOsIhQa3ZJrEA","name":"8 Paet Rio","cuisine":"Thai","address":"81-10 Broadway","coordinates":{"latitude":40.7430218204115,"longitude":-73.8834197446704},"review_count":80,"rating":4,"zip_code":"11373"}]}
